{"pageProps":{"stateName":"Wisconsin","cityName":"armstrong-creek","nearbyCities":[{"city":"Goodman","state_name":"Wisconsin","lat":45.58995,"lng":-88.38325,"zip":"54125","miles_from_dt":6.96},{"city":"Fence","state_name":"Wisconsin","lat":45.75892,"lng":-88.49089,"zip":"54120","miles_from_dt":7.55},{"city":"Laona","state_name":"Wisconsin","lat":45.55218,"lng":-88.65937,"zip":"54541","miles_from_dt":10.29},{"city":"Dunbar","state_name":"Wisconsin","lat":45.62488,"lng":-88.18285,"zip":"54119","miles_from_dt":15.41},{"city":"Wabeno","state_name":"Wisconsin","lat":45.42481,"lng":-88.63263,"zip":"54566","miles_from_dt":16.83},{"city":"Argonne","state_name":"Wisconsin","lat":45.72365,"lng":-88.83177,"zip":"54511","miles_from_dt":16.9},{"city":"Florence","state_name":"Wisconsin","lat":45.86385,"lng":-88.32899,"zip":"54121","miles_from_dt":16.92},{"city":"Athelstane","state_name":"Wisconsin","lat":45.44018,"lng":-88.26518,"zip":"54104","miles_from_dt":18.38},{"city":"Long Lake","state_name":"Wisconsin","lat":45.92127,"lng":-88.72536,"zip":"54542","miles_from_dt":21.71},{"city":"Crandon","state_name":"Wisconsin","lat":45.53773,"lng":-88.92303,"zip":"54520","miles_from_dt":21.97},{"city":"Lakewood","state_name":"Wisconsin","lat":45.33064,"lng":-88.42783,"zip":"54138","miles_from_dt":22.3},{"city":"Kingsford","state_name":"Michigan","lat":45.80053,"lng":-88.07718,"zip":"49802","miles_from_dt":22.9},{"city":"Townsend","state_name":"Wisconsin","lat":45.30552,"lng":-88.62394,"zip":"54175","miles_from_dt":24.54},{"city":"Niagara","state_name":"Wisconsin","lat":45.72352,"lng":-87.99752,"zip":"54151","miles_from_dt":24.8},{"city":"Pickerel","state_name":"Wisconsin","lat":45.39327,"lng":-88.88334,"zip":"54465","miles_from_dt":25.73},{"city":"Amberg","state_name":"Wisconsin","lat":45.50278,"lng":-88.00524,"zip":"54102","miles_from_dt":26},{"city":"Pembine","state_name":"Wisconsin","lat":45.60099,"lng":-87.93963,"zip":"54156","miles_from_dt":27.31},{"city":"Quinnesec","state_name":"Michigan","lat":45.80211,"lng":-87.97729,"zip":"49876","miles_from_dt":27.34},{"city":"Gaastra","state_name":"Michigan","lat":46.04475,"lng":-88.57108,"zip":"49927","miles_from_dt":27.5},{"city":"Alpha","state_name":"Michigan","lat":46.04905,"lng":-88.37744,"zip":"49902","miles_from_dt":28.2},{"city":"Caspian","state_name":"Michigan","lat":46.06464,"lng":-88.62708,"zip":"49915","miles_from_dt":29.32},{"city":"Iron Mountain","state_name":"Michigan","lat":45.9191,"lng":-88.01795,"zip":"49801","miles_from_dt":29.77}],"targetCityZipCode":"54103","targetCityState":"Wisconsin"},"__N_SSG":true}