{"pageProps":{"stateName":"Wisconsin","cityName":"chetek","nearbyCities":[{"city":"Cameron","state_name":"Wisconsin","lat":45.3944,"lng":-91.69995,"zip":"54822","miles_from_dt":6.62},{"city":"New Auburn","state_name":"Wisconsin","lat":45.23085,"lng":-91.52498,"zip":"54757","miles_from_dt":7.79},{"city":"Sand Creek","state_name":"Wisconsin","lat":45.17092,"lng":-91.7028,"zip":"54765","miles_from_dt":9.91},{"city":"Dallas","state_name":"Wisconsin","lat":45.28331,"lng":-91.85641,"zip":"54733","miles_from_dt":10.6},{"city":"Barron","state_name":"Wisconsin","lat":45.39911,"lng":-91.88103,"zip":"54812","miles_from_dt":13.25},{"city":"Weyerhaeuser","state_name":"Wisconsin","lat":45.44233,"lng":-91.44605,"zip":"54895","miles_from_dt":13.3},{"city":"Ridgeland","state_name":"Wisconsin","lat":45.179,"lng":-91.87683,"zip":"54763","miles_from_dt":14.51},{"city":"Rice Lake","state_name":"Wisconsin","lat":45.52723,"lng":-91.70977,"zip":"54868","miles_from_dt":15.51},{"city":"Bloomer","state_name":"Wisconsin","lat":45.10793,"lng":-91.48458,"zip":"54724","miles_from_dt":15.79},{"city":"Prairie Farm","state_name":"Wisconsin","lat":45.25107,"lng":-91.98967,"zip":"54762","miles_from_dt":17.41},{"city":"Wheeler","state_name":"Wisconsin","lat":45.09668,"lng":-91.87303,"zip":"54772","miles_from_dt":18.44},{"city":"Mikana","state_name":"Wisconsin","lat":45.59347,"lng":-91.59927,"zip":"54857","miles_from_dt":19.84},{"city":"Almena","state_name":"Wisconsin","lat":45.41465,"lng":-92.02311,"zip":"54805","miles_from_dt":19.98},{"city":"Bruce","state_name":"Wisconsin","lat":45.47636,"lng":-91.30307,"zip":"54819","miles_from_dt":20.17},{"city":"Colfax","state_name":"Wisconsin","lat":45.01836,"lng":-91.72143,"zip":"54730","miles_from_dt":20.36},{"city":"Haugen","state_name":"Wisconsin","lat":45.60776,"lng":-91.77887,"zip":"54841","miles_from_dt":21.76},{"city":"Clayton","state_name":"Wisconsin","lat":45.30699,"lng":-92.12414,"zip":"54004","miles_from_dt":23.51},{"city":"Jim Falls","state_name":"Wisconsin","lat":45.07919,"lng":-91.26586,"zip":"54748","miles_from_dt":24.21},{"city":"Boyceville","state_name":"Wisconsin","lat":45.07103,"lng":-92.01062,"zip":"54725","miles_from_dt":24.33},{"city":"Holcombe","state_name":"Wisconsin","lat":45.24875,"lng":-91.13494,"zip":"54745","miles_from_dt":25.04},{"city":"Birchwood","state_name":"Wisconsin","lat":45.67056,"lng":-91.53942,"zip":"54817","miles_from_dt":25.54},{"city":"Cornell","state_name":"Wisconsin","lat":45.14571,"lng":-91.16543,"zip":"54732","miles_from_dt":25.8},{"city":"Turtle Lake","state_name":"Wisconsin","lat":45.41374,"lng":-92.17112,"zip":"54889","miles_from_dt":26.79},{"city":"Cumberland","state_name":"Wisconsin","lat":45.5592,"lng":-92.06603,"zip":"54829","miles_from_dt":26.97},{"city":"Conrath","state_name":"Wisconsin","lat":45.34656,"lng":-91.08304,"zip":"54731","miles_from_dt":27.35},{"city":"Downing","state_name":"Wisconsin","lat":45.09045,"lng":-92.11358,"zip":"54734","miles_from_dt":27.5},{"city":"Chippewa Falls","state_name":"Wisconsin","lat":44.94533,"lng":-91.39342,"zip":"54729","miles_from_dt":27.82},{"city":"Chippewa Falls","state_name":"Wisconsin","lat":44.93371,"lng":-91.39151,"zip":"54774","miles_from_dt":28.58},{"city":"Sarona","state_name":"Wisconsin","lat":45.71205,"lng":-91.76967,"zip":"54870","miles_from_dt":28.6},{"city":"Comstock","state_name":"Wisconsin","lat":45.49971,"lng":-92.16422,"zip":"54826","miles_from_dt":28.67},{"city":"Clear Lake","state_name":"Wisconsin","lat":45.23447,"lng":-92.23051,"zip":"54005","miles_from_dt":29.15},{"city":"Ladysmith","state_name":"Wisconsin","lat":45.51546,"lng":-91.10284,"zip":"54848","miles_from_dt":29.88}],"targetCityZipCode":"54728","targetCityState":"Wisconsin"},"__N_SSG":true}