{"pageProps":{"stateName":"Wisconsin","cityName":"elcho","nearbyCities":[{"city":"Summit Lake","state_name":"Wisconsin","lat":45.39373,"lng":-89.21894,"zip":"54485","miles_from_dt":3.63},{"city":"Pelican Lake","state_name":"Wisconsin","lat":45.50876,"lng":-89.22536,"zip":"54463","miles_from_dt":5.69},{"city":"Pearson","state_name":"Wisconsin","lat":45.39408,"lng":-89.00031,"zip":"54462","miles_from_dt":8.86},{"city":"Deerbrook","state_name":"Wisconsin","lat":45.28471,"lng":-89.18701,"zip":"54424","miles_from_dt":10.41},{"city":"Crandon","state_name":"Wisconsin","lat":45.53773,"lng":-88.92303,"zip":"54520","miles_from_dt":14.05},{"city":"Pickerel","state_name":"Wisconsin","lat":45.39327,"lng":-88.88334,"zip":"54465","miles_from_dt":14.37},{"city":"Gleason","state_name":"Wisconsin","lat":45.35084,"lng":-89.44349,"zip":"54435","miles_from_dt":14.4},{"city":"Rhinelander","state_name":"Wisconsin","lat":45.65973,"lng":-89.34303,"zip":"54501","miles_from_dt":17.57},{"city":"Bryant","state_name":"Wisconsin","lat":45.21566,"lng":-88.98003,"zip":"54418","miles_from_dt":17.83},{"city":"Antigo","state_name":"Wisconsin","lat":45.11928,"lng":-89.16909,"zip":"54409","miles_from_dt":21.81},{"city":"Irma","state_name":"Wisconsin","lat":45.36532,"lng":-89.65439,"zip":"54442","miles_from_dt":23.92},{"city":"White Lake","state_name":"Wisconsin","lat":45.2343,"lng":-88.76541,"zip":"54491","miles_from_dt":24.21},{"city":"Elton","state_name":"Wisconsin","lat":45.1395,"lng":-88.8872,"zip":"54430","miles_from_dt":24.71},{"city":"Argonne","state_name":"Wisconsin","lat":45.72365,"lng":-88.83177,"zip":"54511","miles_from_dt":25.9},{"city":"Laona","state_name":"Wisconsin","lat":45.55218,"lng":-88.65937,"zip":"54541","miles_from_dt":26.22},{"city":"Wabeno","state_name":"Wisconsin","lat":45.42481,"lng":-88.63263,"zip":"54566","miles_from_dt":26.28},{"city":"Three Lakes","state_name":"Wisconsin","lat":45.81081,"lng":-89.0813,"zip":"54562","miles_from_dt":26.32},{"city":"Phlox","state_name":"Wisconsin","lat":45.05486,"lng":-89.01748,"zip":"54464","miles_from_dt":27.33},{"city":"Heafford Junction","state_name":"Wisconsin","lat":45.5472,"lng":-89.71518,"zip":"54532","miles_from_dt":27.46},{"city":"Townsend","state_name":"Wisconsin","lat":45.30552,"lng":-88.62394,"zip":"54175","miles_from_dt":28.18},{"city":"McNaughton","state_name":"Wisconsin","lat":45.76708,"lng":-89.51497,"zip":"54543","miles_from_dt":28.3},{"city":"Tomahawk","state_name":"Wisconsin","lat":45.50429,"lng":-89.75114,"zip":"54487","miles_from_dt":28.5},{"city":"Aniwa","state_name":"Wisconsin","lat":45.02861,"lng":-89.30922,"zip":"54408","miles_from_dt":28.85},{"city":"Harshaw","state_name":"Wisconsin","lat":45.67821,"lng":-89.66006,"zip":"54529","miles_from_dt":28.99}],"targetCityZipCode":"54428","targetCityState":"Wisconsin"},"__N_SSG":true}