{"pageProps":{"stateName":"Wisconsin","cityName":"frederic","nearbyCities":[{"city":"Siren","state_name":"Wisconsin","lat":45.76965,"lng":-92.39622,"zip":"54872","miles_from_dt":6.83},{"city":"Luck","state_name":"Wisconsin","lat":45.57106,"lng":-92.45211,"zip":"54853","miles_from_dt":8.49},{"city":"Milltown","state_name":"Wisconsin","lat":45.51824,"lng":-92.46031,"zip":"54858","miles_from_dt":11.89},{"city":"Webster","state_name":"Wisconsin","lat":45.87094,"lng":-92.30837,"zip":"54893","miles_from_dt":13.77},{"city":"Hertel","state_name":"Wisconsin","lat":45.80724,"lng":-92.13786,"zip":"54845","miles_from_dt":14.03},{"city":"Balsam Lake","state_name":"Wisconsin","lat":45.46126,"lng":-92.38403,"zip":"54810","miles_from_dt":14.79},{"city":"Cushing","state_name":"Wisconsin","lat":45.58958,"lng":-92.64824,"zip":"54006","miles_from_dt":15.26},{"city":"Comstock","state_name":"Wisconsin","lat":45.49971,"lng":-92.16422,"zip":"54826","miles_from_dt":15.29},{"city":"Barronett","state_name":"Wisconsin","lat":45.65477,"lng":-92.03071,"zip":"54813","miles_from_dt":15.89},{"city":"Cumberland","state_name":"Wisconsin","lat":45.5592,"lng":-92.06603,"zip":"54829","miles_from_dt":16.22},{"city":"Centuria","state_name":"Wisconsin","lat":45.4753,"lng":-92.54017,"zip":"54824","miles_from_dt":16.37},{"city":"Grantsburg","state_name":"Wisconsin","lat":45.7556,"lng":-92.68928,"zip":"54840","miles_from_dt":17},{"city":"Shell Lake","state_name":"Wisconsin","lat":45.7412,"lng":-92.01503,"zip":"54871","miles_from_dt":17.2},{"city":"Saint Croix Falls","state_name":"Wisconsin","lat":45.49873,"lng":-92.64781,"zip":"54024","miles_from_dt":18.59},{"city":"Turtle Lake","state_name":"Wisconsin","lat":45.41374,"lng":-92.17112,"zip":"54889","miles_from_dt":20.16},{"city":"Taylors Falls","state_name":"Minnesota","lat":45.46029,"lng":-92.70747,"zip":"55084","miles_from_dt":22.52},{"city":"Amery","state_name":"Wisconsin","lat":45.33417,"lng":-92.38703,"zip":"54001","miles_from_dt":23.55},{"city":"Almena","state_name":"Wisconsin","lat":45.41465,"lng":-92.02311,"zip":"54805","miles_from_dt":24.2},{"city":"Dresser","state_name":"Wisconsin","lat":45.35358,"lng":-92.57693,"zip":"54009","miles_from_dt":24.6},{"city":"Spooner","state_name":"Wisconsin","lat":45.86711,"lng":-91.92266,"zip":"54801","miles_from_dt":24.87},{"city":"Center City","state_name":"Minnesota","lat":45.44166,"lng":-92.78952,"zip":"55012","miles_from_dt":26.42},{"city":"Shafer","state_name":"Minnesota","lat":45.38351,"lng":-92.73292,"zip":"55074","miles_from_dt":27.13},{"city":"Clayton","state_name":"Wisconsin","lat":45.30699,"lng":-92.12414,"zip":"54004","miles_from_dt":27.8},{"city":"Rock Creek","state_name":"Minnesota","lat":45.7623,"lng":-92.9262,"zip":"55067","miles_from_dt":28.17},{"city":"Haugen","state_name":"Wisconsin","lat":45.60776,"lng":-91.77887,"zip":"54841","miles_from_dt":28.41},{"city":"Sarona","state_name":"Wisconsin","lat":45.71205,"lng":-91.76967,"zip":"54870","miles_from_dt":28.57},{"city":"Pine City","state_name":"Minnesota","lat":45.83263,"lng":-92.90584,"zip":"55063","miles_from_dt":28.67},{"city":"Rush City","state_name":"Minnesota","lat":45.6928,"lng":-92.96768,"zip":"55069","miles_from_dt":29.56},{"city":"Lindstrom","state_name":"Minnesota","lat":45.39777,"lng":-92.83074,"zip":"55045","miles_from_dt":29.88},{"city":"Barron","state_name":"Wisconsin","lat":45.39911,"lng":-91.88103,"zip":"54812","miles_from_dt":29.95}],"targetCityZipCode":"54837","targetCityState":"Wisconsin"},"__N_SSG":true}