{"pageProps":{"stateName":"Wisconsin","cityName":"goodman","nearbyCities":[{"city":"Armstrong Creek","state_name":"Wisconsin","lat":45.64972,"lng":-88.49885,"zip":"54103","miles_from_dt":6.96},{"city":"Dunbar","state_name":"Wisconsin","lat":45.62488,"lng":-88.18285,"zip":"54119","miles_from_dt":10.01},{"city":"Athelstane","state_name":"Wisconsin","lat":45.44018,"lng":-88.26518,"zip":"54104","miles_from_dt":11.83},{"city":"Fence","state_name":"Wisconsin","lat":45.75892,"lng":-88.49089,"zip":"54120","miles_from_dt":12.78},{"city":"Laona","state_name":"Wisconsin","lat":45.55218,"lng":-88.65937,"zip":"54541","miles_from_dt":13.64},{"city":"Wabeno","state_name":"Wisconsin","lat":45.42481,"lng":-88.63263,"zip":"54566","miles_from_dt":16.63},{"city":"Lakewood","state_name":"Wisconsin","lat":45.33064,"lng":-88.42783,"zip":"54138","miles_from_dt":18.04},{"city":"Florence","state_name":"Wisconsin","lat":45.86385,"lng":-88.32899,"zip":"54121","miles_from_dt":19.1},{"city":"Amberg","state_name":"Wisconsin","lat":45.50278,"lng":-88.00524,"zip":"54102","miles_from_dt":19.31},{"city":"Kingsford","state_name":"Michigan","lat":45.80053,"lng":-88.07718,"zip":"49802","miles_from_dt":20.76},{"city":"Niagara","state_name":"Wisconsin","lat":45.72352,"lng":-87.99752,"zip":"54151","miles_from_dt":20.83},{"city":"Pembine","state_name":"Wisconsin","lat":45.60099,"lng":-87.93963,"zip":"54156","miles_from_dt":21.52},{"city":"Townsend","state_name":"Wisconsin","lat":45.30552,"lng":-88.62394,"zip":"54175","miles_from_dt":22.86},{"city":"Argonne","state_name":"Wisconsin","lat":45.72365,"lng":-88.83177,"zip":"54511","miles_from_dt":23.6},{"city":"Quinnesec","state_name":"Michigan","lat":45.80211,"lng":-87.97729,"zip":"49876","miles_from_dt":24.51},{"city":"Crandon","state_name":"Wisconsin","lat":45.53773,"lng":-88.92303,"zip":"54520","miles_from_dt":26.43},{"city":"Crivitz","state_name":"Wisconsin","lat":45.25254,"lng":-88.12197,"zip":"54114","miles_from_dt":26.54},{"city":"Mountain","state_name":"Wisconsin","lat":45.204,"lng":-88.47445,"zip":"54149","miles_from_dt":27.02},{"city":"Pickerel","state_name":"Wisconsin","lat":45.39327,"lng":-88.88334,"zip":"54465","miles_from_dt":27.83},{"city":"Long Lake","state_name":"Wisconsin","lat":45.92127,"lng":-88.72536,"zip":"54542","miles_from_dt":28.23},{"city":"Wausaukee","state_name":"Wisconsin","lat":45.36428,"lng":-87.89183,"zip":"54177","miles_from_dt":28.51},{"city":"Iron Mountain","state_name":"Michigan","lat":45.9191,"lng":-88.01795,"zip":"49801","miles_from_dt":28.79}],"targetCityZipCode":"54125","targetCityState":"Wisconsin"},"__N_SSG":true}