{"pageProps":{"stateName":"Wisconsin","cityName":"mather","nearbyCities":[{"city":"Warrens","state_name":"Wisconsin","lat":44.16201,"lng":-90.4399,"zip":"54666","miles_from_dt":6.64},{"city":"Necedah","state_name":"Wisconsin","lat":44.08807,"lng":-90.0912,"zip":"54646","miles_from_dt":11.49},{"city":"Babcock","state_name":"Wisconsin","lat":44.28363,"lng":-90.15185,"zip":"54413","miles_from_dt":12.37},{"city":"Camp Douglas","state_name":"Wisconsin","lat":43.95921,"lng":-90.28967,"zip":"54618","miles_from_dt":12.82},{"city":"Oakdale","state_name":"Wisconsin","lat":43.96062,"lng":-90.38127,"zip":"54649","miles_from_dt":13.2},{"city":"Tomah","state_name":"Wisconsin","lat":43.98525,"lng":-90.50496,"zip":"54660","miles_from_dt":14.71},{"city":"Tunnel City","state_name":"Wisconsin","lat":43.99955,"lng":-90.56014,"zip":"54662","miles_from_dt":16.03},{"city":"Millston","state_name":"Wisconsin","lat":44.18758,"lng":-90.63432,"zip":"54643","miles_from_dt":16.46},{"city":"Pittsville","state_name":"Wisconsin","lat":44.3855,"lng":-90.31687,"zip":"54466","miles_from_dt":16.65},{"city":"Hustler","state_name":"Wisconsin","lat":43.87874,"lng":-90.27076,"zip":"54637","miles_from_dt":18.44},{"city":"New Lisbon","state_name":"Wisconsin","lat":43.90477,"lng":-90.13463,"zip":"53950","miles_from_dt":18.68},{"city":"Arkdale","state_name":"Wisconsin","lat":44.07549,"lng":-89.92131,"zip":"54613","miles_from_dt":19.84},{"city":"Nekoosa","state_name":"Wisconsin","lat":44.22965,"lng":-89.89502,"zip":"54457","miles_from_dt":21.37},{"city":"Wilton","state_name":"Wisconsin","lat":43.83802,"lng":-90.48273,"zip":"54670","miles_from_dt":22.87},{"city":"Wisconsin Rapids","state_name":"Wisconsin","lat":44.39081,"lng":-89.95351,"zip":"54495","miles_from_dt":24.49},{"city":"Kendall","state_name":"Wisconsin","lat":43.79088,"lng":-90.3875,"zip":"54638","miles_from_dt":24.72},{"city":"Black River Falls","state_name":"Wisconsin","lat":44.26158,"lng":-90.78049,"zip":"54615","miles_from_dt":24.8},{"city":"Port Edwards","state_name":"Wisconsin","lat":44.34642,"lng":-89.87028,"zip":"54469","miles_from_dt":25.84},{"city":"Vesper","state_name":"Wisconsin","lat":44.45445,"lng":-90.0075,"zip":"54489","miles_from_dt":26.1},{"city":"Sparta","state_name":"Wisconsin","lat":44.00291,"lng":-90.79601,"zip":"54656","miles_from_dt":26.16},{"city":"Friendship","state_name":"Wisconsin","lat":43.98044,"lng":-89.82184,"zip":"53934","miles_from_dt":26.74},{"city":"Cataract","state_name":"Wisconsin","lat":44.09118,"lng":-90.84255,"zip":"54620","miles_from_dt":26.82},{"city":"Norwalk","state_name":"Wisconsin","lat":43.83544,"lng":-90.63553,"zip":"54648","miles_from_dt":26.85},{"city":"Elroy","state_name":"Wisconsin","lat":43.75415,"lng":-90.28376,"zip":"53929","miles_from_dt":26.97},{"city":"Granton","state_name":"Wisconsin","lat":44.54149,"lng":-90.43101,"zip":"54436","miles_from_dt":28.08},{"city":"Mauston","state_name":"Wisconsin","lat":43.77846,"lng":-90.05161,"zip":"53948","miles_from_dt":28.33}],"targetCityZipCode":"54641","targetCityState":"Wisconsin"},"__N_SSG":true}