{"pageProps":{"stateName":"Wisconsin","cityName":"new-franken","nearbyCities":[{"city":"Luxemburg","state_name":"Wisconsin","lat":44.54694,"lng":-87.71748,"zip":"54217","miles_from_dt":5.24},{"city":"Green Bay","state_name":"Wisconsin","lat":44.48377,"lng":-87.89483,"zip":"54311","miles_from_dt":6.64},{"city":"Green Bay","state_name":"Wisconsin","lat":44.50922,"lng":-87.93409,"zip":"54308","miles_from_dt":6.76},{"city":"Green Bay","state_name":"Wisconsin","lat":44.50663,"lng":-87.97668,"zip":"54302","miles_from_dt":8.66},{"city":"Casco","state_name":"Wisconsin","lat":44.60444,"lng":-87.62912,"zip":"54205","miles_from_dt":9.86},{"city":"Green Bay","state_name":"Wisconsin","lat":44.51951,"lng":-88.01767,"zip":"54306","miles_from_dt":10.2},{"city":"Green Bay","state_name":"Wisconsin","lat":44.48193,"lng":-88.02029,"zip":"54301","miles_from_dt":11.37},{"city":"Green Bay","state_name":"Wisconsin","lat":44.53931,"lng":-88.05115,"zip":"54303","miles_from_dt":11.5},{"city":"Green Bay","state_name":"Wisconsin","lat":44.47948,"lng":-88.02135,"zip":"54324","miles_from_dt":11.5},{"city":"Suamico","state_name":"Wisconsin","lat":44.64228,"lng":-88.03212,"zip":"54173","miles_from_dt":11.74},{"city":"Green Bay","state_name":"Wisconsin","lat":44.47049,"lng":-88.0366,"zip":"54307","miles_from_dt":12.47},{"city":"Green Bay","state_name":"Wisconsin","lat":44.49419,"lng":-88.06758,"zip":"54304","miles_from_dt":13.11},{"city":"Green Bay","state_name":"Wisconsin","lat":44.53315,"lng":-88.09624,"zip":"54305","miles_from_dt":13.77},{"city":"Denmark","state_name":"Wisconsin","lat":44.36239,"lng":-87.79619,"zip":"54208","miles_from_dt":13.98},{"city":"Green Bay","state_name":"Wisconsin","lat":44.58923,"lng":-88.11088,"zip":"54313","miles_from_dt":14.42},{"city":"Little Suamico","state_name":"Wisconsin","lat":44.72753,"lng":-88.00567,"zip":"54141","miles_from_dt":14.5},{"city":"Kewaunee","state_name":"Wisconsin","lat":44.43651,"lng":-87.58069,"zip":"54216","miles_from_dt":14.78},{"city":"Algoma","state_name":"Wisconsin","lat":44.61987,"lng":-87.49399,"zip":"54201","miles_from_dt":16.58},{"city":"Brussels","state_name":"Wisconsin","lat":44.76189,"lng":-87.61552,"zip":"54204","miles_from_dt":17},{"city":"Green Bay","state_name":"Wisconsin","lat":44.41919,"lng":-88.10474,"zip":"54344","miles_from_dt":17.24},{"city":"De Pere","state_name":"Wisconsin","lat":44.40552,"lng":-88.09195,"zip":"54115","miles_from_dt":17.31},{"city":"Forestville","state_name":"Wisconsin","lat":44.69926,"lng":-87.52114,"zip":"54213","miles_from_dt":17.48},{"city":"Sobieski","state_name":"Wisconsin","lat":44.71957,"lng":-88.12017,"zip":"54171","miles_from_dt":18.25},{"city":"Oneida","state_name":"Wisconsin","lat":44.51979,"lng":-88.19038,"zip":"54155","miles_from_dt":18.5},{"city":"Tisch Mills","state_name":"Wisconsin","lat":44.32752,"lng":-87.62378,"zip":"54240","miles_from_dt":19.02},{"city":"Abrams","state_name":"Wisconsin","lat":44.78786,"lng":-88.05927,"zip":"54101","miles_from_dt":19.41},{"city":"Maribel","state_name":"Wisconsin","lat":44.28096,"lng":-87.80656,"zip":"54227","miles_from_dt":19.56},{"city":"Maplewood","state_name":"Wisconsin","lat":44.72423,"lng":-87.48353,"zip":"54226","miles_from_dt":19.97},{"city":"Mishicot","state_name":"Wisconsin","lat":44.27677,"lng":-87.64875,"zip":"54228","miles_from_dt":21.59},{"city":"Greenleaf","state_name":"Wisconsin","lat":44.28925,"lng":-88.03218,"zip":"54126","miles_from_dt":21.67},{"city":"Kellnersville","state_name":"Wisconsin","lat":44.22608,"lng":-87.80357,"zip":"54215","miles_from_dt":23.36},{"city":"Pulaski","state_name":"Wisconsin","lat":44.66417,"lng":-88.27689,"zip":"54162","miles_from_dt":23.53},{"city":"Oconto","state_name":"Wisconsin","lat":44.89939,"lng":-87.92516,"zip":"54153","miles_from_dt":23.71},{"city":"Wrightstown","state_name":"Wisconsin","lat":44.33139,"lng":-88.17462,"zip":"54180","miles_from_dt":23.76},{"city":"Seymour","state_name":"Wisconsin","lat":44.52063,"lng":-88.31683,"zip":"54165","miles_from_dt":24.68},{"city":"Krakow","state_name":"Wisconsin","lat":44.75843,"lng":-88.25605,"zip":"54137","miles_from_dt":25.3},{"city":"Whitelaw","state_name":"Wisconsin","lat":44.19686,"lng":-87.78564,"zip":"54247","miles_from_dt":25.42},{"city":"Francis Creek","state_name":"Wisconsin","lat":44.19893,"lng":-87.71441,"zip":"54214","miles_from_dt":25.76},{"city":"Freedom","state_name":"Wisconsin","lat":44.38639,"lng":-88.28861,"zip":"54131","miles_from_dt":26.18},{"city":"Two Rivers","state_name":"Wisconsin","lat":44.21758,"lng":-87.59723,"zip":"54241","miles_from_dt":26.36},{"city":"Kaukauna","state_name":"Wisconsin","lat":44.31194,"lng":-88.24301,"zip":"54130","miles_from_dt":27.19},{"city":"Green Valley","state_name":"Wisconsin","lat":44.79693,"lng":-88.26815,"zip":"54127","miles_from_dt":27.28},{"city":"Oconto Falls","state_name":"Wisconsin","lat":44.86702,"lng":-88.19058,"zip":"54154","miles_from_dt":27.73},{"city":"Reedsville","state_name":"Wisconsin","lat":44.15749,"lng":-87.91202,"zip":"54230","miles_from_dt":28.44},{"city":"Sturgeon Bay","state_name":"Wisconsin","lat":44.84218,"lng":-87.37677,"zip":"54235","miles_from_dt":29.1},{"city":"Brillion","state_name":"Wisconsin","lat":44.18533,"lng":-88.08105,"zip":"54110","miles_from_dt":29.16},{"city":"Lena","state_name":"Wisconsin","lat":44.9539,"lng":-88.07152,"zip":"54139","miles_from_dt":29.61},{"city":"Forest Junction","state_name":"Wisconsin","lat":44.20642,"lng":-88.15201,"zip":"54123","miles_from_dt":29.65}],"targetCityZipCode":"54229","targetCityState":"Wisconsin"},"__N_SSG":true}