{"pageProps":{"stateName":"Wisconsin","cityName":"pickerel","nearbyCities":[{"city":"Pearson","state_name":"Wisconsin","lat":45.39408,"lng":-89.00031,"zip":"54462","miles_from_dt":5.69},{"city":"Crandon","state_name":"Wisconsin","lat":45.53773,"lng":-88.92303,"zip":"54520","miles_from_dt":10.16},{"city":"Wabeno","state_name":"Wisconsin","lat":45.42481,"lng":-88.63263,"zip":"54566","miles_from_dt":12.39},{"city":"White Lake","state_name":"Wisconsin","lat":45.2343,"lng":-88.76541,"zip":"54491","miles_from_dt":12.39},{"city":"Bryant","state_name":"Wisconsin","lat":45.21566,"lng":-88.98003,"zip":"54418","miles_from_dt":13.14},{"city":"Townsend","state_name":"Wisconsin","lat":45.30552,"lng":-88.62394,"zip":"54175","miles_from_dt":14.01},{"city":"Elcho","state_name":"Wisconsin","lat":45.43511,"lng":-89.17282,"zip":"54428","miles_from_dt":14.37},{"city":"Laona","state_name":"Wisconsin","lat":45.55218,"lng":-88.65937,"zip":"54541","miles_from_dt":15.46},{"city":"Summit Lake","state_name":"Wisconsin","lat":45.39373,"lng":-89.21894,"zip":"54485","miles_from_dt":16.33},{"city":"Deerbrook","state_name":"Wisconsin","lat":45.28471,"lng":-89.18701,"zip":"54424","miles_from_dt":16.58},{"city":"Elton","state_name":"Wisconsin","lat":45.1395,"lng":-88.8872,"zip":"54430","miles_from_dt":17.53},{"city":"Pelican Lake","state_name":"Wisconsin","lat":45.50876,"lng":-89.22536,"zip":"54463","miles_from_dt":18.44},{"city":"Lakewood","state_name":"Wisconsin","lat":45.33064,"lng":-88.42783,"zip":"54138","miles_from_dt":22.59},{"city":"Argonne","state_name":"Wisconsin","lat":45.72365,"lng":-88.83177,"zip":"54511","miles_from_dt":22.95},{"city":"Antigo","state_name":"Wisconsin","lat":45.11928,"lng":-89.16909,"zip":"54409","miles_from_dt":23.5},{"city":"Mountain","state_name":"Wisconsin","lat":45.204,"lng":-88.47445,"zip":"54149","miles_from_dt":23.83},{"city":"Phlox","state_name":"Wisconsin","lat":45.05486,"lng":-89.01748,"zip":"54464","miles_from_dt":24.27},{"city":"Armstrong Creek","state_name":"Wisconsin","lat":45.64972,"lng":-88.49885,"zip":"54103","miles_from_dt":25.73},{"city":"Gleason","state_name":"Wisconsin","lat":45.35084,"lng":-89.44349,"zip":"54435","miles_from_dt":27.42},{"city":"Goodman","state_name":"Wisconsin","lat":45.58995,"lng":-88.38325,"zip":"54125","miles_from_dt":27.83},{"city":"Mattoon","state_name":"Wisconsin","lat":45.00367,"lng":-89.04172,"zip":"54450","miles_from_dt":27.99},{"city":"Rhinelander","state_name":"Wisconsin","lat":45.65973,"lng":-89.34303,"zip":"54501","miles_from_dt":28.92},{"city":"Neopit","state_name":"Wisconsin","lat":44.97237,"lng":-88.7906,"zip":"54150","miles_from_dt":29.42}],"targetCityZipCode":"54465","targetCityState":"Wisconsin"},"__N_SSG":true}