{"pageProps":{"stateName":"Wisconsin","cityName":"randolph","nearbyCities":[{"city":"Randolph","state_name":"Wisconsin","lat":43.5378,"lng":-89.0022,"zip":"53957","miles_from_dt":0.86},{"city":"Friesland","state_name":"Wisconsin","lat":43.58864,"lng":-89.06697,"zip":"53935","miles_from_dt":4.05},{"city":"Cambria","state_name":"Wisconsin","lat":43.57326,"lng":-89.13753,"zip":"53923","miles_from_dt":6.36},{"city":"Fox Lake","state_name":"Wisconsin","lat":43.57235,"lng":-88.88338,"zip":"53933","miles_from_dt":7.11},{"city":"Fall River","state_name":"Wisconsin","lat":43.4202,"lng":-89.06543,"zip":"53932","miles_from_dt":8.71},{"city":"Beaver Dam","state_name":"Wisconsin","lat":43.45538,"lng":-88.85813,"zip":"53916","miles_from_dt":10.02},{"city":"Doylestown","state_name":"Wisconsin","lat":43.42051,"lng":-89.1547,"zip":"53928","miles_from_dt":10.81},{"city":"Kingston","state_name":"Wisconsin","lat":43.69185,"lng":-89.13199,"zip":"53939","miles_from_dt":11.83},{"city":"Markesan","state_name":"Wisconsin","lat":43.71822,"lng":-89.02189,"zip":"53946","miles_from_dt":12.19},{"city":"Dalton","state_name":"Wisconsin","lat":43.67164,"lng":-89.21497,"zip":"53926","miles_from_dt":13.33},{"city":"Rio","state_name":"Wisconsin","lat":43.4224,"lng":-89.23212,"zip":"53960","miles_from_dt":13.53},{"city":"Columbus","state_name":"Wisconsin","lat":43.3325,"lng":-89.05075,"zip":"53925","miles_from_dt":14.53},{"city":"Wyocena","state_name":"Wisconsin","lat":43.49567,"lng":-89.30176,"zip":"53969","miles_from_dt":14.58},{"city":"Pardeeville","state_name":"Wisconsin","lat":43.55518,"lng":-89.31325,"zip":"53954","miles_from_dt":14.83},{"city":"Marquette","state_name":"Wisconsin","lat":43.74676,"lng":-89.13769,"zip":"53947","miles_from_dt":15.37},{"city":"Waupun","state_name":"Wisconsin","lat":43.63492,"lng":-88.73828,"zip":"53963","miles_from_dt":15.47},{"city":"Burnett","state_name":"Wisconsin","lat":43.51558,"lng":-88.70916,"zip":"53922","miles_from_dt":15.64},{"city":"Fairwater","state_name":"Wisconsin","lat":43.74236,"lng":-88.86798,"zip":"53931","miles_from_dt":15.78},{"city":"Lowell","state_name":"Wisconsin","lat":43.33996,"lng":-88.79449,"zip":"53557","miles_from_dt":17.91},{"city":"Brandon","state_name":"Wisconsin","lat":43.73462,"lng":-88.77564,"zip":"53919","miles_from_dt":18.05},{"city":"Reeseville","state_name":"Wisconsin","lat":43.2894,"lng":-88.87545,"zip":"53579","miles_from_dt":18.84},{"city":"Juneau","state_name":"Wisconsin","lat":43.36931,"lng":-88.71148,"zip":"53039","miles_from_dt":19.49},{"city":"Horicon","state_name":"Wisconsin","lat":43.44708,"lng":-88.6234,"zip":"53032","miles_from_dt":20.9},{"city":"Green Lake","state_name":"Wisconsin","lat":43.85067,"lng":-88.99103,"zip":"54941","miles_from_dt":21.38},{"city":"Poynette","state_name":"Wisconsin","lat":43.40025,"lng":-89.40051,"zip":"53955","miles_from_dt":21.55},{"city":"Clyman","state_name":"Wisconsin","lat":43.31104,"lng":-88.71794,"zip":"53016","miles_from_dt":21.96},{"city":"Princeton","state_name":"Wisconsin","lat":43.84872,"lng":-89.13255,"zip":"54968","miles_from_dt":21.96},{"city":"Arlington","state_name":"Wisconsin","lat":43.3258,"lng":-89.36478,"zip":"53911","miles_from_dt":22.93},{"city":"Montello","state_name":"Wisconsin","lat":43.78323,"lng":-89.33978,"zip":"53949","miles_from_dt":23.18},{"city":"Portage","state_name":"Wisconsin","lat":43.55606,"lng":-89.48606,"zip":"53901","miles_from_dt":23.5},{"city":"Ripon","state_name":"Wisconsin","lat":43.85546,"lng":-88.83109,"zip":"54971","miles_from_dt":23.61},{"city":"Mayville","state_name":"Wisconsin","lat":43.50992,"lng":-88.54734,"zip":"53050","miles_from_dt":23.77},{"city":"Rosendale","state_name":"Wisconsin","lat":43.7801,"lng":-88.65997,"zip":"54974","miles_from_dt":24.37},{"city":"Oakfield","state_name":"Wisconsin","lat":43.68227,"lng":-88.56866,"zip":"53065","miles_from_dt":24.56},{"city":"Morrisonville","state_name":"Wisconsin","lat":43.27793,"lng":-89.35358,"zip":"53571","miles_from_dt":24.82},{"city":"Brownsville","state_name":"Wisconsin","lat":43.62103,"lng":-88.53534,"zip":"53006","miles_from_dt":24.86},{"city":"Waterloo","state_name":"Wisconsin","lat":43.18291,"lng":-88.97168,"zip":"53594","miles_from_dt":24.88},{"city":"Hustisford","state_name":"Wisconsin","lat":43.34014,"lng":-88.60746,"zip":"53034","miles_from_dt":24.92},{"city":"Watertown","state_name":"Wisconsin","lat":43.24955,"lng":-88.71461,"zip":"53098","miles_from_dt":25.31},{"city":"Deforest","state_name":"Wisconsin","lat":43.24881,"lng":-89.32547,"zip":"53532","miles_from_dt":25.45},{"city":"Sun Prairie","state_name":"Wisconsin","lat":43.19936,"lng":-89.20804,"zip":"53590","miles_from_dt":25.49},{"city":"Endeavor","state_name":"Wisconsin","lat":43.683,"lng":-89.49506,"zip":"53930","miles_from_dt":25.82},{"city":"Iron Ridge","state_name":"Wisconsin","lat":43.39135,"lng":-88.54355,"zip":"53035","miles_from_dt":26.04},{"city":"Marshall","state_name":"Wisconsin","lat":43.16557,"lng":-89.08066,"zip":"53559","miles_from_dt":26.15},{"city":"Sun Prairie","state_name":"Wisconsin","lat":43.19559,"lng":-89.26401,"zip":"53596","miles_from_dt":26.9},{"city":"Packwaukee","state_name":"Wisconsin","lat":43.76606,"lng":-89.458,"zip":"53953","miles_from_dt":26.93},{"city":"Woodland","state_name":"Wisconsin","lat":43.38035,"lng":-88.52525,"zip":"53099","miles_from_dt":27.19},{"city":"Lebanon","state_name":"Wisconsin","lat":43.25904,"lng":-88.63002,"zip":"53047","miles_from_dt":27.62},{"city":"Windsor","state_name":"Wisconsin","lat":43.20641,"lng":-89.3387,"zip":"53598","miles_from_dt":28.21},{"city":"Eldorado","state_name":"Wisconsin","lat":43.83143,"lng":-88.61861,"zip":"54932","miles_from_dt":28.31},{"city":"Lomira","state_name":"Wisconsin","lat":43.57935,"lng":-88.45554,"zip":"53048","miles_from_dt":28.38},{"city":"Theresa","state_name":"Wisconsin","lat":43.49667,"lng":-88.43674,"zip":"53091","miles_from_dt":29.39},{"city":"Madison","state_name":"Wisconsin","lat":43.15929,"lng":-89.28371,"zip":"53783","miles_from_dt":29.59},{"city":"Neshkoro","state_name":"Wisconsin","lat":43.94569,"lng":-89.22386,"zip":"54960","miles_from_dt":29.73}],"targetCityZipCode":"53956","targetCityState":"Wisconsin"},"__N_SSG":true}