{"pageProps":{"stateName":"Tennessee","cityName":"ooltewah","nearbyCities":[{"city":"McDonald","state_name":"Tennessee","lat":35.12288,"lng":-84.9855,"zip":"37353","miles_from_dt":3.96},{"city":"Collegedale","state_name":"Tennessee","lat":35.04722,"lng":-85.05158,"zip":"37315","miles_from_dt":4.71},{"city":"Chattanooga","state_name":"Tennessee","lat":35.09856,"lng":-85.15751,"zip":"37416","miles_from_dt":5.93},{"city":"Harrison","state_name":"Tennessee","lat":35.21386,"lng":-85.0834,"zip":"37341","miles_from_dt":6.97},{"city":"Apison","state_name":"Tennessee","lat":35.01303,"lng":-85.01961,"zip":"37302","miles_from_dt":7.34},{"city":"Cleveland","state_name":"Tennessee","lat":35.10054,"lng":-84.92298,"zip":"37311","miles_from_dt":7.54},{"city":"Chattanooga","state_name":"Tennessee","lat":35.03024,"lng":-85.14847,"zip":"37424","miles_from_dt":7.92},{"city":"Chattanooga","state_name":"Tennessee","lat":35.02915,"lng":-85.153,"zip":"37421","miles_from_dt":8.15},{"city":"Hixson","state_name":"Tennessee","lat":35.16904,"lng":-85.20899,"zip":"37343","miles_from_dt":9.47},{"city":"Cleveland","state_name":"Tennessee","lat":35.15767,"lng":-84.87717,"zip":"37320","miles_from_dt":10.48},{"city":"Graysville","state_name":"Georgia","lat":34.97579,"lng":-85.13959,"zip":"30726","miles_from_dt":10.76},{"city":"Chattanooga","state_name":"Tennessee","lat":35.07246,"lng":-85.24541,"zip":"37406","miles_from_dt":11.19},{"city":"Chattanooga","state_name":"Tennessee","lat":35.02655,"lng":-85.23026,"zip":"37411","miles_from_dt":11.68},{"city":"Chattanooga","state_name":"Tennessee","lat":35.0262,"lng":-85.23041,"zip":"37414","miles_from_dt":11.7},{"city":"Lupton City","state_name":"Tennessee","lat":35.10073,"lng":-85.26135,"zip":"37351","miles_from_dt":11.74},{"city":"Soddy Daisy","state_name":"Tennessee","lat":35.27505,"lng":-85.16771,"zip":"37384","miles_from_dt":12.72},{"city":"Chattanooga","state_name":"Tennessee","lat":34.9974,"lng":-85.22726,"zip":"37412","miles_from_dt":12.72},{"city":"Chattanooga","state_name":"Tennessee","lat":35.12735,"lng":-85.27932,"zip":"37415","miles_from_dt":12.74},{"city":"Cleveland","state_name":"Tennessee","lat":35.15729,"lng":-84.83553,"zip":"37364","miles_from_dt":12.75},{"city":"Cleveland","state_name":"Tennessee","lat":35.2286,"lng":-84.87344,"zip":"37312","miles_from_dt":12.9},{"city":"Cleveland","state_name":"Tennessee","lat":35.09627,"lng":-84.81984,"zip":"37323","miles_from_dt":13.38},{"city":"Cohutta","state_name":"Georgia","lat":34.95002,"lng":-84.91993,"zip":"30710","miles_from_dt":13.74},{"city":"Chattanooga","state_name":"Tennessee","lat":35.02827,"lng":-85.27331,"zip":"37404","miles_from_dt":13.76},{"city":"Soddy Daisy","state_name":"Tennessee","lat":35.29407,"lng":-85.17429,"zip":"37379","miles_from_dt":14.04},{"city":"Chattanooga","state_name":"Tennessee","lat":35.0476,"lng":-85.29448,"zip":"37403","miles_from_dt":14.36},{"city":"Georgetown","state_name":"Tennessee","lat":35.30117,"lng":-84.93413,"zip":"37336","miles_from_dt":14.51},{"city":"Chattanooga","state_name":"Tennessee","lat":35.04897,"lng":-85.31217,"zip":"37450","miles_from_dt":15.28},{"city":"Chattanooga","state_name":"Tennessee","lat":35.03852,"lng":-85.30885,"zip":"37401","miles_from_dt":15.34},{"city":"Ringgold","state_name":"Georgia","lat":34.90244,"lng":-85.13306,"zip":"30736","miles_from_dt":15.34},{"city":"Chattanooga","state_name":"Tennessee","lat":35.002,"lng":-85.28941,"zip":"37407","miles_from_dt":15.42},{"city":"Varnell","state_name":"Georgia","lat":34.90103,"lng":-84.97458,"zip":"30756","miles_from_dt":15.47},{"city":"Chattanooga","state_name":"Tennessee","lat":35.04672,"lng":-85.31553,"zip":"37402","miles_from_dt":15.51},{"city":"Chattanooga","state_name":"Tennessee","lat":35.03048,"lng":-85.31237,"zip":"37408","miles_from_dt":15.73},{"city":"Birchwood","state_name":"Tennessee","lat":35.3476,"lng":-84.99728,"zip":"37308","miles_from_dt":16.33},{"city":"Fort Oglethorpe","state_name":"Georgia","lat":34.93566,"lng":-85.24482,"zip":"30742","miles_from_dt":16.42},{"city":"Chattanooga","state_name":"Tennessee","lat":35.002,"lng":-85.31366,"zip":"37410","miles_from_dt":16.62},{"city":"Chattanooga","state_name":"Tennessee","lat":35.14105,"lng":-85.34866,"zip":"37422","miles_from_dt":16.73},{"city":"Tunnel Hill","state_name":"Georgia","lat":34.86944,"lng":-85.04072,"zip":"30755","miles_from_dt":16.98},{"city":"Rossville","state_name":"Georgia","lat":34.95168,"lng":-85.28213,"zip":"30741","miles_from_dt":17.13},{"city":"Signal Mountain","state_name":"Tennessee","lat":35.21243,"lng":-85.3389,"zip":"37377","miles_from_dt":17.41},{"city":"Chattanooga","state_name":"Tennessee","lat":35.0012,"lng":-85.34466,"zip":"37409","miles_from_dt":18.22},{"city":"Bakewell","state_name":"Tennessee","lat":35.38222,"lng":-85.10889,"zip":"37304","miles_from_dt":18.64},{"city":"Charleston","state_name":"Tennessee","lat":35.26237,"lng":-84.77767,"zip":"37310","miles_from_dt":18.67},{"city":"Lookout Mountain","state_name":"Tennessee","lat":34.99445,"lng":-85.3516,"zip":"37350","miles_from_dt":18.78},{"city":"Sale Creek","state_name":"Tennessee","lat":35.39476,"lng":-85.10373,"zip":"37373","miles_from_dt":19.45},{"city":"Chattanooga","state_name":"Tennessee","lat":35.11757,"lng":-85.40429,"zip":"37405","miles_from_dt":19.79},{"city":"Conasauga","state_name":"Tennessee","lat":35.00161,"lng":-84.72975,"zip":"37316","miles_from_dt":20.03},{"city":"Tennga","state_name":"Georgia","lat":34.98212,"lng":-84.73743,"zip":"30751","miles_from_dt":20.21},{"city":"Old Fort","state_name":"Tennessee","lat":35.03152,"lng":-84.70028,"zip":"37362","miles_from_dt":20.91},{"city":"Crandall","state_name":"Georgia","lat":34.92905,"lng":-84.76259,"zip":"30711","miles_from_dt":20.98},{"city":"Chattanooga","state_name":"Tennessee","lat":35.04052,"lng":-85.41734,"zip":"37419","miles_from_dt":21.18},{"city":"Flintstone","state_name":"Georgia","lat":34.92443,"lng":-85.35359,"zip":"30725","miles_from_dt":21.46},{"city":"Calhoun","state_name":"Tennessee","lat":35.30595,"lng":-84.74453,"zip":"37309","miles_from_dt":21.93},{"city":"Lookout Mountain","state_name":"Georgia","lat":34.93681,"lng":-85.3882,"zip":"30750","miles_from_dt":22.56},{"city":"Ocoee","state_name":"Tennessee","lat":35.08543,"lng":-84.6551,"zip":"37361","miles_from_dt":22.75},{"city":"Graysville","state_name":"Tennessee","lat":35.42356,"lng":-85.20942,"zip":"37338","miles_from_dt":22.96},{"city":"Rock Spring","state_name":"Georgia","lat":34.80345,"lng":-85.21515,"zip":"30739","miles_from_dt":23.36},{"city":"Dalton","state_name":"Georgia","lat":34.79168,"lng":-84.91187,"zip":"30721","miles_from_dt":23.75},{"city":"Dalton","state_name":"Georgia","lat":34.77002,"lng":-84.97073,"zip":"30719","miles_from_dt":24.29},{"city":"Wildwood","state_name":"Georgia","lat":34.94164,"lng":-85.4324,"zip":"30757","miles_from_dt":24.53},{"city":"Benton","state_name":"Tennessee","lat":35.16676,"lng":-84.62158,"zip":"37307","miles_from_dt":24.79},{"city":"Rocky Face","state_name":"Georgia","lat":34.75407,"lng":-85.07786,"zip":"30740","miles_from_dt":24.95},{"city":"Cisco","state_name":"Georgia","lat":34.93985,"lng":-84.66754,"zip":"30708","miles_from_dt":25.08},{"city":"Dalton","state_name":"Georgia","lat":34.76101,"lng":-84.94988,"zip":"30722","miles_from_dt":25.15},{"city":"Riceville","state_name":"Tennessee","lat":35.35903,"lng":-84.70064,"zip":"37370","miles_from_dt":26.14},{"city":"Eton","state_name":"Georgia","lat":34.8253,"lng":-84.75795,"zip":"30724","miles_from_dt":26.16},{"city":"Dalton","state_name":"Georgia","lat":34.73472,"lng":-85.00289,"zip":"30720","miles_from_dt":26.42},{"city":"Whiteside","state_name":"Tennessee","lat":35.00198,"lng":-85.50353,"zip":"37396","miles_from_dt":26.61},{"city":"Delano","state_name":"Tennessee","lat":35.24726,"lng":-84.61108,"zip":"37325","miles_from_dt":26.71},{"city":"Dayton","state_name":"Tennessee","lat":35.50239,"lng":-85.00801,"zip":"37321","miles_from_dt":26.8},{"city":"Whitwell","state_name":"Tennessee","lat":35.21046,"lng":-85.51819,"zip":"37397","miles_from_dt":27.03},{"city":"Guild","state_name":"Tennessee","lat":35.02085,"lng":-85.53179,"zip":"37340","miles_from_dt":27.81},{"city":"Dunlap","state_name":"Tennessee","lat":35.42251,"lng":-85.39993,"zip":"37327","miles_from_dt":28.78},{"city":"Chickamauga","state_name":"Georgia","lat":34.77943,"lng":-85.36028,"zip":"30707","miles_from_dt":28.93},{"city":"Decatur","state_name":"Tennessee","lat":35.49562,"lng":-84.81512,"zip":"37322","miles_from_dt":29.5}],"targetCityZipCode":"37363","targetCityState":"Tennessee"},"__N_SSG":true}