{"pageProps":{"stateName":"Tennessee","cityName":"rives","nearbyCities":[{"city":"Kenton","state_name":"Tennessee","lat":36.20411,"lng":-89.04622,"zip":"38233","miles_from_dt":6.52},{"city":"Union City","state_name":"Tennessee","lat":36.42585,"lng":-89.04984,"zip":"38281","miles_from_dt":8.81},{"city":"Trimble","state_name":"Tennessee","lat":36.20204,"lng":-89.18439,"zip":"38259","miles_from_dt":9.68},{"city":"Union City","state_name":"Tennessee","lat":36.43214,"lng":-89.11583,"zip":"38261","miles_from_dt":9.78},{"city":"Woodland Mills","state_name":"Tennessee","lat":36.43031,"lng":-89.123,"zip":"38271","miles_from_dt":9.8},{"city":"Troy","state_name":"Tennessee","lat":36.36961,"lng":-89.21128,"zip":"38260","miles_from_dt":9.86},{"city":"Sharon","state_name":"Tennessee","lat":36.23954,"lng":-88.86483,"zip":"38255","miles_from_dt":11.53},{"city":"Martin","state_name":"Tennessee","lat":36.34433,"lng":-88.85826,"zip":"38238","miles_from_dt":11.6},{"city":"Rutherford","state_name":"Tennessee","lat":36.13253,"lng":-88.9652,"zip":"38369","miles_from_dt":12.55},{"city":"Martin","state_name":"Tennessee","lat":36.36406,"lng":-88.83162,"zip":"38237","miles_from_dt":13.43},{"city":"Yorkville","state_name":"Tennessee","lat":36.10315,"lng":-89.12134,"zip":"38389","miles_from_dt":13.9},{"city":"South Fulton","state_name":"Tennessee","lat":36.46386,"lng":-88.88397,"zip":"38257","miles_from_dt":14.99},{"city":"Obion","state_name":"Tennessee","lat":36.25091,"lng":-89.32045,"zip":"38240","miles_from_dt":15},{"city":"Hornbeak","state_name":"Tennessee","lat":36.34828,"lng":-89.32295,"zip":"38232","miles_from_dt":15.17},{"city":"Dyer","state_name":"Tennessee","lat":36.0675,"lng":-89.03316,"zip":"38330","miles_from_dt":15.97},{"city":"Newbern","state_name":"Tennessee","lat":36.11132,"lng":-89.24113,"zip":"38059","miles_from_dt":16.45},{"city":"Samburg","state_name":"Tennessee","lat":36.37444,"lng":-89.34662,"zip":"38254","miles_from_dt":16.93},{"city":"Greenfield","state_name":"Tennessee","lat":36.15592,"lng":-88.77154,"zip":"38230","miles_from_dt":18.78},{"city":"Hickman","state_name":"Kentucky","lat":36.54675,"lng":-89.20347,"zip":"42050","miles_from_dt":18.95},{"city":"Fulton","state_name":"Kentucky","lat":36.54593,"lng":-88.87456,"zip":"42041","miles_from_dt":19.91},{"city":"Bradford","state_name":"Tennessee","lat":36.06873,"lng":-88.81547,"zip":"38316","miles_from_dt":20.84},{"city":"Dresden","state_name":"Tennessee","lat":36.31764,"lng":-88.67937,"zip":"38225","miles_from_dt":21.18},{"city":"Eaton","state_name":"Tennessee","lat":35.97297,"lng":-89.13343,"zip":"38331","miles_from_dt":22.82},{"city":"Trenton","state_name":"Tennessee","lat":35.96925,"lng":-88.99186,"zip":"38382","miles_from_dt":22.98},{"city":"Bogota","state_name":"Tennessee","lat":36.16422,"lng":-89.43925,"zip":"38007","miles_from_dt":23.2},{"city":"Wynnburg","state_name":"Tennessee","lat":36.32852,"lng":-89.4744,"zip":"38077","miles_from_dt":23.32},{"city":"Idlewild","state_name":"Tennessee","lat":36.02863,"lng":-88.8013,"zip":"38346","miles_from_dt":23.49},{"city":"Water Valley","state_name":"Kentucky","lat":36.56942,"lng":-88.80044,"zip":"42085","miles_from_dt":23.58},{"city":"Tiptonville","state_name":"Tennessee","lat":36.41378,"lng":-89.47032,"zip":"38079","miles_from_dt":24.33},{"city":"Dukedom","state_name":"Tennessee","lat":36.47722,"lng":-88.66382,"zip":"38226","miles_from_dt":25.22},{"city":"Gleason","state_name":"Tennessee","lat":36.22108,"lng":-88.60939,"zip":"38229","miles_from_dt":25.62},{"city":"Dyersburg","state_name":"Tennessee","lat":36.03608,"lng":-89.38331,"zip":"38025","miles_from_dt":25.63},{"city":"Dyersburg","state_name":"Tennessee","lat":36.03743,"lng":-89.38511,"zip":"38024","miles_from_dt":25.64},{"city":"Ridgely","state_name":"Tennessee","lat":36.20295,"lng":-89.52142,"zip":"38080","miles_from_dt":26.69},{"city":"Tigrett","state_name":"Tennessee","lat":35.94045,"lng":-89.24915,"zip":"38070","miles_from_dt":26.88},{"city":"Clinton","state_name":"Kentucky","lat":36.68741,"lng":-88.98864,"zip":"42031","miles_from_dt":27.11},{"city":"Palmersville","state_name":"Tennessee","lat":36.42852,"lng":-88.58964,"zip":"38241","miles_from_dt":27.63},{"city":"Wingo","state_name":"Kentucky","lat":36.61808,"lng":-88.75409,"zip":"42088","miles_from_dt":27.81},{"city":"Friendship","state_name":"Tennessee","lat":35.91273,"lng":-89.236,"zip":"38034","miles_from_dt":28.38}],"targetCityZipCode":"38253","targetCityState":"Tennessee"},"__N_SSG":true}