{"pageProps":{"stateName":"Idaho","cityName":"mountain-home","nearbyCities":[{"city":"Boise","state_name":"Idaho","lat":43.67271,"lng":-115.6548,"zip":"83716","miles_from_dt":20.49},{"city":"Hill City","state_name":"Idaho","lat":43.21807,"lng":-115.1575,"zip":"83337","miles_from_dt":21.62},{"city":"Glenns Ferry","state_name":"Idaho","lat":43.04932,"lng":-115.39485,"zip":"83623","miles_from_dt":24.57},{"city":"Boise","state_name":"Idaho","lat":43.43556,"lng":-116.00429,"zip":"83726","miles_from_dt":24.95},{"city":"Corral","state_name":"Idaho","lat":43.31475,"lng":-114.96811,"zip":"83322","miles_from_dt":27.93},{"city":"King Hill","state_name":"Idaho","lat":43.0297,"lng":-115.21253,"zip":"83633","miles_from_dt":29.39},{"city":"Mountain Home Afb","state_name":"Idaho","lat":43.04962,"lng":-115.86554,"zip":"83648","miles_from_dt":29.79}],"targetCityZipCode":"83647","targetCityState":"Idaho"},"__N_SSG":true}