{"pageProps":{"stateName":"Idaho","cityName":"orofino","nearbyCities":[{"city":"Ahsahka","state_name":"Idaho","lat":46.53936,"lng":-116.32366,"zip":"83520","miles_from_dt":8.75},{"city":"Peck","state_name":"Idaho","lat":46.42664,"lng":-116.4213,"zip":"83545","miles_from_dt":13.64},{"city":"Weippe","state_name":"Idaho","lat":46.38365,"lng":-115.9038,"zip":"83553","miles_from_dt":14.1},{"city":"Nezperce","state_name":"Idaho","lat":46.27358,"lng":-116.23815,"zip":"83543","miles_from_dt":15.74},{"city":"Lenore","state_name":"Idaho","lat":46.49297,"lng":-116.50156,"zip":"83541","miles_from_dt":16.65},{"city":"Pierce","state_name":"Idaho","lat":46.57326,"lng":-115.81115,"zip":"83546","miles_from_dt":17.18},{"city":"Reubens","state_name":"Idaho","lat":46.34878,"lng":-116.50843,"zip":"83548","miles_from_dt":19.73},{"city":"Elk River","state_name":"Idaho","lat":46.78035,"lng":-116.17469,"zip":"83827","miles_from_dt":19.83},{"city":"Kamiah","state_name":"Idaho","lat":46.21794,"lng":-116.02665,"zip":"83536","miles_from_dt":19.97},{"city":"Kendrick","state_name":"Idaho","lat":46.62877,"lng":-116.52348,"zip":"83537","miles_from_dt":19.99},{"city":"Craigmont","state_name":"Idaho","lat":46.22939,"lng":-116.47224,"zip":"83523","miles_from_dt":23.81},{"city":"Culdesac","state_name":"Idaho","lat":46.3586,"lng":-116.65439,"zip":"83524","miles_from_dt":25.72},{"city":"Greencreek","state_name":"Idaho","lat":46.11707,"lng":-116.24063,"zip":"83533","miles_from_dt":26.35},{"city":"Ferdinand","state_name":"Idaho","lat":46.14759,"lng":-116.4169,"zip":"83526","miles_from_dt":27.04},{"city":"Juliaetta","state_name":"Idaho","lat":46.54011,"lng":-116.72599,"zip":"83535","miles_from_dt":27.53},{"city":"Deary","state_name":"Idaho","lat":46.80554,"lng":-116.51934,"zip":"83823","miles_from_dt":27.72},{"city":"Bovill","state_name":"Idaho","lat":46.88243,"lng":-116.37038,"zip":"83806","miles_from_dt":28.78}],"targetCityZipCode":"83544","targetCityState":"Idaho"},"__N_SSG":true}