{"pageProps":{"stateName":"Idaho","cityName":"weippe","nearbyCities":[{"city":"Kamiah","state_name":"Idaho","lat":46.21794,"lng":-116.02665,"zip":"83536","miles_from_dt":12.87},{"city":"Pierce","state_name":"Idaho","lat":46.57326,"lng":-115.81115,"zip":"83546","miles_from_dt":13.82},{"city":"Orofino","state_name":"Idaho","lat":46.49365,"lng":-116.1525,"zip":"83544","miles_from_dt":14.1},{"city":"Nezperce","state_name":"Idaho","lat":46.27358,"lng":-116.23815,"zip":"83543","miles_from_dt":17.71},{"city":"Ahsahka","state_name":"Idaho","lat":46.53936,"lng":-116.32366,"zip":"83520","miles_from_dt":22.74},{"city":"Greencreek","state_name":"Idaho","lat":46.11707,"lng":-116.24063,"zip":"83533","miles_from_dt":24.48},{"city":"Peck","state_name":"Idaho","lat":46.42664,"lng":-116.4213,"zip":"83545","miles_from_dt":24.9},{"city":"Stites","state_name":"Idaho","lat":45.9777,"lng":-115.93948,"zip":"83552","miles_from_dt":28.09},{"city":"Reubens","state_name":"Idaho","lat":46.34878,"lng":-116.50843,"zip":"83548","miles_from_dt":29.01},{"city":"Craigmont","state_name":"Idaho","lat":46.22939,"lng":-116.47224,"zip":"83523","miles_from_dt":29.22},{"city":"Ferdinand","state_name":"Idaho","lat":46.14759,"lng":-116.4169,"zip":"83526","miles_from_dt":29.49},{"city":"Lenore","state_name":"Idaho","lat":46.49297,"lng":-116.50156,"zip":"83541","miles_from_dt":29.53}],"targetCityZipCode":"83553","targetCityState":"Idaho"},"__N_SSG":true}