{"pageProps":{"stateName":"Florida","cityName":"bradley","nearbyCities":[{"city":"Mulberry","state_name":"Florida","lat":27.8056,"lng":-81.99511,"zip":"33860","miles_from_dt":1.82},{"city":"Homeland","state_name":"Florida","lat":27.80864,"lng":-81.82381,"zip":"33847","miles_from_dt":9.22},{"city":"Lithia","state_name":"Florida","lat":27.77239,"lng":-82.13665,"zip":"33547","miles_from_dt":10.11},{"city":"Bartow","state_name":"Florida","lat":27.89537,"lng":-81.8422,"zip":"33831","miles_from_dt":10.86},{"city":"Lakeland","state_name":"Florida","lat":27.94789,"lng":-81.92701,"zip":"33813","miles_from_dt":11.34},{"city":"Lakeland","state_name":"Florida","lat":27.95314,"lng":-81.99199,"zip":"33807","miles_from_dt":11.41},{"city":"Bowling Green","state_name":"Florida","lat":27.62778,"lng":-81.92115,"zip":"33834","miles_from_dt":11.49},{"city":"Nichols","state_name":"Florida","lat":27.86612,"lng":-81.80585,"zip":"33863","miles_from_dt":11.53},{"city":"Bartow","state_name":"Florida","lat":27.88234,"lng":-81.80565,"zip":"33830","miles_from_dt":12.1},{"city":"Plant City","state_name":"Florida","lat":27.92159,"lng":-82.1217,"zip":"33567","miles_from_dt":12.94},{"city":"Fort Meade","state_name":"Florida","lat":27.7381,"lng":-81.7674,"zip":"33841","miles_from_dt":13.03},{"city":"Highland City","state_name":"Florida","lat":27.96506,"lng":-81.87889,"zip":"33846","miles_from_dt":13.45},{"city":"Lakeland","state_name":"Florida","lat":27.97933,"lng":-82.01866,"zip":"33811","miles_from_dt":13.45},{"city":"Lakeland","state_name":"Florida","lat":27.97262,"lng":-81.89304,"zip":"33812","miles_from_dt":13.59},{"city":"Durant","state_name":"Florida","lat":27.90773,"lng":-82.17236,"zip":"33530","miles_from_dt":14.74},{"city":"Lakeland","state_name":"Florida","lat":28.00887,"lng":-81.93604,"zip":"33803","miles_from_dt":15.35},{"city":"Eaton Park","state_name":"Florida","lat":28.00915,"lng":-81.90506,"zip":"33840","miles_from_dt":15.76},{"city":"Lakeland","state_name":"Florida","lat":28.02891,"lng":-81.95524,"zip":"33806","miles_from_dt":16.6},{"city":"Plant City","state_name":"Florida","lat":27.99241,"lng":-82.1172,"zip":"33566","miles_from_dt":16.61},{"city":"Alturas","state_name":"Florida","lat":27.86233,"lng":-81.71058,"zip":"33820","miles_from_dt":16.83},{"city":"Lakeland","state_name":"Florida","lat":28.04067,"lng":-81.99634,"zip":"33815","miles_from_dt":17.44},{"city":"Valrico","state_name":"Florida","lat":27.88765,"lng":-82.23591,"zip":"33596","miles_from_dt":17.51},{"city":"Plant City","state_name":"Florida","lat":28.01923,"lng":-82.09795,"zip":"33564","miles_from_dt":17.66},{"city":"Lakeland","state_name":"Florida","lat":28.0401,"lng":-81.8947,"zip":"33801","miles_from_dt":17.98},{"city":"Plant City","state_name":"Florida","lat":28.01694,"lng":-82.12544,"zip":"33563","miles_from_dt":18.31},{"city":"Winter Haven","state_name":"Florida","lat":27.9914,"lng":-81.77448,"zip":"33880","miles_from_dt":18.51},{"city":"Balm","state_name":"Florida","lat":27.76375,"lng":-82.27425,"zip":"33503","miles_from_dt":18.55},{"city":"Eagle Lake","state_name":"Florida","lat":27.97481,"lng":-81.75365,"zip":"33839","miles_from_dt":18.56},{"city":"Riverview","state_name":"Florida","lat":27.79585,"lng":-82.28376,"zip":"33579","miles_from_dt":19.06},{"city":"Lakeland","state_name":"Florida","lat":28.06465,"lng":-81.94351,"zip":"33802","miles_from_dt":19.11},{"city":"Sydney","state_name":"Florida","lat":27.9785,"lng":-82.20045,"zip":"33587","miles_from_dt":19.13},{"city":"Valrico","state_name":"Florida","lat":27.94081,"lng":-82.24207,"zip":"33594","miles_from_dt":19.55},{"city":"Dover","state_name":"Florida","lat":27.97571,"lng":-82.2138,"zip":"33527","miles_from_dt":19.61},{"city":"Wauchula","state_name":"Florida","lat":27.56181,"lng":-81.77855,"zip":"33873","miles_from_dt":19.61},{"city":"Riverview","state_name":"Florida","lat":27.84429,"lng":-82.29069,"zip":"33569","miles_from_dt":19.85},{"city":"Lakeland","state_name":"Florida","lat":28.0791,"lng":-81.95451,"zip":"33804","miles_from_dt":20.06},{"city":"Wimauma","state_name":"Florida","lat":27.69531,"lng":-82.29025,"zip":"33598","miles_from_dt":20.49},{"city":"Valrico","state_name":"Florida","lat":27.94707,"lng":-82.25894,"zip":"33595","miles_from_dt":20.66},{"city":"Brandon","state_name":"Florida","lat":27.9099,"lng":-82.29405,"zip":"33511","miles_from_dt":21.38},{"city":"Lakeland","state_name":"Florida","lat":28.09829,"lng":-81.91279,"zip":"33805","miles_from_dt":21.66},{"city":"Lake Wales","state_name":"Florida","lat":27.88428,"lng":-81.63106,"zip":"33859","miles_from_dt":21.92},{"city":"Riverview","state_name":"Florida","lat":27.86872,"lng":-82.31959,"zip":"33568","miles_from_dt":21.95},{"city":"Winter Haven","state_name":"Florida","lat":28.02316,"lng":-81.72697,"zip":"33883","miles_from_dt":22.07},{"city":"Brandon","state_name":"Florida","lat":27.94,"lng":-82.29219,"zip":"33508","miles_from_dt":22.17},{"city":"Winter Haven","state_name":"Florida","lat":27.97669,"lng":-81.67653,"zip":"33884","miles_from_dt":22.28},{"city":"Parrish","state_name":"Florida","lat":27.58041,"lng":-82.26094,"zip":"34219","miles_from_dt":22.75},{"city":"Auburndale","state_name":"Florida","lat":28.09041,"lng":-81.81267,"zip":"33823","miles_from_dt":22.99},{"city":"Brandon","state_name":"Florida","lat":27.95564,"lng":-82.29986,"zip":"33510","miles_from_dt":23.11},{"city":"Brandon","state_name":"Florida","lat":27.89486,"lng":-82.33095,"zip":"33509","miles_from_dt":23.13},{"city":"Winter Haven","state_name":"Florida","lat":28.04424,"lng":-81.7222,"zip":"33888","miles_from_dt":23.35},{"city":"Plant City","state_name":"Florida","lat":28.08858,"lng":-82.15595,"zip":"33565","miles_from_dt":23.52},{"city":"Riverview","state_name":"Florida","lat":27.86187,"lng":-82.34775,"zip":"33578","miles_from_dt":23.52},{"city":"Winter Haven","state_name":"Florida","lat":28.00339,"lng":-81.67198,"zip":"33882","miles_from_dt":23.61},{"city":"Seffner","state_name":"Florida","lat":27.99987,"lng":-82.27766,"zip":"33583","miles_from_dt":23.68},{"city":"Lakeland","state_name":"Florida","lat":28.13027,"lng":-82.03989,"zip":"33810","miles_from_dt":23.91},{"city":"Sun City Center","state_name":"Florida","lat":27.72179,"lng":-82.36,"zip":"33573","miles_from_dt":24.17},{"city":"Winter Haven","state_name":"Florida","lat":28.05337,"lng":-81.71206,"zip":"33885","miles_from_dt":24.23},{"city":"Mango","state_name":"Florida","lat":27.97956,"lng":-82.30698,"zip":"33550","miles_from_dt":24.33},{"city":"Seffner","state_name":"Florida","lat":28.00637,"lng":-82.28959,"zip":"33584","miles_from_dt":24.53},{"city":"Ona","state_name":"Florida","lat":27.42944,"lng":-81.96262,"zip":"33865","miles_from_dt":24.72},{"city":"Winter Haven","state_name":"Florida","lat":28.05439,"lng":-81.70081,"zip":"33881","miles_from_dt":24.74},{"city":"Gibsonton","state_name":"Florida","lat":27.82273,"lng":-82.37505,"zip":"33534","miles_from_dt":24.76},{"city":"Lake Wales","state_name":"Florida","lat":27.90023,"lng":-81.58556,"zip":"33853","miles_from_dt":24.91},{"city":"Waverly","state_name":"Florida","lat":27.98766,"lng":-81.61985,"zip":"33877","miles_from_dt":25.58},{"city":"Apollo Beach","state_name":"Florida","lat":27.7659,"lng":-82.39999,"zip":"33572","miles_from_dt":26.22},{"city":"Tampa","state_name":"Florida","lat":27.98115,"lng":-82.343,"zip":"33601","miles_from_dt":26.27},{"city":"Tampa","state_name":"Florida","lat":27.93115,"lng":-82.3759,"zip":"33660","miles_from_dt":26.57},{"city":"Tampa","state_name":"Florida","lat":27.93536,"lng":-82.37841,"zip":"33619","miles_from_dt":26.82},{"city":"Lake Alfred","state_name":"Florida","lat":28.11886,"lng":-81.73191,"zip":"33850","miles_from_dt":27.1},{"city":"Dundee","state_name":"Florida","lat":28.01851,"lng":-81.60956,"zip":"33838","miles_from_dt":27.28},{"city":"Lake Hamilton","state_name":"Florida","lat":28.04439,"lng":-81.62677,"zip":"33851","miles_from_dt":27.54},{"city":"Babson Park","state_name":"Florida","lat":27.81445,"lng":-81.51484,"zip":"33827","miles_from_dt":28.08},{"city":"Lakeland","state_name":"Florida","lat":28.20291,"lng":-81.96597,"zip":"33809","miles_from_dt":28.55},{"city":"Frostproof","state_name":"Florida","lat":27.73131,"lng":-81.5108,"zip":"33843","miles_from_dt":28.56},{"city":"Sun City Center","state_name":"Florida","lat":27.72056,"lng":-82.43333,"zip":"33571","miles_from_dt":28.61},{"city":"Ruskin","state_name":"Florida","lat":27.72202,"lng":-82.43599,"zip":"33575","miles_from_dt":28.75},{"city":"Tampa","state_name":"Florida","lat":27.9972,"lng":-82.38015,"zip":"33610","miles_from_dt":28.79},{"city":"Thonotosassa","state_name":"Florida","lat":28.10087,"lng":-82.28698,"zip":"33592","miles_from_dt":28.86},{"city":"Zolfo Springs","state_name":"Florida","lat":27.4558,"lng":-81.68354,"zip":"33890","miles_from_dt":28.95},{"city":"Crystal Springs","state_name":"Florida","lat":28.18259,"lng":-82.15872,"zip":"33524","miles_from_dt":29.44},{"city":"Tampa","state_name":"Florida","lat":28.04715,"lng":-82.36118,"zip":"33637","miles_from_dt":29.71}],"targetCityZipCode":"33835","targetCityState":"Florida"},"__N_SSG":true}