{"pageProps":{"stateName":"Florida","cityName":"nocatee","nearbyCities":[{"city":"Fort Ogden","state_name":"Florida","lat":27.0893,"lng":-81.9543,"zip":"34267","miles_from_dt":4.42},{"city":"Arcadia","state_name":"Florida","lat":27.08865,"lng":-81.9639,"zip":"34269","miles_from_dt":4.79},{"city":"Arcadia","state_name":"Florida","lat":27.18794,"lng":-81.80886,"zip":"34265","miles_from_dt":7.34},{"city":"Arcadia","state_name":"Florida","lat":27.19895,"lng":-81.80304,"zip":"34266","miles_from_dt":7.99},{"city":"Punta Gorda","state_name":"Florida","lat":27.00712,"lng":-82.01508,"zip":"33983","miles_from_dt":11.21},{"city":"North Port","state_name":"Florida","lat":27.05385,"lng":-82.11161,"zip":"34288","miles_from_dt":13.48},{"city":"Punta Gorda","state_name":"Florida","lat":26.98062,"lng":-82.05206,"zip":"33980","miles_from_dt":14},{"city":"North Port","state_name":"Florida","lat":27.08587,"lng":-82.13664,"zip":"34289","miles_from_dt":14.08},{"city":"North Port","state_name":"Florida","lat":27.09099,"lng":-82.14147,"zip":"34286","miles_from_dt":14.27},{"city":"Punta Gorda","state_name":"Florida","lat":26.93531,"lng":-81.98658,"zip":"33951","miles_from_dt":15.02},{"city":"Port Charlotte","state_name":"Florida","lat":27.02506,"lng":-82.12167,"zip":"33954","miles_from_dt":15.02},{"city":"Port Charlotte","state_name":"Florida","lat":26.99008,"lng":-82.0972,"zip":"33952","miles_from_dt":15.35},{"city":"Port Charlotte","state_name":"Florida","lat":26.97582,"lng":-82.0908,"zip":"33949","miles_from_dt":15.77},{"city":"Murdock","state_name":"Florida","lat":27.01099,"lng":-82.16236,"zip":"33938","miles_from_dt":17.66},{"city":"Punta Gorda","state_name":"Florida","lat":26.91166,"lng":-82.04009,"zip":"33950","miles_from_dt":17.72},{"city":"Port Charlotte","state_name":"Florida","lat":26.98411,"lng":-82.15126,"zip":"33948","miles_from_dt":18.15},{"city":"North Port","state_name":"Florida","lat":27.11494,"lng":-82.21722,"zip":"34291","miles_from_dt":18.56},{"city":"Punta Gorda","state_name":"Florida","lat":26.91587,"lng":-81.75753,"zip":"33982","miles_from_dt":18.59},{"city":"Ona","state_name":"Florida","lat":27.42944,"lng":-81.96262,"zip":"33865","miles_from_dt":19.81},{"city":"Port Charlotte","state_name":"Florida","lat":26.99991,"lng":-82.21222,"zip":"33953","miles_from_dt":20.7},{"city":"El Jobean","state_name":"Florida","lat":26.97664,"lng":-82.20233,"zip":"33927","miles_from_dt":21.01},{"city":"North Port","state_name":"Florida","lat":27.05735,"lng":-82.24677,"zip":"34287","miles_from_dt":21.14},{"city":"North Port","state_name":"Florida","lat":27.04,"lng":-82.24219,"zip":"34290","miles_from_dt":21.25},{"city":"Punta Gorda","state_name":"Florida","lat":26.82528,"lng":-81.97007,"zip":"33955","miles_from_dt":22.22},{"city":"Myakka City","state_name":"Florida","lat":27.37819,"lng":-82.17152,"zip":"34251","miles_from_dt":22.42},{"city":"Zolfo Springs","state_name":"Florida","lat":27.4558,"lng":-81.68354,"zip":"33890","miles_from_dt":25.82},{"city":"Venice","state_name":"Florida","lat":27.10308,"lng":-82.33496,"zip":"34292","miles_from_dt":25.86},{"city":"Port Charlotte","state_name":"Florida","lat":26.87544,"lng":-82.21047,"zip":"33981","miles_from_dt":25.87},{"city":"Englewood","state_name":"Florida","lat":26.93015,"lng":-82.28376,"zip":"34295","miles_from_dt":26.97},{"city":"North Fort Myers","state_name":"Florida","lat":26.75403,"lng":-81.84779,"zip":"33917","miles_from_dt":27.23},{"city":"Venice","state_name":"Florida","lat":27.04642,"lng":-82.35595,"zip":"34293","miles_from_dt":27.84},{"city":"Englewood","state_name":"Florida","lat":26.97963,"lng":-82.33257,"zip":"34223","miles_from_dt":27.98},{"city":"Rotonda West","state_name":"Florida","lat":26.89015,"lng":-82.27184,"zip":"33947","miles_from_dt":27.99},{"city":"Sarasota","state_name":"Florida","lat":27.33608,"lng":-82.32478,"zip":"34277","miles_from_dt":28.31},{"city":"Englewood","state_name":"Florida","lat":26.91902,"lng":-82.30581,"zip":"34224","miles_from_dt":28.53},{"city":"Sarasota","state_name":"Florida","lat":27.24944,"lng":-82.37305,"zip":"34241","miles_from_dt":28.95},{"city":"Cape Coral","state_name":"Florida","lat":26.72032,"lng":-81.96443,"zip":"33909","miles_from_dt":29.35},{"city":"Placida","state_name":"Florida","lat":26.853,"lng":-82.26958,"zip":"33946","miles_from_dt":29.56},{"city":"Wauchula","state_name":"Florida","lat":27.56181,"lng":-81.77855,"zip":"33873","miles_from_dt":29.97},{"city":"Sarasota","state_name":"Florida","lat":27.34218,"lng":-82.35177,"zip":"34240","miles_from_dt":29.98}],"targetCityZipCode":"34268","targetCityState":"Florida"},"__N_SSG":true}