{"pageProps":{"stateName":"Missouri","cityName":"bolckow","nearbyCities":[{"city":"Rosendale","state_name":"Missouri","lat":40.04335,"lng":-94.83471,"zip":"64483","miles_from_dt":4.49},{"city":"Barnard","state_name":"Missouri","lat":40.18695,"lng":-94.8552,"zip":"64423","miles_from_dt":5.48},{"city":"Rea","state_name":"Missouri","lat":40.06102,"lng":-94.70826,"zip":"64480","miles_from_dt":7.77},{"city":"Fillmore","state_name":"Missouri","lat":40.04135,"lng":-94.97754,"zip":"64449","miles_from_dt":8.57},{"city":"Guilford","state_name":"Missouri","lat":40.15886,"lng":-94.68368,"zip":"64457","miles_from_dt":9.05},{"city":"Graham","state_name":"Missouri","lat":40.18592,"lng":-95.00594,"zip":"64455","miles_from_dt":10.23},{"city":"Savannah","state_name":"Missouri","lat":39.95325,"lng":-94.8184,"zip":"64485","miles_from_dt":10.77},{"city":"Conception Junction","state_name":"Missouri","lat":40.2584,"lng":-94.73615,"zip":"64434","miles_from_dt":11.76},{"city":"Conception","state_name":"Missouri","lat":40.24107,"lng":-94.68053,"zip":"64433","miles_from_dt":12.51},{"city":"Clyde","state_name":"Missouri","lat":40.26399,"lng":-94.66119,"zip":"64432","miles_from_dt":14.36},{"city":"Union Star","state_name":"Missouri","lat":39.99234,"lng":-94.61465,"zip":"64494","miles_from_dt":14.44},{"city":"Amazonia","state_name":"Missouri","lat":39.9082,"lng":-94.92779,"zip":"64421","miles_from_dt":14.55},{"city":"Maitland","state_name":"Missouri","lat":40.16865,"lng":-95.1067,"zip":"64466","miles_from_dt":14.66},{"city":"Oregon","state_name":"Missouri","lat":39.97606,"lng":-95.08446,"zip":"64473","miles_from_dt":15.79},{"city":"Helena","state_name":"Missouri","lat":39.93129,"lng":-94.65017,"zip":"64459","miles_from_dt":15.87},{"city":"Maryville","state_name":"Missouri","lat":40.34241,"lng":-94.8811,"zip":"64468","miles_from_dt":16.29},{"city":"Stanberry","state_name":"Missouri","lat":40.23543,"lng":-94.54969,"zip":"64489","miles_from_dt":17.76},{"city":"Saint Joseph","state_name":"Missouri","lat":39.84431,"lng":-94.83354,"zip":"64505","miles_from_dt":18.22},{"city":"Ravenwood","state_name":"Missouri","lat":40.34853,"lng":-94.66636,"zip":"64479","miles_from_dt":18.98},{"city":"King City","state_name":"Missouri","lat":40.06526,"lng":-94.4869,"zip":"64463","miles_from_dt":19.02},{"city":"Cosby","state_name":"Missouri","lat":39.85362,"lng":-94.69034,"zip":"64436","miles_from_dt":19.31},{"city":"Skidmore","state_name":"Missouri","lat":40.31218,"lng":-95.10293,"zip":"64487","miles_from_dt":19.73},{"city":"Mound City","state_name":"Missouri","lat":40.17036,"lng":-95.22138,"zip":"64470","miles_from_dt":20.57},{"city":"Forest City","state_name":"Missouri","lat":39.99067,"lng":-95.20664,"zip":"64451","miles_from_dt":21},{"city":"Saint Joseph","state_name":"Missouri","lat":39.79048,"lng":-94.80277,"zip":"64506","miles_from_dt":22.02},{"city":"Saint Joseph","state_name":"Missouri","lat":39.77677,"lng":-94.80103,"zip":"64508","miles_from_dt":22.97},{"city":"Darlington","state_name":"Missouri","lat":40.16106,"lng":-94.41091,"zip":"64438","miles_from_dt":23.08},{"city":"Amity","state_name":"Missouri","lat":39.90022,"lng":-94.4941,"zip":"64422","miles_from_dt":23.36},{"city":"Wathena","state_name":"Kansas","lat":39.78391,"lng":-94.97041,"zip":"66090","miles_from_dt":23.41},{"city":"Clarksdale","state_name":"Missouri","lat":39.83771,"lng":-94.56924,"zip":"64430","miles_from_dt":23.6},{"city":"Saint Joseph","state_name":"Missouri","lat":39.76584,"lng":-94.84448,"zip":"64501","miles_from_dt":23.63},{"city":"Pickering","state_name":"Missouri","lat":40.45115,"lng":-94.83034,"zip":"64476","miles_from_dt":23.66},{"city":"Saint Joseph","state_name":"Missouri","lat":39.76361,"lng":-94.84998,"zip":"64502","miles_from_dt":23.78},{"city":"Elwood","state_name":"Kansas","lat":39.76211,"lng":-94.87719,"zip":"66024","miles_from_dt":23.96},{"city":"Saint Joseph","state_name":"Missouri","lat":39.74973,"lng":-94.84545,"zip":"64503","miles_from_dt":24.74},{"city":"Parnell","state_name":"Missouri","lat":40.43561,"lng":-94.63049,"zip":"64475","miles_from_dt":25.18},{"city":"Gentry","state_name":"Missouri","lat":40.34471,"lng":-94.46947,"zip":"64453","miles_from_dt":25.55},{"city":"Troy","state_name":"Kansas","lat":39.80641,"lng":-95.1378,"zip":"66087","miles_from_dt":26.11},{"city":"Saint Joseph","state_name":"Missouri","lat":39.73324,"lng":-94.75735,"zip":"64507","miles_from_dt":26.26},{"city":"Burlington Junction","state_name":"Missouri","lat":40.4418,"lng":-95.08836,"zip":"64428","miles_from_dt":26.46},{"city":"Easton","state_name":"Missouri","lat":39.74724,"lng":-94.65205,"zip":"64443","miles_from_dt":26.86},{"city":"Craig","state_name":"Missouri","lat":40.14292,"lng":-95.35546,"zip":"64437","miles_from_dt":27.33},{"city":"Highland","state_name":"Kansas","lat":39.87693,"lng":-95.26054,"zip":"66035","miles_from_dt":27.38},{"city":"Maysville","state_name":"Missouri","lat":39.93085,"lng":-94.35762,"zip":"64469","miles_from_dt":28.43},{"city":"White Cloud","state_name":"Kansas","lat":39.95912,"lng":-95.34298,"zip":"66094","miles_from_dt":28.52},{"city":"Hopkins","state_name":"Missouri","lat":40.52459,"lng":-94.81063,"zip":"64461","miles_from_dt":28.77},{"city":"Albany","state_name":"Missouri","lat":40.25201,"lng":-94.32276,"zip":"64402","miles_from_dt":29.18},{"city":"Saint Joseph","state_name":"Missouri","lat":39.68605,"lng":-94.91264,"zip":"64504","miles_from_dt":29.38}],"targetCityZipCode":"64427","targetCityState":"Missouri"},"__N_SSG":true}