{"pageProps":{"stateName":"Missouri","cityName":"canton","nearbyCities":[{"city":"Saint Patrick","state_name":"Missouri","lat":40.26627,"lng":-91.61751,"zip":"63466","miles_from_dt":4.74},{"city":"Monticello","state_name":"Missouri","lat":40.17272,"lng":-91.70115,"zip":"63457","miles_from_dt":6.61},{"city":"Warsaw","state_name":"Illinois","lat":40.26867,"lng":-91.4061,"zip":"62379","miles_from_dt":10.38},{"city":"Williamstown","state_name":"Missouri","lat":40.25263,"lng":-91.77803,"zip":"63473","miles_from_dt":10.88},{"city":"Ursa","state_name":"Illinois","lat":40.1148,"lng":-91.40662,"zip":"62376","miles_from_dt":11.13},{"city":"Lima","state_name":"Illinois","lat":40.18836,"lng":-91.37126,"zip":"62348","miles_from_dt":11.23},{"city":"Sutter","state_name":"Illinois","lat":40.23643,"lng":-91.35863,"zip":"62373","miles_from_dt":12.07},{"city":"La Grange","state_name":"Missouri","lat":40.02168,"lng":-91.55416,"zip":"63448","miles_from_dt":12.6},{"city":"Alexandria","state_name":"Missouri","lat":40.38972,"lng":-91.53958,"zip":"63430","miles_from_dt":13.08},{"city":"Lewistown","state_name":"Missouri","lat":40.09316,"lng":-91.78551,"zip":"63452","miles_from_dt":13.14},{"city":"Wayland","state_name":"Missouri","lat":40.4053,"lng":-91.57734,"zip":"63472","miles_from_dt":13.96},{"city":"Kahoka","state_name":"Missouri","lat":40.39681,"lng":-91.72044,"zip":"63445","miles_from_dt":15.23},{"city":"Durham","state_name":"Missouri","lat":39.96084,"lng":-91.68828,"zip":"63438","miles_from_dt":17.62},{"city":"Mendon","state_name":"Illinois","lat":40.11374,"lng":-91.26751,"zip":"62351","miles_from_dt":17.78},{"city":"Keokuk","state_name":"Iowa","lat":40.44072,"lng":-91.43973,"zip":"52632","miles_from_dt":18.06},{"city":"Ewing","state_name":"Missouri","lat":39.97551,"lng":-91.75376,"zip":"63440","miles_from_dt":18.13},{"city":"La Belle","state_name":"Missouri","lat":40.09251,"lng":-91.90494,"zip":"63447","miles_from_dt":18.69},{"city":"Wyaconda","state_name":"Missouri","lat":40.3473,"lng":-91.89674,"zip":"63474","miles_from_dt":19.36},{"city":"Maywood","state_name":"Missouri","lat":39.92389,"lng":-91.64897,"zip":"63454","miles_from_dt":19.57},{"city":"Taylor","state_name":"Missouri","lat":39.92511,"lng":-91.50652,"zip":"63471","miles_from_dt":19.59},{"city":"Loraine","state_name":"Illinois","lat":40.16958,"lng":-91.19986,"zip":"62349","miles_from_dt":20.39},{"city":"Basco","state_name":"Illinois","lat":40.31782,"lng":-91.2251,"zip":"62313","miles_from_dt":20.49},{"city":"West Point","state_name":"Illinois","lat":40.24249,"lng":-91.19174,"zip":"62380","miles_from_dt":20.85},{"city":"Hamilton","state_name":"Illinois","lat":40.42566,"lng":-91.30555,"zip":"62341","miles_from_dt":21.22},{"city":"Quincy","state_name":"Illinois","lat":39.93139,"lng":-91.38741,"zip":"62301","miles_from_dt":21.41},{"city":"Elvaston","state_name":"Illinois","lat":40.39598,"lng":-91.24912,"zip":"62334","miles_from_dt":22.09},{"city":"Argyle","state_name":"Iowa","lat":40.5246,"lng":-91.56566,"zip":"52619","miles_from_dt":22.21},{"city":"Quincy","state_name":"Illinois","lat":39.92915,"lng":-91.34441,"zip":"62305","miles_from_dt":22.73},{"city":"Revere","state_name":"Missouri","lat":40.52307,"lng":-91.6898,"zip":"63465","miles_from_dt":22.8},{"city":"Knox City","state_name":"Missouri","lat":40.13972,"lng":-92.0055,"zip":"63446","miles_from_dt":22.8},{"city":"Paloma","state_name":"Illinois","lat":40.03239,"lng":-91.20851,"zip":"62359","miles_from_dt":23.05},{"city":"Montrose","state_name":"Iowa","lat":40.52763,"lng":-91.46409,"zip":"52639","miles_from_dt":23.26},{"city":"Fowler","state_name":"Illinois","lat":39.99309,"lng":-91.23889,"zip":"62338","miles_from_dt":23.27},{"city":"Quincy","state_name":"Illinois","lat":39.93296,"lng":-91.30595,"zip":"62306","miles_from_dt":23.71},{"city":"Coatsburg","state_name":"Illinois","lat":40.05307,"lng":-91.16564,"zip":"62325","miles_from_dt":24.39},{"city":"Gorin","state_name":"Missouri","lat":40.35765,"lng":-92.00976,"zip":"63543","miles_from_dt":24.96},{"city":"Luray","state_name":"Missouri","lat":40.49511,"lng":-91.86495,"zip":"63453","miles_from_dt":25.07},{"city":"Nauvoo","state_name":"Illinois","lat":40.52087,"lng":-91.33305,"zip":"62354","miles_from_dt":25.59},{"city":"Philadelphia","state_name":"Missouri","lat":39.84533,"lng":-91.75976,"zip":"63463","miles_from_dt":26.4},{"city":"Rutledge","state_name":"Missouri","lat":40.30387,"lng":-92.07439,"zip":"63563","miles_from_dt":26.91},{"city":"Newark","state_name":"Missouri","lat":39.98751,"lng":-92.01745,"zip":"63458","miles_from_dt":27.42},{"city":"Bowen","state_name":"Illinois","lat":40.23341,"lng":-91.05495,"zip":"62316","miles_from_dt":27.99},{"city":"Palmyra","state_name":"Missouri","lat":39.79757,"lng":-91.55577,"zip":"63461","miles_from_dt":28.01},{"city":"Ferris","state_name":"Illinois","lat":40.46759,"lng":-91.17333,"zip":"62336","miles_from_dt":28.29},{"city":"Bethel","state_name":"Missouri","lat":39.90591,"lng":-91.9507,"zip":"63434","miles_from_dt":28.3},{"city":"Carthage","state_name":"Illinois","lat":40.40948,"lng":-91.10606,"zip":"62321","miles_from_dt":28.93},{"city":"Golden","state_name":"Illinois","lat":40.12898,"lng":-91.04196,"zip":"62339","miles_from_dt":29.07},{"city":"Camp Point","state_name":"Illinois","lat":40.02343,"lng":-91.08295,"zip":"62320","miles_from_dt":29.23},{"city":"Arbela","state_name":"Missouri","lat":40.50058,"lng":-91.99551,"zip":"63432","miles_from_dt":29.94}],"targetCityZipCode":"63435","targetCityState":"Missouri"},"__N_SSG":true}