{"pageProps":{"stateName":"Missouri","cityName":"eldon","nearbyCities":[{"city":"Olean","state_name":"Missouri","lat":38.40634,"lng":-92.47664,"zip":"65064","miles_from_dt":7.8},{"city":"Rocky Mount","state_name":"Missouri","lat":38.26635,"lng":-92.72178,"zip":"65072","miles_from_dt":9.02},{"city":"Barnett","state_name":"Missouri","lat":38.39493,"lng":-92.70815,"zip":"65011","miles_from_dt":9.03},{"city":"Lake Ozark","state_name":"Missouri","lat":38.20127,"lng":-92.67067,"zip":"65049","miles_from_dt":9.88},{"city":"Tuscumbia","state_name":"Missouri","lat":38.22243,"lng":-92.42632,"zip":"65082","miles_from_dt":10.4},{"city":"Eugene","state_name":"Missouri","lat":38.34024,"lng":-92.37942,"zip":"65032","miles_from_dt":10.49},{"city":"High Point","state_name":"Missouri","lat":38.47859,"lng":-92.6061,"zip":"65042","miles_from_dt":11.03},{"city":"Kaiser","state_name":"Missouri","lat":38.15483,"lng":-92.57774,"zip":"65047","miles_from_dt":11.47},{"city":"Russellville","state_name":"Missouri","lat":38.47967,"lng":-92.47306,"zip":"65074","miles_from_dt":12.16},{"city":"Osage Beach","state_name":"Missouri","lat":38.13462,"lng":-92.66593,"zip":"65065","miles_from_dt":13.86},{"city":"Ulman","state_name":"Missouri","lat":38.14318,"lng":-92.44089,"zip":"65083","miles_from_dt":14.16},{"city":"Henley","state_name":"Missouri","lat":38.36367,"lng":-92.31252,"zip":"65040","miles_from_dt":14.35},{"city":"Sunrise Beach","state_name":"Missouri","lat":38.15283,"lng":-92.75225,"zip":"65079","miles_from_dt":15.23},{"city":"Latham","state_name":"Missouri","lat":38.5305,"lng":-92.68867,"zip":"65050","miles_from_dt":15.79},{"city":"Brumley","state_name":"Missouri","lat":38.09185,"lng":-92.49548,"zip":"65017","miles_from_dt":16.33},{"city":"Laurie","state_name":"Missouri","lat":38.19973,"lng":-92.83335,"zip":"65038","miles_from_dt":16.54},{"city":"Gravois Mills","state_name":"Missouri","lat":38.23845,"lng":-92.85749,"zip":"65037","miles_from_dt":16.59},{"city":"Versailles","state_name":"Missouri","lat":38.43574,"lng":-92.85119,"zip":"65084","miles_from_dt":17.15},{"city":"Saint Elizabeth","state_name":"Missouri","lat":38.24849,"lng":-92.26388,"zip":"65075","miles_from_dt":17.43},{"city":"Lohman","state_name":"Missouri","lat":38.54132,"lng":-92.36966,"zip":"65053","miles_from_dt":18.71},{"city":"Linn Creek","state_name":"Missouri","lat":38.05068,"lng":-92.65568,"zip":"65052","miles_from_dt":19.21},{"city":"Saint Thomas","state_name":"Missouri","lat":38.37064,"lng":-92.20376,"zip":"65076","miles_from_dt":20.24},{"city":"California","state_name":"Missouri","lat":38.62038,"lng":-92.56314,"zip":"65018","miles_from_dt":20.65},{"city":"Iberia","state_name":"Missouri","lat":38.10007,"lng":-92.3107,"zip":"65486","miles_from_dt":20.81},{"city":"McGirk","state_name":"Missouri","lat":38.62766,"lng":-92.5661,"zip":"65055","miles_from_dt":21.15},{"city":"Fortuna","state_name":"Missouri","lat":38.55637,"lng":-92.82183,"zip":"65034","miles_from_dt":21.18},{"city":"Jefferson City","state_name":"Missouri","lat":38.57365,"lng":-92.27791,"zip":"65109","miles_from_dt":23.59},{"city":"Montreal","state_name":"Missouri","lat":37.97941,"lng":-92.59076,"zip":"65591","miles_from_dt":23.59},{"city":"Stover","state_name":"Missouri","lat":38.38473,"lng":-93.01085,"zip":"65078","miles_from_dt":24.29},{"city":"Meta","state_name":"Missouri","lat":38.25777,"lng":-92.12946,"zip":"65058","miles_from_dt":24.4},{"city":"Roach","state_name":"Missouri","lat":38.07306,"lng":-92.89213,"zip":"65787","miles_from_dt":24.46},{"city":"Clarksburg","state_name":"Missouri","lat":38.66618,"lng":-92.68119,"zip":"65025","miles_from_dt":24.54},{"city":"Camdenton","state_name":"Missouri","lat":38.00517,"lng":-92.78193,"zip":"65020","miles_from_dt":24.63},{"city":"Centertown","state_name":"Missouri","lat":38.65274,"lng":-92.39915,"zip":"65023","miles_from_dt":24.7},{"city":"Tipton","state_name":"Missouri","lat":38.64086,"lng":-92.78424,"zip":"65081","miles_from_dt":24.91},{"city":"Jefferson City","state_name":"Missouri","lat":38.49143,"lng":-92.15009,"zip":"65101","miles_from_dt":25.69},{"city":"Climax Springs","state_name":"Missouri","lat":38.11104,"lng":-92.99997,"zip":"65324","miles_from_dt":27.47},{"city":"Westphalia","state_name":"Missouri","lat":38.40304,"lng":-92.07272,"zip":"65085","miles_from_dt":27.64},{"city":"Jefferson City","state_name":"Missouri","lat":38.57691,"lng":-92.17549,"zip":"65110","miles_from_dt":27.78},{"city":"Jefferson City","state_name":"Missouri","lat":38.57507,"lng":-92.17364,"zip":"65104","miles_from_dt":27.78},{"city":"Jefferson City","state_name":"Missouri","lat":38.57398,"lng":-92.17168,"zip":"65108","miles_from_dt":27.81},{"city":"Jefferson City","state_name":"Missouri","lat":38.57741,"lng":-92.17418,"zip":"65105","miles_from_dt":27.86},{"city":"Jefferson City","state_name":"Missouri","lat":38.57801,"lng":-92.17436,"zip":"65106","miles_from_dt":27.87},{"city":"Jefferson City","state_name":"Missouri","lat":38.57873,"lng":-92.17409,"zip":"65103","miles_from_dt":27.92},{"city":"Jefferson City","state_name":"Missouri","lat":38.57868,"lng":-92.1737,"zip":"65107","miles_from_dt":27.93},{"city":"Jefferson City","state_name":"Missouri","lat":38.57948,"lng":-92.17092,"zip":"65102","miles_from_dt":28.08},{"city":"Syracuse","state_name":"Missouri","lat":38.64841,"lng":-92.88786,"zip":"65354","miles_from_dt":28.37},{"city":"Florence","state_name":"Missouri","lat":38.60937,"lng":-92.96132,"zip":"65329","miles_from_dt":29.04},{"city":"Koeltztown","state_name":"Missouri","lat":38.35745,"lng":-92.0365,"zip":"65048","miles_from_dt":29.14},{"city":"Brinktown","state_name":"Missouri","lat":38.13089,"lng":-92.0918,"zip":"65443","miles_from_dt":29.19},{"city":"Jefferson City","state_name":"Missouri","lat":38.5511,"lng":-92.11881,"zip":"65111","miles_from_dt":29.22},{"city":"Crocker","state_name":"Missouri","lat":37.96271,"lng":-92.26702,"zip":"65452","miles_from_dt":29.75}],"targetCityZipCode":"65026","targetCityState":"Missouri"},"__N_SSG":true}