{"pageProps":{"stateName":"Missouri","cityName":"hartshorn","nearbyCities":[{"city":"Raymondville","state_name":"Missouri","lat":37.35906,"lng":-91.77723,"zip":"65555","miles_from_dt":8.04},{"city":"Jadwin","state_name":"Missouri","lat":37.47319,"lng":-91.5549,"zip":"65501","miles_from_dt":10.36},{"city":"Summersville","state_name":"Missouri","lat":37.18501,"lng":-91.64546,"zip":"65571","miles_from_dt":10.49},{"city":"Eunice","state_name":"Missouri","lat":37.25434,"lng":-91.79824,"zip":"65468","miles_from_dt":10.7},{"city":"Yukon","state_name":"Missouri","lat":37.23729,"lng":-91.82747,"zip":"65589","miles_from_dt":12.69},{"city":"Eminence","state_name":"Missouri","lat":37.2113,"lng":-91.38645,"zip":"65466","miles_from_dt":16.15},{"city":"Houston","state_name":"Missouri","lat":37.30463,"lng":-91.94911,"zip":"65483","miles_from_dt":17.51},{"city":"Elk Creek","state_name":"Missouri","lat":37.18353,"lng":-91.89236,"zip":"65464","miles_from_dt":17.74},{"city":"Licking","state_name":"Missouri","lat":37.50497,"lng":-91.88432,"zip":"65542","miles_from_dt":18.01},{"city":"Solo","state_name":"Missouri","lat":37.23476,"lng":-91.95781,"zip":"65564","miles_from_dt":19.19},{"city":"Salem","state_name":"Missouri","lat":37.59609,"lng":-91.49943,"zip":"65560","miles_from_dt":19.35},{"city":"Bunker","state_name":"Missouri","lat":37.39847,"lng":-91.23861,"zip":"63629","miles_from_dt":22.16},{"city":"Lenox","state_name":"Missouri","lat":37.64401,"lng":-91.75624,"zip":"65541","miles_from_dt":22.23},{"city":"Mountain View","state_name":"Missouri","lat":37.00545,"lng":-91.71131,"zip":"65548","miles_from_dt":23.25},{"city":"Bucyrus","state_name":"Missouri","lat":37.37772,"lng":-92.06308,"zip":"65444","miles_from_dt":23.8},{"city":"Montier","state_name":"Missouri","lat":36.98788,"lng":-91.575,"zip":"65546","miles_from_dt":24.28},{"city":"Success","state_name":"Missouri","lat":37.45702,"lng":-92.10115,"zip":"65570","miles_from_dt":27.02},{"city":"Beulah","state_name":"Missouri","lat":37.62239,"lng":-91.9726,"zip":"65436","miles_from_dt":27.1},{"city":"Edgar Springs","state_name":"Missouri","lat":37.68654,"lng":-91.86417,"zip":"65462","miles_from_dt":27.24},{"city":"Birch Tree","state_name":"Missouri","lat":36.9375,"lng":-91.50739,"zip":"65438","miles_from_dt":28.41},{"city":"Cabool","state_name":"Missouri","lat":37.13665,"lng":-92.09794,"zip":"65689","miles_from_dt":29.08}],"targetCityZipCode":"65479","targetCityState":"Missouri"},"__N_SSG":true}