{"pageProps":{"stateName":"Missouri","cityName":"knox-city","nearbyCities":[{"city":"La Belle","state_name":"Missouri","lat":40.09251,"lng":-91.90494,"zip":"63447","miles_from_dt":6.24},{"city":"Edina","state_name":"Missouri","lat":40.14776,"lng":-92.16172,"zip":"63537","miles_from_dt":8.29},{"city":"Newark","state_name":"Missouri","lat":39.98751,"lng":-92.01745,"zip":"63458","miles_from_dt":10.52},{"city":"Rutledge","state_name":"Missouri","lat":40.30387,"lng":-92.07439,"zip":"63563","miles_from_dt":11.9},{"city":"Lewistown","state_name":"Missouri","lat":40.09316,"lng":-91.78551,"zip":"63452","miles_from_dt":12.09},{"city":"Williamstown","state_name":"Missouri","lat":40.25263,"lng":-91.77803,"zip":"63473","miles_from_dt":14.34},{"city":"Novelty","state_name":"Missouri","lat":40.00237,"lng":-92.21002,"zip":"63460","miles_from_dt":14.4},{"city":"Gorin","state_name":"Missouri","lat":40.35765,"lng":-92.00976,"zip":"63543","miles_from_dt":15.04},{"city":"Wyaconda","state_name":"Missouri","lat":40.3473,"lng":-91.89674,"zip":"63474","miles_from_dt":15.43},{"city":"Hurdland","state_name":"Missouri","lat":40.13492,"lng":-92.30651,"zip":"63547","miles_from_dt":15.94},{"city":"Monticello","state_name":"Missouri","lat":40.17272,"lng":-91.70115,"zip":"63457","miles_from_dt":16.27},{"city":"Bethel","state_name":"Missouri","lat":39.90591,"lng":-91.9507,"zip":"63434","miles_from_dt":16.39},{"city":"Baring","state_name":"Missouri","lat":40.30002,"lng":-92.25248,"zip":"63531","miles_from_dt":17.12},{"city":"Ewing","state_name":"Missouri","lat":39.97551,"lng":-91.75376,"zip":"63440","miles_from_dt":17.51},{"city":"Leonard","state_name":"Missouri","lat":39.91135,"lng":-92.19728,"zip":"63451","miles_from_dt":18.75},{"city":"Durham","state_name":"Missouri","lat":39.96084,"lng":-91.68828,"zip":"63438","miles_from_dt":20.86},{"city":"Brashear","state_name":"Missouri","lat":40.20471,"lng":-92.39608,"zip":"63533","miles_from_dt":21.15},{"city":"Shelbyville","state_name":"Missouri","lat":39.8323,"lng":-92.04401,"zip":"63469","miles_from_dt":21.31},{"city":"Gibbs","state_name":"Missouri","lat":40.09782,"lng":-92.40792,"zip":"63540","miles_from_dt":21.51},{"city":"Saint Patrick","state_name":"Missouri","lat":40.26627,"lng":-91.61751,"zip":"63466","miles_from_dt":22.31},{"city":"Canton","state_name":"Missouri","lat":40.20299,"lng":-91.58267,"zip":"63435","miles_from_dt":22.8},{"city":"Kahoka","state_name":"Missouri","lat":40.39681,"lng":-91.72044,"zip":"63445","miles_from_dt":23.27},{"city":"Maywood","state_name":"Missouri","lat":39.92389,"lng":-91.64897,"zip":"63454","miles_from_dt":24.07},{"city":"Philadelphia","state_name":"Missouri","lat":39.84533,"lng":-91.75976,"zip":"63463","miles_from_dt":24.14},{"city":"Emden","state_name":"Missouri","lat":39.80382,"lng":-91.85963,"zip":"63439","miles_from_dt":24.43},{"city":"Arbela","state_name":"Missouri","lat":40.50058,"lng":-91.99551,"zip":"63432","miles_from_dt":24.9},{"city":"Granger","state_name":"Missouri","lat":40.5036,"lng":-92.00379,"zip":"63442","miles_from_dt":25.11},{"city":"La Grange","state_name":"Missouri","lat":40.02168,"lng":-91.55416,"zip":"63448","miles_from_dt":25.27},{"city":"Luray","state_name":"Missouri","lat":40.49511,"lng":-91.86495,"zip":"63453","miles_from_dt":25.62},{"city":"Memphis","state_name":"Missouri","lat":40.48458,"lng":-92.18698,"zip":"63555","miles_from_dt":25.65},{"city":"La Plata","state_name":"Missouri","lat":40.0167,"lng":-92.49172,"zip":"63549","miles_from_dt":27.13},{"city":"Atlanta","state_name":"Missouri","lat":39.90732,"lng":-92.45037,"zip":"63530","miles_from_dt":28.53},{"city":"Wayland","state_name":"Missouri","lat":40.4053,"lng":-91.57734,"zip":"63472","miles_from_dt":29.12},{"city":"Greentop","state_name":"Missouri","lat":40.33129,"lng":-92.50882,"zip":"63546","miles_from_dt":29.72}],"targetCityZipCode":"63446","targetCityState":"Missouri"},"__N_SSG":true}