{"pageProps":{"stateName":"Missouri","cityName":"laurie","nearbyCities":[{"city":"Gravois Mills","state_name":"Missouri","lat":38.23845,"lng":-92.85749,"zip":"65037","miles_from_dt":2.98},{"city":"Sunrise Beach","state_name":"Missouri","lat":38.15283,"lng":-92.75225,"zip":"65079","miles_from_dt":5.47},{"city":"Rocky Mount","state_name":"Missouri","lat":38.26635,"lng":-92.72178,"zip":"65072","miles_from_dt":7.61},{"city":"Lake Ozark","state_name":"Missouri","lat":38.20127,"lng":-92.67067,"zip":"65049","miles_from_dt":8.85},{"city":"Roach","state_name":"Missouri","lat":38.07306,"lng":-92.89213,"zip":"65787","miles_from_dt":9.3},{"city":"Osage Beach","state_name":"Missouri","lat":38.13462,"lng":-92.66593,"zip":"65065","miles_from_dt":10.16},{"city":"Climax Springs","state_name":"Missouri","lat":38.11104,"lng":-92.99997,"zip":"65324","miles_from_dt":10.94},{"city":"Camdenton","state_name":"Missouri","lat":38.00517,"lng":-92.78193,"zip":"65020","miles_from_dt":13.71},{"city":"Linn Creek","state_name":"Missouri","lat":38.05068,"lng":-92.65568,"zip":"65052","miles_from_dt":14.12},{"city":"Kaiser","state_name":"Missouri","lat":38.15483,"lng":-92.57774,"zip":"65047","miles_from_dt":14.26},{"city":"Barnett","state_name":"Missouri","lat":38.39493,"lng":-92.70815,"zip":"65011","miles_from_dt":15.09},{"city":"Stover","state_name":"Missouri","lat":38.38473,"lng":-93.01085,"zip":"65078","miles_from_dt":16},{"city":"Versailles","state_name":"Missouri","lat":38.43574,"lng":-92.85119,"zip":"65084","miles_from_dt":16.31},{"city":"Eldon","state_name":"Missouri","lat":38.32105,"lng":-92.57099,"zip":"65026","miles_from_dt":16.54},{"city":"Edwards","state_name":"Missouri","lat":38.16271,"lng":-93.1458,"zip":"65326","miles_from_dt":17.2},{"city":"Macks Creek","state_name":"Missouri","lat":37.96715,"lng":-92.96516,"zip":"65786","miles_from_dt":17.58},{"city":"Brumley","state_name":"Missouri","lat":38.09185,"lng":-92.49548,"zip":"65017","miles_from_dt":19.85},{"city":"Montreal","state_name":"Missouri","lat":37.97941,"lng":-92.59076,"zip":"65591","miles_from_dt":20.14},{"city":"Ulman","state_name":"Missouri","lat":38.14318,"lng":-92.44089,"zip":"65083","miles_from_dt":21.72},{"city":"Tuscumbia","state_name":"Missouri","lat":38.22243,"lng":-92.42632,"zip":"65082","miles_from_dt":22.21},{"city":"Cross Timbers","state_name":"Missouri","lat":38.02355,"lng":-93.18827,"zip":"65634","miles_from_dt":22.84},{"city":"High Point","state_name":"Missouri","lat":38.47859,"lng":-92.6061,"zip":"65042","miles_from_dt":22.86},{"city":"Olean","state_name":"Missouri","lat":38.40634,"lng":-92.47664,"zip":"65064","miles_from_dt":24.06},{"city":"Latham","state_name":"Missouri","lat":38.5305,"lng":-92.68867,"zip":"65050","miles_from_dt":24.13},{"city":"Fortuna","state_name":"Missouri","lat":38.55637,"lng":-92.82183,"zip":"65034","miles_from_dt":24.61},{"city":"Eldridge","state_name":"Missouri","lat":37.84536,"lng":-92.7811,"zip":"65463","miles_from_dt":24.61},{"city":"Cole Camp","state_name":"Missouri","lat":38.43239,"lng":-93.18535,"zip":"65325","miles_from_dt":24.97},{"city":"Preston","state_name":"Missouri","lat":37.93938,"lng":-93.16763,"zip":"65732","miles_from_dt":25.59},{"city":"Eugene","state_name":"Missouri","lat":38.34024,"lng":-92.37942,"zip":"65032","miles_from_dt":26.52},{"city":"Tunas","state_name":"Missouri","lat":37.82189,"lng":-92.95682,"zip":"65764","miles_from_dt":26.92},{"city":"Russellville","state_name":"Missouri","lat":38.47967,"lng":-92.47306,"zip":"65074","miles_from_dt":27.49},{"city":"Lincoln","state_name":"Missouri","lat":38.36227,"lng":-93.29523,"zip":"65338","miles_from_dt":27.5},{"city":"Mora","state_name":"Missouri","lat":38.54111,"lng":-93.1254,"zip":"65345","miles_from_dt":28.39},{"city":"Stoutland","state_name":"Missouri","lat":37.85594,"lng":-92.53699,"zip":"65567","miles_from_dt":28.7},{"city":"Florence","state_name":"Missouri","lat":38.60937,"lng":-92.96132,"zip":"65329","miles_from_dt":29.1},{"city":"Iberia","state_name":"Missouri","lat":38.10007,"lng":-92.3107,"zip":"65486","miles_from_dt":29.28},{"city":"Warsaw","state_name":"Missouri","lat":38.22137,"lng":-93.37144,"zip":"65355","miles_from_dt":29.32}],"targetCityZipCode":"65038","targetCityState":"Missouri"},"__N_SSG":true}