{"pageProps":{"stateName":"Missouri","cityName":"livonia","nearbyCities":[{"city":"Glenwood","state_name":"Missouri","lat":40.50355,"lng":-92.63331,"zip":"63541","miles_from_dt":5.76},{"city":"Coatsville","state_name":"Missouri","lat":40.57244,"lng":-92.67946,"zip":"63535","miles_from_dt":6.05},{"city":"Worthington","state_name":"Missouri","lat":40.41332,"lng":-92.70461,"zip":"63567","miles_from_dt":6.25},{"city":"Exline","state_name":"Iowa","lat":40.63905,"lng":-92.81046,"zip":"52555","miles_from_dt":10.29},{"city":"Unionville","state_name":"Missouri","lat":40.48263,"lng":-92.95447,"zip":"63565","miles_from_dt":11.22},{"city":"Queen City","state_name":"Missouri","lat":40.41408,"lng":-92.54317,"zip":"63561","miles_from_dt":12.04},{"city":"Moulton","state_name":"Iowa","lat":40.67795,"lng":-92.69163,"zip":"52572","miles_from_dt":12.62},{"city":"Lancaster","state_name":"Missouri","lat":40.53405,"lng":-92.4953,"zip":"63548","miles_from_dt":13.24},{"city":"Cincinnati","state_name":"Iowa","lat":40.61392,"lng":-92.94602,"zip":"52549","miles_from_dt":13.32},{"city":"Greentop","state_name":"Missouri","lat":40.33129,"lng":-92.50882,"zip":"63546","miles_from_dt":16.92},{"city":"Centerville","state_name":"Iowa","lat":40.71774,"lng":-92.90831,"zip":"52544","miles_from_dt":17.42},{"city":"Green Castle","state_name":"Missouri","lat":40.24603,"lng":-92.84943,"zip":"63544","miles_from_dt":18.36},{"city":"Novinger","state_name":"Missouri","lat":40.22674,"lng":-92.74528,"zip":"63559","miles_from_dt":18.8},{"city":"Udell","state_name":"Iowa","lat":40.77363,"lng":-92.73955,"zip":"52593","miles_from_dt":18.94},{"city":"Green City","state_name":"Missouri","lat":40.26721,"lng":-92.9677,"zip":"63545","miles_from_dt":19.94},{"city":"Downing","state_name":"Missouri","lat":40.48423,"lng":-92.3574,"zip":"63536","miles_from_dt":20.31},{"city":"Pollock","state_name":"Missouri","lat":40.3574,"lng":-93.12291,"zip":"63560","miles_from_dt":22.32},{"city":"Seymour","state_name":"Iowa","lat":40.6654,"lng":-93.13594,"zip":"52590","miles_from_dt":23.66},{"city":"Unionville","state_name":"Iowa","lat":40.83561,"lng":-92.64957,"zip":"52594","miles_from_dt":23.72},{"city":"Bloomfield","state_name":"Iowa","lat":40.7355,"lng":-92.41426,"zip":"52537","miles_from_dt":23.74},{"city":"Kirksville","state_name":"Missouri","lat":40.16745,"lng":-92.59078,"zip":"63501","miles_from_dt":24.25},{"city":"Mystic","state_name":"Iowa","lat":40.80822,"lng":-92.96948,"zip":"52574","miles_from_dt":24.43},{"city":"Drakesville","state_name":"Iowa","lat":40.83552,"lng":-92.53633,"zip":"52552","miles_from_dt":25.61},{"city":"Lucerne","state_name":"Missouri","lat":40.44017,"lng":-93.23684,"zip":"64655","miles_from_dt":26.37},{"city":"Moravia","state_name":"Iowa","lat":40.87739,"lng":-92.83114,"zip":"52571","miles_from_dt":26.51},{"city":"Plano","state_name":"Iowa","lat":40.80504,"lng":-93.06265,"zip":"52581","miles_from_dt":26.99},{"city":"Brashear","state_name":"Missouri","lat":40.20471,"lng":-92.39608,"zip":"63533","miles_from_dt":27.34},{"city":"Powersville","state_name":"Missouri","lat":40.53869,"lng":-93.26015,"zip":"64672","miles_from_dt":27.39},{"city":"Pulaski","state_name":"Iowa","lat":40.65273,"lng":-92.24936,"zip":"52584","miles_from_dt":28.03},{"city":"Memphis","state_name":"Missouri","lat":40.48458,"lng":-92.18698,"zip":"63555","miles_from_dt":29.28},{"city":"Baring","state_name":"Missouri","lat":40.30002,"lng":-92.25248,"zip":"63531","miles_from_dt":29.28},{"city":"Milan","state_name":"Missouri","lat":40.18251,"lng":-93.11723,"zip":"63556","miles_from_dt":29.48}],"targetCityZipCode":"63551","targetCityState":"Missouri"},"__N_SSG":true}