{"pageProps":{"stateName":"Missouri","cityName":"montrose","nearbyCities":[{"city":"Appleton City","state_name":"Missouri","lat":38.15188,"lng":-94.01025,"zip":"64724","miles_from_dt":8.61},{"city":"Urich","state_name":"Missouri","lat":38.42868,"lng":-94.02045,"zip":"64788","miles_from_dt":10.74},{"city":"Clinton","state_name":"Missouri","lat":38.36612,"lng":-93.73644,"zip":"64735","miles_from_dt":14.97},{"city":"Rockville","state_name":"Missouri","lat":38.06246,"lng":-94.04276,"zip":"64780","miles_from_dt":14.99},{"city":"Deepwater","state_name":"Missouri","lat":38.22349,"lng":-93.71204,"zip":"64740","miles_from_dt":15.36},{"city":"Butler","state_name":"Missouri","lat":38.25789,"lng":-94.29236,"zip":"64730","miles_from_dt":16.67},{"city":"Creighton","state_name":"Missouri","lat":38.51139,"lng":-94.09389,"zip":"64739","miles_from_dt":17.3},{"city":"Lowry City","state_name":"Missouri","lat":38.14354,"lng":-93.71573,"zip":"64763","miles_from_dt":17.32},{"city":"Blairstown","state_name":"Missouri","lat":38.52921,"lng":-93.92492,"zip":"64726","miles_from_dt":17.83},{"city":"Schell City","state_name":"Missouri","lat":37.99972,"lng":-94.10688,"zip":"64783","miles_from_dt":20.1},{"city":"Adrian","state_name":"Missouri","lat":38.40533,"lng":-94.33742,"zip":"64720","miles_from_dt":21.06},{"city":"Roscoe","state_name":"Missouri","lat":37.97837,"lng":-93.81242,"zip":"64781","miles_from_dt":22.57},{"city":"Chilhowee","state_name":"Missouri","lat":38.58016,"lng":-93.8283,"zip":"64733","miles_from_dt":22.72},{"city":"Garden City","state_name":"Missouri","lat":38.57353,"lng":-94.17399,"zip":"64747","miles_from_dt":22.95},{"city":"Calhoun","state_name":"Missouri","lat":38.45289,"lng":-93.6212,"zip":"65323","miles_from_dt":23.32},{"city":"Osceola","state_name":"Missouri","lat":38.04242,"lng":-93.67469,"zip":"64776","miles_from_dt":23.38},{"city":"Harwood","state_name":"Missouri","lat":37.93033,"lng":-94.11427,"zip":"64750","miles_from_dt":24.79},{"city":"Archie","state_name":"Missouri","lat":38.49482,"lng":-94.36609,"zip":"64725","miles_from_dt":25.57},{"city":"Rich Hill","state_name":"Missouri","lat":38.09214,"lng":-94.40152,"zip":"64779","miles_from_dt":25.88},{"city":"Walker","state_name":"Missouri","lat":37.92924,"lng":-94.22969,"zip":"64790","miles_from_dt":27.3},{"city":"Leeton","state_name":"Missouri","lat":38.59463,"lng":-93.68657,"zip":"64761","miles_from_dt":27.39},{"city":"Foster","state_name":"Missouri","lat":38.15662,"lng":-94.50384,"zip":"64745","miles_from_dt":29.31},{"city":"El Dorado Springs","state_name":"Missouri","lat":37.84963,"lng":-93.97755,"zip":"64744","miles_from_dt":29.36},{"city":"East Lynne","state_name":"Missouri","lat":38.66596,"lng":-94.21827,"zip":"64743","miles_from_dt":29.73}],"targetCityZipCode":"64770","targetCityState":"Missouri"},"__N_SSG":true}