{"pageProps":{"stateName":"Missouri","cityName":"newark","nearbyCities":[{"city":"Bethel","state_name":"Missouri","lat":39.90591,"lng":-91.9507,"zip":"63434","miles_from_dt":6.65},{"city":"La Belle","state_name":"Missouri","lat":40.09251,"lng":-91.90494,"zip":"63447","miles_from_dt":9.39},{"city":"Novelty","state_name":"Missouri","lat":40.00237,"lng":-92.21002,"zip":"63460","miles_from_dt":10.27},{"city":"Knox City","state_name":"Missouri","lat":40.13972,"lng":-92.0055,"zip":"63446","miles_from_dt":10.52},{"city":"Shelbyville","state_name":"Missouri","lat":39.8323,"lng":-92.04401,"zip":"63469","miles_from_dt":10.8},{"city":"Leonard","state_name":"Missouri","lat":39.91135,"lng":-92.19728,"zip":"63451","miles_from_dt":10.9},{"city":"Edina","state_name":"Missouri","lat":40.14776,"lng":-92.16172,"zip":"63537","miles_from_dt":13.44},{"city":"Ewing","state_name":"Missouri","lat":39.97551,"lng":-91.75376,"zip":"63440","miles_from_dt":14.02},{"city":"Lewistown","state_name":"Missouri","lat":40.09316,"lng":-91.78551,"zip":"63452","miles_from_dt":14.3},{"city":"Emden","state_name":"Missouri","lat":39.80382,"lng":-91.85963,"zip":"63439","miles_from_dt":15.2},{"city":"Philadelphia","state_name":"Missouri","lat":39.84533,"lng":-91.75976,"zip":"63463","miles_from_dt":16.84},{"city":"Durham","state_name":"Missouri","lat":39.96084,"lng":-91.68828,"zip":"63438","miles_from_dt":17.57},{"city":"Hurdland","state_name":"Missouri","lat":40.13492,"lng":-92.30651,"zip":"63547","miles_from_dt":18.39},{"city":"Maywood","state_name":"Missouri","lat":39.92389,"lng":-91.64897,"zip":"63454","miles_from_dt":20.05},{"city":"Monticello","state_name":"Missouri","lat":40.17272,"lng":-91.70115,"zip":"63457","miles_from_dt":21.08},{"city":"Shelbina","state_name":"Missouri","lat":39.67857,"lng":-92.01267,"zip":"63468","miles_from_dt":21.32},{"city":"Clarence","state_name":"Missouri","lat":39.72576,"lng":-92.23679,"zip":"63437","miles_from_dt":21.5},{"city":"Rutledge","state_name":"Missouri","lat":40.30387,"lng":-92.07439,"zip":"63563","miles_from_dt":22.03},{"city":"Gibbs","state_name":"Missouri","lat":40.09782,"lng":-92.40792,"zip":"63540","miles_from_dt":22.06},{"city":"Williamstown","state_name":"Missouri","lat":40.25263,"lng":-91.77803,"zip":"63473","miles_from_dt":22.26},{"city":"Lentner","state_name":"Missouri","lat":39.66808,"lng":-92.14857,"zip":"63450","miles_from_dt":23.12},{"city":"Anabel","state_name":"Missouri","lat":39.74887,"lng":-92.32893,"zip":"63431","miles_from_dt":23.35},{"city":"Atlanta","state_name":"Missouri","lat":39.90732,"lng":-92.45037,"zip":"63530","miles_from_dt":23.65},{"city":"Hunnewell","state_name":"Missouri","lat":39.66222,"lng":-91.86697,"zip":"63443","miles_from_dt":23.83},{"city":"La Grange","state_name":"Missouri","lat":40.02168,"lng":-91.55416,"zip":"63448","miles_from_dt":24.69},{"city":"Baring","state_name":"Missouri","lat":40.30002,"lng":-92.25248,"zip":"63531","miles_from_dt":24.9},{"city":"Brashear","state_name":"Missouri","lat":40.20471,"lng":-92.39608,"zip":"63533","miles_from_dt":25.04},{"city":"La Plata","state_name":"Missouri","lat":40.0167,"lng":-92.49172,"zip":"63549","miles_from_dt":25.25},{"city":"Gorin","state_name":"Missouri","lat":40.35765,"lng":-92.00976,"zip":"63543","miles_from_dt":25.54},{"city":"Wyaconda","state_name":"Missouri","lat":40.3473,"lng":-91.89674,"zip":"63474","miles_from_dt":25.63},{"city":"Canton","state_name":"Missouri","lat":40.20299,"lng":-91.58267,"zip":"63435","miles_from_dt":27.42},{"city":"Taylor","state_name":"Missouri","lat":39.92511,"lng":-91.50652,"zip":"63471","miles_from_dt":27.47},{"city":"Monroe City","state_name":"Missouri","lat":39.65364,"lng":-91.72693,"zip":"63456","miles_from_dt":27.74},{"city":"Palmyra","state_name":"Missouri","lat":39.79757,"lng":-91.55577,"zip":"63461","miles_from_dt":27.82},{"city":"Macon","state_name":"Missouri","lat":39.75349,"lng":-92.45075,"zip":"63552","miles_from_dt":28.13},{"city":"Saint Patrick","state_name":"Missouri","lat":40.26627,"lng":-91.61751,"zip":"63466","miles_from_dt":28.61}],"targetCityZipCode":"63458","targetCityState":"Missouri"},"__N_SSG":true}