{"pageProps":{"stateName":"Missouri","cityName":"phillipsburg","nearbyCities":[{"city":"Conway","state_name":"Missouri","lat":37.49961,"lng":-92.81612,"zip":"65632","miles_from_dt":6.09},{"city":"Long Lane","state_name":"Missouri","lat":37.61687,"lng":-92.95008,"zip":"65590","miles_from_dt":8.51},{"city":"Lebanon","state_name":"Missouri","lat":37.68942,"lng":-92.64974,"zip":"65536","miles_from_dt":10.84},{"city":"Windyville","state_name":"Missouri","lat":37.7153,"lng":-92.91623,"zip":"65783","miles_from_dt":10.92},{"city":"Niangua","state_name":"Missouri","lat":37.40403,"lng":-92.73971,"zip":"65713","miles_from_dt":13.04},{"city":"Elkland","state_name":"Missouri","lat":37.50999,"lng":-93.03625,"zip":"65644","miles_from_dt":14.03},{"city":"Grovespring","state_name":"Missouri","lat":37.43421,"lng":-92.5698,"zip":"65662","miles_from_dt":16.44},{"city":"Buffalo","state_name":"Missouri","lat":37.6337,"lng":-93.10775,"zip":"65622","miles_from_dt":17.21},{"city":"Eldridge","state_name":"Missouri","lat":37.84536,"lng":-92.7811,"zip":"65463","miles_from_dt":17.85},{"city":"Tunas","state_name":"Missouri","lat":37.82189,"lng":-92.95682,"zip":"65764","miles_from_dt":18.35},{"city":"Marshfield","state_name":"Missouri","lat":37.3224,"lng":-92.89421,"zip":"65706","miles_from_dt":18.97},{"city":"Falcon","state_name":"Missouri","lat":37.54872,"lng":-92.40287,"zip":"65470","miles_from_dt":21.94},{"city":"Louisburg","state_name":"Missouri","lat":37.75642,"lng":-93.1511,"zip":"65685","miles_from_dt":22.53},{"city":"Fair Grove","state_name":"Missouri","lat":37.40297,"lng":-93.15402,"zip":"65648","miles_from_dt":23.24},{"city":"Stoutland","state_name":"Missouri","lat":37.85594,"lng":-92.53699,"zip":"65567","miles_from_dt":23.48},{"city":"Half Way","state_name":"Missouri","lat":37.62732,"lng":-93.24486,"zip":"65663","miles_from_dt":24.58},{"city":"Hartville","state_name":"Missouri","lat":37.30574,"lng":-92.51435,"zip":"65667","miles_from_dt":24.94},{"city":"Urbana","state_name":"Missouri","lat":37.84495,"lng":-93.1529,"zip":"65767","miles_from_dt":26.29},{"city":"Strafford","state_name":"Missouri","lat":37.2838,"lng":-93.09861,"zip":"65757","miles_from_dt":26.6},{"city":"Richland","state_name":"Missouri","lat":37.83582,"lng":-92.40541,"zip":"65556","miles_from_dt":27.59},{"city":"Macks Creek","state_name":"Missouri","lat":37.96715,"lng":-92.96516,"zip":"65786","miles_from_dt":27.74},{"city":"Pleasant Hope","state_name":"Missouri","lat":37.42986,"lng":-93.27424,"zip":"65725","miles_from_dt":28.23},{"city":"Lynchburg","state_name":"Missouri","lat":37.47172,"lng":-92.3045,"zip":"65543","miles_from_dt":28.33},{"city":"Diggins","state_name":"Missouri","lat":37.17254,"lng":-92.85314,"zip":"65636","miles_from_dt":28.73},{"city":"Camdenton","state_name":"Missouri","lat":38.00517,"lng":-92.78193,"zip":"65020","miles_from_dt":28.86},{"city":"Montreal","state_name":"Missouri","lat":37.97941,"lng":-92.59076,"zip":"65591","miles_from_dt":29.38},{"city":"Polk","state_name":"Missouri","lat":37.76266,"lng":-93.28889,"zip":"65727","miles_from_dt":29.43},{"city":"Laquey","state_name":"Missouri","lat":37.70236,"lng":-92.27656,"zip":"65534","miles_from_dt":29.77}],"targetCityZipCode":"65722","targetCityState":"Missouri"},"__N_SSG":true}