{"pageProps":{"stateName":"Missouri","cityName":"pocahontas","nearbyCities":[{"city":"Jackson","state_name":"Missouri","lat":37.44351,"lng":-89.64193,"zip":"63755","miles_from_dt":3.86},{"city":"Oak Ridge","state_name":"Missouri","lat":37.52312,"lng":-89.74203,"zip":"63769","miles_from_dt":5.72},{"city":"Altenburg","state_name":"Missouri","lat":37.59428,"lng":-89.59123,"zip":"63732","miles_from_dt":7.11},{"city":"Old Appleton","state_name":"Missouri","lat":37.59456,"lng":-89.70049,"zip":"63770","miles_from_dt":7.3},{"city":"Uniontown","state_name":"Missouri","lat":37.60958,"lng":-89.6823,"zip":"63783","miles_from_dt":7.91},{"city":"Friedheim","state_name":"Missouri","lat":37.55993,"lng":-89.81121,"zip":"63747","miles_from_dt":10.18},{"city":"Daisy","state_name":"Missouri","lat":37.51886,"lng":-89.83261,"zip":"63743","miles_from_dt":10.55},{"city":"Wolf Lake","state_name":"Illinois","lat":37.51649,"lng":-89.44698,"zip":"62998","miles_from_dt":10.79},{"city":"Brazeau","state_name":"Missouri","lat":37.6593,"lng":-89.65455,"zip":"63737","miles_from_dt":11.05},{"city":"Frohna","state_name":"Missouri","lat":37.66912,"lng":-89.61282,"zip":"63748","miles_from_dt":11.81},{"city":"Cape Girardeau","state_name":"Missouri","lat":37.33522,"lng":-89.58043,"zip":"63701","miles_from_dt":11.82},{"city":"Millersville","state_name":"Missouri","lat":37.43558,"lng":-89.84424,"zip":"63766","miles_from_dt":11.95},{"city":"Gordonville","state_name":"Missouri","lat":37.31394,"lng":-89.67871,"zip":"63752","miles_from_dt":12.95},{"city":"Grand Tower","state_name":"Illinois","lat":37.6348,"lng":-89.47681,"zip":"62942","miles_from_dt":13.02},{"city":"Cape Girardeau","state_name":"Missouri","lat":37.31095,"lng":-89.62594,"zip":"63702","miles_from_dt":13.03},{"city":"Burfordville","state_name":"Missouri","lat":37.35686,"lng":-89.80216,"zip":"63739","miles_from_dt":13.2},{"city":"Farrar","state_name":"Missouri","lat":37.70783,"lng":-89.69484,"zip":"63746","miles_from_dt":14.66},{"city":"Sedgewickville","state_name":"Missouri","lat":37.5329,"lng":-89.93078,"zip":"63781","miles_from_dt":16.02},{"city":"Alto Pass","state_name":"Illinois","lat":37.57381,"lng":-89.35867,"zip":"62905","miles_from_dt":16.39},{"city":"Cape Girardeau","state_name":"Missouri","lat":37.27373,"lng":-89.53981,"zip":"63703","miles_from_dt":16.55},{"city":"Dutchtown","state_name":"Missouri","lat":37.25596,"lng":-89.65946,"zip":"63745","miles_from_dt":16.82},{"city":"McClure","state_name":"Illinois","lat":37.31355,"lng":-89.42669,"zip":"62957","miles_from_dt":17.46},{"city":"Pomona","state_name":"Illinois","lat":37.64307,"lng":-89.37274,"zip":"62975","miles_from_dt":17.8},{"city":"Jonesboro","state_name":"Illinois","lat":37.42065,"lng":-89.33187,"zip":"62952","miles_from_dt":17.9},{"city":"Jacob","state_name":"Illinois","lat":37.75184,"lng":-89.55573,"zip":"62950","miles_from_dt":18.04},{"city":"Gorham","state_name":"Illinois","lat":37.7292,"lng":-89.46279,"zip":"62940","miles_from_dt":18.65},{"city":"Whitewater","state_name":"Missouri","lat":37.26336,"lng":-89.81554,"zip":"63785","miles_from_dt":18.87},{"city":"Perryville","state_name":"Missouri","lat":37.71051,"lng":-89.87919,"zip":"63775","miles_from_dt":19.52},{"city":"McBride","state_name":"Missouri","lat":37.71445,"lng":-89.89065,"zip":"63776","miles_from_dt":20.14},{"city":"Delta","state_name":"Missouri","lat":37.19331,"lng":-89.71831,"zip":"63744","miles_from_dt":21.52},{"city":"Kelso","state_name":"Missouri","lat":37.19212,"lng":-89.55064,"zip":"63758","miles_from_dt":21.78},{"city":"Marble Hill","state_name":"Missouri","lat":37.32944,"lng":-89.9837,"zip":"63764","miles_from_dt":22.15},{"city":"Leopold","state_name":"Missouri","lat":37.25084,"lng":-89.90374,"zip":"63760","miles_from_dt":22.39},{"city":"Chaffee","state_name":"Missouri","lat":37.17564,"lng":-89.68557,"zip":"63740","miles_from_dt":22.46},{"city":"Patton","state_name":"Missouri","lat":37.53782,"lng":-90.05321,"zip":"63662","miles_from_dt":22.73},{"city":"Thebes","state_name":"Illinois","lat":37.22924,"lng":-89.40493,"zip":"62990","miles_from_dt":22.75},{"city":"Cobden","state_name":"Illinois","lat":37.55095,"lng":-89.23208,"zip":"62920","miles_from_dt":22.8},{"city":"Rockwood","state_name":"Illinois","lat":37.83179,"lng":-89.65952,"zip":"62280","miles_from_dt":22.94},{"city":"Carbondale","state_name":"Illinois","lat":37.67162,"lng":-89.27568,"zip":"62903","miles_from_dt":23.36},{"city":"Scott City","state_name":"Missouri","lat":37.17797,"lng":-89.50138,"zip":"63780","miles_from_dt":23.49},{"city":"Millcreek","state_name":"Illinois","lat":37.34063,"lng":-89.25378,"zip":"62961","miles_from_dt":24.01},{"city":"Murphysboro","state_name":"Illinois","lat":37.7693,"lng":-89.35198,"zip":"62966","miles_from_dt":24.49},{"city":"Anna","state_name":"Illinois","lat":37.45746,"lng":-89.18899,"zip":"62906","miles_from_dt":25.07},{"city":"Commerce","state_name":"Missouri","lat":37.1583,"lng":-89.44672,"zip":"63742","miles_from_dt":25.87},{"city":"Ava","state_name":"Illinois","lat":37.86503,"lng":-89.50009,"zip":"62907","miles_from_dt":26.39},{"city":"Tamms","state_name":"Illinois","lat":37.23184,"lng":-89.29629,"zip":"62988","miles_from_dt":26.51},{"city":"Unity","state_name":"Illinois","lat":37.23641,"lng":-89.2696,"zip":"62993","miles_from_dt":27.38},{"city":"Makanda","state_name":"Illinois","lat":37.60389,"lng":-89.14917,"zip":"62958","miles_from_dt":28.01},{"city":"Perkins","state_name":"Missouri","lat":37.09424,"lng":-89.77469,"zip":"63774","miles_from_dt":28.88},{"city":"Carbondale","state_name":"Illinois","lat":37.74003,"lng":-89.20946,"zip":"62901","miles_from_dt":28.96},{"city":"Olive Branch","state_name":"Illinois","lat":37.15181,"lng":-89.34674,"zip":"62969","miles_from_dt":28.97},{"city":"Dongola","state_name":"Illinois","lat":37.3692,"lng":-89.13589,"zip":"62926","miles_from_dt":29.25},{"city":"Oran","state_name":"Missouri","lat":37.07431,"lng":-89.71299,"zip":"63771","miles_from_dt":29.58},{"city":"Benton","state_name":"Missouri","lat":37.08033,"lng":-89.52072,"zip":"63736","miles_from_dt":29.67}],"targetCityZipCode":"63779","targetCityState":"Missouri"},"__N_SSG":true}