{"pageProps":{"stateName":"Missouri","cityName":"sedalia","nearbyCities":[{"city":"Sedalia","state_name":"Missouri","lat":38.70819,"lng":-93.22234,"zip":"65302","miles_from_dt":0.62},{"city":"Smithton","state_name":"Missouri","lat":38.65557,"lng":-93.10038,"zip":"65350","miles_from_dt":7.19},{"city":"Hughesville","state_name":"Missouri","lat":38.8348,"lng":-93.24558,"zip":"65334","miles_from_dt":9.45},{"city":"Green Ridge","state_name":"Missouri","lat":38.61973,"lng":-93.41324,"zip":"65332","miles_from_dt":11.75},{"city":"Mora","state_name":"Missouri","lat":38.54111,"lng":-93.1254,"zip":"65345","miles_from_dt":12.07},{"city":"La Monte","state_name":"Missouri","lat":38.79202,"lng":-93.42573,"zip":"65337","miles_from_dt":12.78},{"city":"Otterville","state_name":"Missouri","lat":38.70963,"lng":-92.98344,"zip":"65348","miles_from_dt":12.86},{"city":"Ionia","state_name":"Missouri","lat":38.51338,"lng":-93.32667,"zip":"65335","miles_from_dt":14.04},{"city":"Houstonia","state_name":"Missouri","lat":38.90687,"lng":-93.30724,"zip":"65333","miles_from_dt":15.06},{"city":"Florence","state_name":"Missouri","lat":38.60937,"lng":-92.96132,"zip":"65329","miles_from_dt":15.35},{"city":"Pilot Grove","state_name":"Missouri","lat":38.84581,"lng":-92.95498,"zip":"65276","miles_from_dt":17.57},{"city":"Whiteman Air Force Base","state_name":"Missouri","lat":38.72944,"lng":-93.55446,"zip":"65305","miles_from_dt":18.14},{"city":"Syracuse","state_name":"Missouri","lat":38.64841,"lng":-92.88786,"zip":"65354","miles_from_dt":18.35},{"city":"Cole Camp","state_name":"Missouri","lat":38.43239,"lng":-93.18535,"zip":"65325","miles_from_dt":18.51},{"city":"Knob Noster","state_name":"Missouri","lat":38.78169,"lng":-93.56241,"zip":"65336","miles_from_dt":19.3},{"city":"Windsor","state_name":"Missouri","lat":38.51989,"lng":-93.51334,"zip":"65360","miles_from_dt":20.08},{"city":"Sweet Springs","state_name":"Missouri","lat":38.98445,"lng":-93.38628,"zip":"65351","miles_from_dt":21.6},{"city":"Nelson","state_name":"Missouri","lat":38.98453,"lng":-93.0495,"zip":"65347","miles_from_dt":21.75},{"city":"Lincoln","state_name":"Missouri","lat":38.36227,"lng":-93.29523,"zip":"65338","miles_from_dt":23.59},{"city":"Blackwater","state_name":"Missouri","lat":38.9729,"lng":-92.95535,"zip":"65322","miles_from_dt":23.7},{"city":"Fortuna","state_name":"Missouri","lat":38.55637,"lng":-92.82183,"zip":"65034","miles_from_dt":23.74},{"city":"Emma","state_name":"Missouri","lat":38.97525,"lng":-93.48909,"zip":"65327","miles_from_dt":23.91},{"city":"Tipton","state_name":"Missouri","lat":38.64086,"lng":-92.78424,"zip":"65081","miles_from_dt":23.96},{"city":"Bunceton","state_name":"Missouri","lat":38.78078,"lng":-92.78438,"zip":"65237","miles_from_dt":24.25},{"city":"Stover","state_name":"Missouri","lat":38.38473,"lng":-93.01085,"zip":"65078","miles_from_dt":24.5},{"city":"Leeton","state_name":"Missouri","lat":38.59463,"lng":-93.68657,"zip":"64761","miles_from_dt":26.2},{"city":"Versailles","state_name":"Missouri","lat":38.43574,"lng":-92.85119,"zip":"65084","miles_from_dt":27.05},{"city":"Marshall","state_name":"Missouri","lat":39.09149,"lng":-93.18041,"zip":"65340","miles_from_dt":27.15},{"city":"Concordia","state_name":"Missouri","lat":38.96795,"lng":-93.59098,"zip":"64020","miles_from_dt":27.24},{"city":"Calhoun","state_name":"Missouri","lat":38.45289,"lng":-93.6212,"zip":"65323","miles_from_dt":27.53},{"city":"Warrensburg","state_name":"Missouri","lat":38.79057,"lng":-93.73206,"zip":"64093","miles_from_dt":28.32},{"city":"Clarksburg","state_name":"Missouri","lat":38.66618,"lng":-92.68119,"zip":"65025","miles_from_dt":29.28},{"city":"Arrow Rock","state_name":"Missouri","lat":39.06606,"lng":-92.94415,"zip":"65320","miles_from_dt":29.38},{"city":"Blackburn","state_name":"Missouri","lat":39.08604,"lng":-93.4526,"zip":"65321","miles_from_dt":29.46}],"targetCityZipCode":"65301","targetCityState":"Missouri"},"__N_SSG":true}