{"pageProps":{"stateName":"Missouri","cityName":"spokane","nearbyCities":[{"city":"Ponce De Leon","state_name":"Missouri","lat":36.87712,"lng":-93.33533,"zip":"65728","miles_from_dt":2.86},{"city":"Chestnutridge","state_name":"Missouri","lat":36.83463,"lng":-93.2204,"zip":"65630","miles_from_dt":4.32},{"city":"Highlandville","state_name":"Missouri","lat":36.91339,"lng":-93.30137,"zip":"65669","miles_from_dt":4.36},{"city":"Walnut Shade","state_name":"Missouri","lat":36.77484,"lng":-93.2042,"zip":"65771","miles_from_dt":7.28},{"city":"Reeds Spring","state_name":"Missouri","lat":36.7146,"lng":-93.35796,"zip":"65737","miles_from_dt":9.97},{"city":"Ozark","state_name":"Missouri","lat":36.9805,"lng":-93.21045,"zip":"65721","miles_from_dt":10.15},{"city":"Galena","state_name":"Missouri","lat":36.79552,"lng":-93.46626,"zip":"65656","miles_from_dt":10.17},{"city":"Forsyth","state_name":"Missouri","lat":36.78118,"lng":-93.11631,"zip":"65653","miles_from_dt":11.04},{"city":"Rockaway Beach","state_name":"Missouri","lat":36.71288,"lng":-93.16169,"zip":"65740","miles_from_dt":12.05},{"city":"Hurley","state_name":"Missouri","lat":36.93101,"lng":-93.49245,"zip":"65675","miles_from_dt":12.22},{"city":"Branson","state_name":"Missouri","lat":36.67133,"lng":-93.24887,"zip":"65616","miles_from_dt":12.62},{"city":"Clever","state_name":"Missouri","lat":37.00594,"lng":-93.4232,"zip":"65631","miles_from_dt":12.84},{"city":"Nixa","state_name":"Missouri","lat":37.03801,"lng":-93.31976,"zip":"65714","miles_from_dt":13.01},{"city":"Crane","state_name":"Missouri","lat":36.89841,"lng":-93.5346,"zip":"65633","miles_from_dt":13.63},{"city":"Branson","state_name":"Missouri","lat":36.64214,"lng":-93.21688,"zip":"65615","miles_from_dt":15.01},{"city":"Garrison","state_name":"Missouri","lat":36.83934,"lng":-93.01952,"zip":"65657","miles_from_dt":15.34},{"city":"Taneyville","state_name":"Missouri","lat":36.75762,"lng":-93.03167,"zip":"65759","miles_from_dt":15.99},{"city":"Point Lookout","state_name":"Missouri","lat":36.61947,"lng":-93.2427,"zip":"65726","miles_from_dt":16.19},{"city":"Chadwick","state_name":"Missouri","lat":36.89371,"lng":-93.00294,"zip":"65629","miles_from_dt":16.51},{"city":"Hollister","state_name":"Missouri","lat":36.6192,"lng":-93.2177,"zip":"65673","miles_from_dt":16.52},{"city":"Powersite","state_name":"Missouri","lat":36.65458,"lng":-93.12222,"zip":"65731","miles_from_dt":16.59},{"city":"Sparta","state_name":"Missouri","lat":36.9955,"lng":-93.05386,"zip":"65753","miles_from_dt":16.73},{"city":"Cape Fair","state_name":"Missouri","lat":36.73276,"lng":-93.56241,"zip":"65624","miles_from_dt":16.86},{"city":"Kimberling City","state_name":"Missouri","lat":36.62275,"lng":-93.43625,"zip":"65686","miles_from_dt":17.52},{"city":"Billings","state_name":"Missouri","lat":37.03897,"lng":-93.52986,"zip":"65610","miles_from_dt":18.35},{"city":"Springfield","state_name":"Missouri","lat":37.1174,"lng":-93.31707,"zip":"65810","miles_from_dt":18.45},{"city":"Brookline","state_name":"Missouri","lat":37.12312,"lng":-93.38864,"zip":"65619","miles_from_dt":19.5},{"city":"Oldfield","state_name":"Missouri","lat":36.95513,"lng":-92.95998,"zip":"65720","miles_from_dt":19.96},{"city":"Hollister","state_name":"Missouri","lat":36.56446,"lng":-93.21351,"zip":"65672","miles_from_dt":20.24},{"city":"Lead Hill","state_name":"Missouri","lat":36.93429,"lng":-92.94468,"zip":"72643","miles_from_dt":20.3},{"city":"Springfield","state_name":"Missouri","lat":37.14822,"lng":-93.25294,"zip":"65804","miles_from_dt":20.68},{"city":"Springfield","state_name":"Missouri","lat":37.15035,"lng":-93.24842,"zip":"65899","miles_from_dt":20.86},{"city":"Marionville","state_name":"Missouri","lat":37.02607,"lng":-93.60835,"zip":"65705","miles_from_dt":21.12},{"city":"Blue Eye","state_name":"Missouri","lat":36.54339,"lng":-93.36127,"zip":"65611","miles_from_dt":21.47},{"city":"Kirbyville","state_name":"Missouri","lat":36.57738,"lng":-93.10407,"zip":"65679","miles_from_dt":21.63},{"city":"Springfield","state_name":"Missouri","lat":37.166,"lng":-93.32483,"zip":"65807","miles_from_dt":21.83},{"city":"Aurora","state_name":"Missouri","lat":36.88408,"lng":-93.69132,"zip":"65605","miles_from_dt":22.03},{"city":"Springfield","state_name":"Missouri","lat":37.16907,"lng":-93.32652,"zip":"65817","miles_from_dt":22.05},{"city":"Bruner","state_name":"Missouri","lat":37.02045,"lng":-92.95594,"zip":"65620","miles_from_dt":22.18},{"city":"Kissee Mills","state_name":"Missouri","lat":36.64518,"lng":-92.98551,"zip":"65680","miles_from_dt":22.29},{"city":"Rogersville","state_name":"Missouri","lat":37.12543,"lng":-93.08001,"zip":"65742","miles_from_dt":22.42},{"city":"Republic","state_name":"Missouri","lat":37.13503,"lng":-93.49424,"zip":"65738","miles_from_dt":22.49},{"city":"Lampe","state_name":"Missouri","lat":36.55211,"lng":-93.46658,"zip":"65681","miles_from_dt":22.64},{"city":"Springfield","state_name":"Missouri","lat":37.17071,"lng":-93.1936,"zip":"65809","miles_from_dt":22.81},{"city":"Ridgedale","state_name":"Missouri","lat":36.51925,"lng":-93.26864,"zip":"65739","miles_from_dt":22.88},{"city":"Shell Knob","state_name":"Missouri","lat":36.60248,"lng":-93.57971,"zip":"65747","miles_from_dt":23.24},{"city":"Springfield","state_name":"Missouri","lat":37.18979,"lng":-93.26234,"zip":"65808","miles_from_dt":23.48},{"city":"Bradleyville","state_name":"Missouri","lat":36.73739,"lng":-92.88684,"zip":"65614","miles_from_dt":23.99},{"city":"Turners","state_name":"Missouri","lat":37.18152,"lng":-93.15721,"zip":"65765","miles_from_dt":24.09},{"city":"Springfield","state_name":"Missouri","lat":37.19985,"lng":-93.28055,"zip":"65897","miles_from_dt":24.12},{"city":"Springfield","state_name":"Missouri","lat":37.20567,"lng":-93.29847,"zip":"65806","miles_from_dt":24.5},{"city":"Springfield","state_name":"Missouri","lat":37.20586,"lng":-93.3548,"zip":"65890","miles_from_dt":24.73},{"city":"Springfield","state_name":"Missouri","lat":37.21048,"lng":-93.35167,"zip":"65802","miles_from_dt":25.03},{"city":"Springfield","state_name":"Missouri","lat":37.21338,"lng":-93.2922,"zip":"65898","miles_from_dt":25.04},{"city":"Springfield","state_name":"Missouri","lat":37.21421,"lng":-93.29521,"zip":"65801","miles_from_dt":25.09},{"city":"Springfield","state_name":"Missouri","lat":37.21684,"lng":-93.30002,"zip":"65814","miles_from_dt":25.28},{"city":"Cedarcreek","state_name":"Missouri","lat":36.56247,"lng":-93.00613,"zip":"65627","miles_from_dt":25.55},{"city":"Oak Grove","state_name":"Arkansas","lat":36.48115,"lng":-93.37454,"zip":"72660","miles_from_dt":25.83},{"city":"Rueter","state_name":"Missouri","lat":36.62449,"lng":-92.89337,"zip":"65744","miles_from_dt":27.23},{"city":"Springfield","state_name":"Missouri","lat":37.25481,"lng":-93.31533,"zip":"65805","miles_from_dt":27.91},{"city":"Fordland","state_name":"Missouri","lat":37.14264,"lng":-92.94642,"zip":"65652","miles_from_dt":27.93},{"city":"Verona","state_name":"Missouri","lat":36.91676,"lng":-93.79511,"zip":"65769","miles_from_dt":28.03},{"city":"Golden","state_name":"Missouri","lat":36.5426,"lng":-93.63984,"zip":"65658","miles_from_dt":28.55},{"city":"Bois D Arc","state_name":"Missouri","lat":37.21897,"lng":-93.54694,"zip":"65612","miles_from_dt":28.96},{"city":"Omaha","state_name":"Arkansas","lat":36.43184,"lng":-93.18297,"zip":"72662","miles_from_dt":29.53},{"city":"Halltown","state_name":"Missouri","lat":37.19728,"lng":-93.61732,"zip":"65664","miles_from_dt":29.8},{"city":"Springfield","state_name":"Missouri","lat":37.28464,"lng":-93.29036,"zip":"65803","miles_from_dt":29.95}],"targetCityZipCode":"65754","targetCityState":"Missouri"},"__N_SSG":true}