{"pageProps":{"stateName":"Missouri","cityName":"stockton","nearbyCities":[{"city":"Caplinger Mills","state_name":"Missouri","lat":37.79496,"lng":-93.80452,"zip":"65607","miles_from_dt":6.43},{"city":"Arcola","state_name":"Missouri","lat":37.54574,"lng":-93.86072,"zip":"65603","miles_from_dt":11.03},{"city":"Jerico Springs","state_name":"Missouri","lat":37.61931,"lng":-94.01462,"zip":"64756","miles_from_dt":11.97},{"city":"Fair Play","state_name":"Missouri","lat":37.621,"lng":-93.61839,"zip":"65649","miles_from_dt":12.58},{"city":"Dadeville","state_name":"Missouri","lat":37.53487,"lng":-93.71812,"zip":"65635","miles_from_dt":12.95},{"city":"Humansville","state_name":"Missouri","lat":37.78872,"lng":-93.61018,"zip":"65674","miles_from_dt":13.09},{"city":"El Dorado Springs","state_name":"Missouri","lat":37.84963,"lng":-93.97755,"zip":"64744","miles_from_dt":13.17},{"city":"Dunnegan","state_name":"Missouri","lat":37.69956,"lng":-93.57165,"zip":"65640","miles_from_dt":13.8},{"city":"Collins","state_name":"Missouri","lat":37.90098,"lng":-93.65987,"zip":"64738","miles_from_dt":16.33},{"city":"Greenfield","state_name":"Missouri","lat":37.46095,"lng":-93.82722,"zip":"65661","miles_from_dt":16.69},{"city":"Aldrich","state_name":"Missouri","lat":37.53155,"lng":-93.5869,"zip":"65601","miles_from_dt":17.55},{"city":"Roscoe","state_name":"Missouri","lat":37.97837,"lng":-93.81242,"zip":"64781","miles_from_dt":19},{"city":"Milford","state_name":"Missouri","lat":37.58617,"lng":-94.15551,"zip":"64766","miles_from_dt":19.92},{"city":"Milo","state_name":"Missouri","lat":37.7499,"lng":-94.1997,"zip":"64767","miles_from_dt":20.87},{"city":"Lockwood","state_name":"Missouri","lat":37.41722,"lng":-93.97293,"zip":"65682","miles_from_dt":21.35},{"city":"Morrisville","state_name":"Missouri","lat":37.48124,"lng":-93.53712,"zip":"65645","miles_from_dt":21.92},{"city":"Flemington","state_name":"Missouri","lat":37.81388,"lng":-93.44749,"zip":"65650","miles_from_dt":21.96},{"city":"Harwood","state_name":"Missouri","lat":37.93033,"lng":-94.11427,"zip":"64750","miles_from_dt":22.34},{"city":"Sheldon","state_name":"Missouri","lat":37.66624,"lng":-94.23131,"zip":"64784","miles_from_dt":22.5},{"city":"Weaubleau","state_name":"Missouri","lat":37.92806,"lng":-93.49529,"zip":"65774","miles_from_dt":23.73},{"city":"Bolivar","state_name":"Missouri","lat":37.63557,"lng":-93.39205,"zip":"65613","miles_from_dt":24.1},{"city":"Walnut Grove","state_name":"Missouri","lat":37.42165,"lng":-93.5456,"zip":"65770","miles_from_dt":24.68},{"city":"Osceola","state_name":"Missouri","lat":38.04242,"lng":-93.67469,"zip":"64776","miles_from_dt":24.78},{"city":"Schell City","state_name":"Missouri","lat":37.99972,"lng":-94.10688,"zip":"64783","miles_from_dt":25.68},{"city":"South Greenfield","state_name":"Missouri","lat":37.32742,"lng":-93.83842,"zip":"65752","miles_from_dt":25.91},{"city":"Everton","state_name":"Missouri","lat":37.33511,"lng":-93.7039,"zip":"65646","miles_from_dt":26.2},{"city":"Morrisville","state_name":"Missouri","lat":37.48707,"lng":-93.42099,"zip":"65710","miles_from_dt":26.63},{"city":"Walker","state_name":"Missouri","lat":37.92924,"lng":-94.22969,"zip":"64790","miles_from_dt":27.16},{"city":"Lamar","state_name":"Missouri","lat":37.52655,"lng":-94.26775,"zip":"64759","miles_from_dt":27.25},{"city":"Rockville","state_name":"Missouri","lat":38.06246,"lng":-94.04276,"zip":"64780","miles_from_dt":27.54},{"city":"Golden City","state_name":"Missouri","lat":37.36497,"lng":-94.10017,"zip":"64748","miles_from_dt":27.83},{"city":"Nevada","state_name":"Missouri","lat":37.82712,"lng":-94.33355,"zip":"64772","miles_from_dt":29.21},{"city":"Pittsburg","state_name":"Missouri","lat":37.83924,"lng":-93.31488,"zip":"65724","miles_from_dt":29.38},{"city":"Polk","state_name":"Missouri","lat":37.76266,"lng":-93.28889,"zip":"65727","miles_from_dt":29.56},{"city":"Quincy","state_name":"Missouri","lat":38.03728,"lng":-93.48391,"zip":"65735","miles_from_dt":29.6}],"targetCityZipCode":"65785","targetCityState":"Missouri"},"__N_SSG":true}