{"pageProps":{"stateName":"Missouri","cityName":"wappapello","nearbyCities":[{"city":"McGee","state_name":"Missouri","lat":37.05885,"lng":-90.18058,"zip":"63763","miles_from_dt":7.63},{"city":"Puxico","state_name":"Missouri","lat":36.96074,"lng":-90.12434,"zip":"63960","miles_from_dt":7.65},{"city":"Rombauer","state_name":"Missouri","lat":36.84406,"lng":-90.28149,"zip":"63962","miles_from_dt":8.72},{"city":"Lowndes","state_name":"Missouri","lat":37.10875,"lng":-90.26055,"zip":"63951","miles_from_dt":9.6},{"city":"Greenville","state_name":"Missouri","lat":37.10876,"lng":-90.36286,"zip":"63944","miles_from_dt":11.1},{"city":"Williamsville","state_name":"Missouri","lat":36.94867,"lng":-90.47721,"zip":"63967","miles_from_dt":11.99},{"city":"Zalma","state_name":"Missouri","lat":37.12284,"lng":-90.12263,"zip":"63787","miles_from_dt":13.08},{"city":"Dudley","state_name":"Missouri","lat":36.80731,"lng":-90.12979,"zip":"63936","miles_from_dt":13.38},{"city":"Gipsy","state_name":"Missouri","lat":37.1508,"lng":-90.16917,"zip":"63750","miles_from_dt":13.51},{"city":"Fisk","state_name":"Missouri","lat":36.77218,"lng":-90.22892,"zip":"63940","miles_from_dt":13.73},{"city":"Sturdivant","state_name":"Missouri","lat":37.11369,"lng":-90.02788,"zip":"63782","miles_from_dt":16.33},{"city":"Poplar Bluff","state_name":"Missouri","lat":36.7556,"lng":-90.3952,"zip":"63902","miles_from_dt":16.49},{"city":"Clubb","state_name":"Missouri","lat":37.20014,"lng":-90.37254,"zip":"63934","miles_from_dt":17.03},{"city":"Poplar Bluff","state_name":"Missouri","lat":36.77168,"lng":-90.45012,"zip":"63901","miles_from_dt":17.16},{"city":"Bloomfield","state_name":"Missouri","lat":36.93033,"lng":-89.94432,"zip":"63825","miles_from_dt":17.8},{"city":"Brownwood","state_name":"Missouri","lat":37.08936,"lng":-89.95729,"zip":"63738","miles_from_dt":18.77},{"city":"Broseley","state_name":"Missouri","lat":36.6879,"lng":-90.24533,"zip":"63932","miles_from_dt":19.44},{"city":"Silva","state_name":"Missouri","lat":37.23954,"lng":-90.39662,"zip":"63964","miles_from_dt":20.04},{"city":"Dexter","state_name":"Missouri","lat":36.77198,"lng":-89.98169,"zip":"63841","miles_from_dt":20.67},{"city":"Advance","state_name":"Missouri","lat":37.09496,"lng":-89.91841,"zip":"63730","miles_from_dt":20.88},{"city":"Mill Spring","state_name":"Missouri","lat":37.00828,"lng":-90.64916,"zip":"63952","miles_from_dt":21.57},{"city":"Patterson","state_name":"Missouri","lat":37.21741,"lng":-90.51665,"zip":"63956","miles_from_dt":22.13},{"city":"Glenallen","state_name":"Missouri","lat":37.2742,"lng":-90.12404,"zip":"63751","miles_from_dt":22.35},{"city":"Lodi","state_name":"Missouri","lat":37.26924,"lng":-90.43474,"zip":"63950","miles_from_dt":22.76},{"city":"Cascade","state_name":"Missouri","lat":37.3,"lng":-90.26832,"zip":"63632","miles_from_dt":22.79},{"city":"Bernie","state_name":"Missouri","lat":36.65904,"lng":-90.00103,"zip":"63822","miles_from_dt":25.85},{"city":"Piedmont","state_name":"Missouri","lat":37.14218,"lng":-90.68903,"zip":"63957","miles_from_dt":26.43},{"city":"Bell City","state_name":"Missouri","lat":36.98015,"lng":-89.78139,"zip":"63735","miles_from_dt":26.61},{"city":"Ellsinore","state_name":"Missouri","lat":36.94403,"lng":-90.74907,"zip":"63937","miles_from_dt":27},{"city":"Essex","state_name":"Missouri","lat":36.82229,"lng":-89.80199,"zip":"63846","miles_from_dt":27.44},{"city":"Qulin","state_name":"Missouri","lat":36.56848,"lng":-90.2749,"zip":"63961","miles_from_dt":27.67},{"city":"Leopold","state_name":"Missouri","lat":37.25084,"lng":-89.90374,"zip":"63760","miles_from_dt":27.71},{"city":"Harviell","state_name":"Missouri","lat":36.6381,"lng":-90.5524,"zip":"63945","miles_from_dt":27.95},{"city":"Perkins","state_name":"Missouri","lat":37.09424,"lng":-89.77469,"zip":"63774","miles_from_dt":28.29},{"city":"Des Arc","state_name":"Missouri","lat":37.29542,"lng":-90.57549,"zip":"63636","miles_from_dt":28.36},{"city":"Grayridge","state_name":"Missouri","lat":36.82227,"lng":-89.78214,"zip":"63850","miles_from_dt":28.46},{"city":"Marble Hill","state_name":"Missouri","lat":37.32944,"lng":-89.9837,"zip":"63764","miles_from_dt":29.19},{"city":"Marquand","state_name":"Missouri","lat":37.39312,"lng":-90.20552,"zip":"63655","miles_from_dt":29.38}],"targetCityZipCode":"63966","targetCityState":"Missouri"},"__N_SSG":true}