{"pageProps":{"stateName":"Minnesota","cityName":"buffalo-lake","nearbyCities":[{"city":"Stewart","state_name":"Minnesota","lat":44.73732,"lng":-94.49281,"zip":"55385","miles_from_dt":5.8},{"city":"Hector","state_name":"Minnesota","lat":44.74152,"lng":-94.72982,"zip":"55342","miles_from_dt":6.73},{"city":"Cosmos","state_name":"Minnesota","lat":44.93619,"lng":-94.67715,"zip":"56228","miles_from_dt":11.95},{"city":"Brownton","state_name":"Minnesota","lat":44.70853,"lng":-94.34489,"zip":"55312","miles_from_dt":13.3},{"city":"Hutchinson","state_name":"Minnesota","lat":44.89743,"lng":-94.39195,"zip":"55350","miles_from_dt":13.39},{"city":"Bird Island","state_name":"Minnesota","lat":44.75599,"lng":-94.87624,"zip":"55310","miles_from_dt":13.63},{"city":"Gibbon","state_name":"Minnesota","lat":44.52969,"lng":-94.54621,"zip":"55335","miles_from_dt":16.95},{"city":"Fairfax","state_name":"Minnesota","lat":44.51852,"lng":-94.70761,"zip":"55332","miles_from_dt":18.3},{"city":"Lake Lillian","state_name":"Minnesota","lat":44.9628,"lng":-94.87889,"zip":"56253","miles_from_dt":19},{"city":"Olivia","state_name":"Minnesota","lat":44.76742,"lng":-94.99036,"zip":"56277","miles_from_dt":19.2},{"city":"New Auburn","state_name":"Minnesota","lat":44.67233,"lng":-94.2346,"zip":"55366","miles_from_dt":19.26},{"city":"Winthrop","state_name":"Minnesota","lat":44.54473,"lng":-94.36755,"zip":"55396","miles_from_dt":19.44},{"city":"Franklin","state_name":"Minnesota","lat":44.55987,"lng":-94.86593,"zip":"55333","miles_from_dt":19.66},{"city":"Glencoe","state_name":"Minnesota","lat":44.76627,"lng":-94.17803,"zip":"55336","miles_from_dt":20.76},{"city":"Darwin","state_name":"Minnesota","lat":45.05676,"lng":-94.42554,"zip":"55324","miles_from_dt":21.44},{"city":"Litchfield","state_name":"Minnesota","lat":45.09709,"lng":-94.54017,"zip":"55355","miles_from_dt":22.63},{"city":"Silver Lake","state_name":"Minnesota","lat":44.92763,"lng":-94.18623,"zip":"55381","miles_from_dt":22.99},{"city":"Morton","state_name":"Minnesota","lat":44.56013,"lng":-94.97962,"zip":"56270","miles_from_dt":23.75},{"city":"Danube","state_name":"Minnesota","lat":44.79284,"lng":-95.09288,"zip":"56230","miles_from_dt":24.28},{"city":"Blomkest","state_name":"Minnesota","lat":44.93886,"lng":-95.05532,"zip":"56216","miles_from_dt":25.15},{"city":"Gaylord","state_name":"Minnesota","lat":44.53578,"lng":-94.20772,"zip":"55334","miles_from_dt":25.3},{"city":"Dassel","state_name":"Minnesota","lat":45.08432,"lng":-94.32031,"zip":"55325","miles_from_dt":25.55},{"city":"Lafayette","state_name":"Minnesota","lat":44.4357,"lng":-94.37043,"zip":"56054","miles_from_dt":25.84},{"city":"Atwater","state_name":"Minnesota","lat":45.124,"lng":-94.79931,"zip":"56209","miles_from_dt":26.19},{"city":"Lester Prairie","state_name":"Minnesota","lat":44.88466,"lng":-94.0701,"zip":"55354","miles_from_dt":27.17},{"city":"Arlington","state_name":"Minnesota","lat":44.59871,"lng":-94.10475,"zip":"55307","miles_from_dt":27.18},{"city":"Plato","state_name":"Minnesota","lat":44.78077,"lng":-94.03892,"zip":"55370","miles_from_dt":27.6},{"city":"Grove City","state_name":"Minnesota","lat":45.16868,"lng":-94.6799,"zip":"56243","miles_from_dt":27.66},{"city":"Morgan","state_name":"Minnesota","lat":44.41637,"lng":-94.9133,"zip":"56266","miles_from_dt":29.02},{"city":"Cokato","state_name":"Minnesota","lat":45.08406,"lng":-94.193,"zip":"55321","miles_from_dt":29.37},{"city":"Winsted","state_name":"Minnesota","lat":44.9572,"lng":-94.06085,"zip":"55395","miles_from_dt":29.4},{"city":"Renville","state_name":"Minnesota","lat":44.77729,"lng":-95.20204,"zip":"56284","miles_from_dt":29.61},{"city":"Kandiyohi","state_name":"Minnesota","lat":45.14046,"lng":-94.9198,"zip":"56251","miles_from_dt":29.88}],"targetCityZipCode":"55314","targetCityState":"Minnesota"},"__N_SSG":true}