{"pageProps":{"stateName":"Minnesota","cityName":"seaforth","nearbyCities":[{"city":"Wabasso","state_name":"Minnesota","lat":44.41598,"lng":-95.26559,"zip":"56293","miles_from_dt":5.08},{"city":"Vesta","state_name":"Minnesota","lat":44.49734,"lng":-95.44863,"zip":"56292","miles_from_dt":6.24},{"city":"Lucan","state_name":"Minnesota","lat":44.39426,"lng":-95.41707,"zip":"56255","miles_from_dt":7.18},{"city":"Belview","state_name":"Minnesota","lat":44.60804,"lng":-95.32943,"zip":"56214","miles_from_dt":9.16},{"city":"Redwood Falls","state_name":"Minnesota","lat":44.53208,"lng":-95.14225,"zip":"56283","miles_from_dt":9.9},{"city":"Echo","state_name":"Minnesota","lat":44.61956,"lng":-95.43489,"zip":"56237","miles_from_dt":11.31},{"city":"Milroy","state_name":"Minnesota","lat":44.41577,"lng":-95.54086,"zip":"56263","miles_from_dt":11.39},{"city":"Wanda","state_name":"Minnesota","lat":44.31481,"lng":-95.21313,"zip":"56294","miles_from_dt":12.42},{"city":"Clements","state_name":"Minnesota","lat":44.37628,"lng":-95.05854,"zip":"56224","miles_from_dt":14.91},{"city":"Wood Lake","state_name":"Minnesota","lat":44.63005,"lng":-95.54428,"zip":"56297","miles_from_dt":15.17},{"city":"Lamberton","state_name":"Minnesota","lat":44.22702,"lng":-95.2733,"zip":"56152","miles_from_dt":17.35},{"city":"Walnut Grove","state_name":"Minnesota","lat":44.24424,"lng":-95.46655,"zip":"56180","miles_from_dt":17.41},{"city":"Morton","state_name":"Minnesota","lat":44.56013,"lng":-94.97962,"zip":"56270","miles_from_dt":18.09},{"city":"Revere","state_name":"Minnesota","lat":44.20248,"lng":-95.37401,"zip":"56166","miles_from_dt":18.99},{"city":"Sanborn","state_name":"Minnesota","lat":44.20734,"lng":-95.13434,"zip":"56083","miles_from_dt":20.81},{"city":"Morgan","state_name":"Minnesota","lat":44.41637,"lng":-94.9133,"zip":"56266","miles_from_dt":20.83},{"city":"Cottonwood","state_name":"Minnesota","lat":44.59385,"lng":-95.72398,"zip":"56229","miles_from_dt":21.28},{"city":"Marshall","state_name":"Minnesota","lat":44.44121,"lng":-95.75906,"zip":"56258","miles_from_dt":21.54},{"city":"Tracy","state_name":"Minnesota","lat":44.25595,"lng":-95.63733,"zip":"56175","miles_from_dt":21.61},{"city":"Sacred Heart","state_name":"Minnesota","lat":44.78837,"lng":-95.34797,"zip":"56285","miles_from_dt":21.64},{"city":"Renville","state_name":"Minnesota","lat":44.77729,"lng":-95.20204,"zip":"56284","miles_from_dt":21.73},{"city":"Hanley Falls","state_name":"Minnesota","lat":44.68508,"lng":-95.67574,"zip":"56245","miles_from_dt":22.52},{"city":"Franklin","state_name":"Minnesota","lat":44.55987,"lng":-94.86593,"zip":"55333","miles_from_dt":23.48},{"city":"Springfield","state_name":"Minnesota","lat":44.24012,"lng":-94.97538,"zip":"56087","miles_from_dt":23.79},{"city":"Danube","state_name":"Minnesota","lat":44.79284,"lng":-95.09288,"zip":"56230","miles_from_dt":24.76},{"city":"Granite Falls","state_name":"Minnesota","lat":44.79654,"lng":-95.57944,"zip":"56241","miles_from_dt":25.45},{"city":"Olivia","state_name":"Minnesota","lat":44.76742,"lng":-94.99036,"zip":"56277","miles_from_dt":26.1},{"city":"Garvin","state_name":"Minnesota","lat":44.20196,"lng":-95.75792,"zip":"56132","miles_from_dt":28.53},{"city":"Ghent","state_name":"Minnesota","lat":44.50416,"lng":-95.91079,"zip":"56239","miles_from_dt":28.96},{"city":"Bird Island","state_name":"Minnesota","lat":44.75599,"lng":-94.87624,"zip":"55310","miles_from_dt":29.46},{"city":"Jeffers","state_name":"Minnesota","lat":44.05577,"lng":-95.17384,"zip":"56145","miles_from_dt":29.94}],"targetCityZipCode":"56287","targetCityState":"Minnesota"},"__N_SSG":true}