{"pageProps":{"stateName":"Minnesota","cityName":"spring-valley","nearbyCities":[{"city":"Wykoff","state_name":"Minnesota","lat":43.7285,"lng":-92.2591,"zip":"55990","miles_from_dt":6.77},{"city":"Ostrander","state_name":"Minnesota","lat":43.60541,"lng":-92.47544,"zip":"55961","miles_from_dt":7.07},{"city":"Racine","state_name":"Minnesota","lat":43.79343,"lng":-92.51354,"zip":"55967","miles_from_dt":10.75},{"city":"Grand Meadow","state_name":"Minnesota","lat":43.70943,"lng":-92.58524,"zip":"55936","miles_from_dt":10.89},{"city":"Le Roy","state_name":"Minnesota","lat":43.53529,"lng":-92.48414,"zip":"55951","miles_from_dt":11.18},{"city":"Preston","state_name":"Minnesota","lat":43.62913,"lng":-92.13282,"zip":"55965","miles_from_dt":12.46},{"city":"Fountain","state_name":"Minnesota","lat":43.74737,"lng":-92.12734,"zip":"55935","miles_from_dt":13.26},{"city":"Stewartville","state_name":"Minnesota","lat":43.86378,"lng":-92.48394,"zip":"55976","miles_from_dt":14.12},{"city":"Chester","state_name":"Iowa","lat":43.47156,"lng":-92.40078,"zip":"52134","miles_from_dt":14.16},{"city":"Chatfield","state_name":"Minnesota","lat":43.8494,"lng":-92.18315,"zip":"55923","miles_from_dt":15.3},{"city":"Elkton","state_name":"Minnesota","lat":43.64787,"lng":-92.68504,"zip":"55933","miles_from_dt":15.76},{"city":"Taopi","state_name":"Minnesota","lat":43.55371,"lng":-92.64792,"zip":"55977","miles_from_dt":16.16},{"city":"Harmony","state_name":"Minnesota","lat":43.54682,"lng":-92.08144,"zip":"55939","miles_from_dt":17.12},{"city":"Dexter","state_name":"Minnesota","lat":43.74279,"lng":-92.70689,"zip":"55926","miles_from_dt":17.35},{"city":"Lime Springs","state_name":"Iowa","lat":43.41412,"lng":-92.29683,"zip":"52155","miles_from_dt":18.46},{"city":"Adams","state_name":"Minnesota","lat":43.56312,"lng":-92.73461,"zip":"55909","miles_from_dt":19.73},{"city":"Rochester","state_name":"Minnesota","lat":43.96204,"lng":-92.39931,"zip":"55904","miles_from_dt":19.81},{"city":"McIntire","state_name":"Iowa","lat":43.45695,"lng":-92.64981,"zip":"50455","miles_from_dt":20.52},{"city":"Rochester","state_name":"Minnesota","lat":43.9671,"lng":-92.51584,"zip":"55902","miles_from_dt":21.35},{"city":"Riceville","state_name":"Iowa","lat":43.38782,"lng":-92.53815,"zip":"50466","miles_from_dt":21.54},{"city":"Lanesboro","state_name":"Minnesota","lat":43.71156,"lng":-91.94032,"zip":"55949","miles_from_dt":21.81},{"city":"Sargeant","state_name":"Minnesota","lat":43.80794,"lng":-92.772,"zip":"55973","miles_from_dt":21.96},{"city":"Eyota","state_name":"Minnesota","lat":44.00388,"lng":-92.26573,"zip":"55934","miles_from_dt":23.28},{"city":"Rose Creek","state_name":"Minnesota","lat":43.59681,"lng":-92.83118,"zip":"55970","miles_from_dt":23.61},{"city":"Dover","state_name":"Minnesota","lat":43.97765,"lng":-92.14412,"zip":"55929","miles_from_dt":23.78},{"city":"Brownsdale","state_name":"Minnesota","lat":43.74236,"lng":-92.84673,"zip":"55918","miles_from_dt":24.17},{"city":"Rochester","state_name":"Minnesota","lat":44.02391,"lng":-92.43657,"zip":"55903","miles_from_dt":24.25},{"city":"Cresco","state_name":"Iowa","lat":43.37139,"lng":-92.11289,"zip":"52136","miles_from_dt":24.74},{"city":"Stacyville","state_name":"Iowa","lat":43.4527,"lng":-92.76311,"zip":"50476","miles_from_dt":24.91},{"city":"Canton","state_name":"Minnesota","lat":43.5621,"lng":-91.89562,"zip":"55922","miles_from_dt":25.19},{"city":"Byron","state_name":"Minnesota","lat":44.01246,"lng":-92.62111,"zip":"55920","miles_from_dt":26.35},{"city":"Hayfield","state_name":"Minnesota","lat":43.89417,"lng":-92.80775,"zip":"55940","miles_from_dt":26.47},{"city":"Utica","state_name":"Minnesota","lat":43.92312,"lng":-91.95132,"zip":"55979","miles_from_dt":27.14},{"city":"Little Cedar","state_name":"Iowa","lat":43.38505,"lng":-92.73935,"zip":"50454","miles_from_dt":27.23},{"city":"Saint Charles","state_name":"Minnesota","lat":43.99396,"lng":-92.05092,"zip":"55972","miles_from_dt":27.24},{"city":"Peterson","state_name":"Minnesota","lat":43.76213,"lng":-91.84219,"zip":"55962","miles_from_dt":27.24},{"city":"Rochester","state_name":"Minnesota","lat":44.05595,"lng":-92.52589,"zip":"55905","miles_from_dt":27.34},{"city":"Waltham","state_name":"Minnesota","lat":43.81582,"lng":-92.886,"zip":"55982","miles_from_dt":27.44},{"city":"Kasson","state_name":"Minnesota","lat":43.98754,"lng":-92.73758,"zip":"55944","miles_from_dt":28.21},{"city":"Elma","state_name":"Iowa","lat":43.26655,"lng":-92.39134,"zip":"50628","miles_from_dt":28.26},{"city":"Rochester","state_name":"Minnesota","lat":44.07679,"lng":-92.5018,"zip":"55901","miles_from_dt":28.43},{"city":"Rochester","state_name":"Minnesota","lat":44.10751,"lng":-92.40142,"zip":"55906","miles_from_dt":29.85}],"targetCityZipCode":"55975","targetCityState":"Minnesota"},"__N_SSG":true}