{"pageProps":{"stateName":"Minnesota","cityName":"stewartville","nearbyCities":[{"city":"Racine","state_name":"Minnesota","lat":43.79343,"lng":-92.51354,"zip":"55967","miles_from_dt":5.08},{"city":"Rochester","state_name":"Minnesota","lat":43.9671,"lng":-92.51584,"zip":"55902","miles_from_dt":7.31},{"city":"Rochester","state_name":"Minnesota","lat":43.96204,"lng":-92.39931,"zip":"55904","miles_from_dt":7.99},{"city":"Rochester","state_name":"Minnesota","lat":44.02391,"lng":-92.43657,"zip":"55903","miles_from_dt":11.31},{"city":"Grand Meadow","state_name":"Minnesota","lat":43.70943,"lng":-92.58524,"zip":"55936","miles_from_dt":11.8},{"city":"Byron","state_name":"Minnesota","lat":44.01246,"lng":-92.62111,"zip":"55920","miles_from_dt":12.34},{"city":"Rochester","state_name":"Minnesota","lat":44.05595,"lng":-92.52589,"zip":"55905","miles_from_dt":13.43},{"city":"Dexter","state_name":"Minnesota","lat":43.74279,"lng":-92.70689,"zip":"55926","miles_from_dt":13.93},{"city":"Spring Valley","state_name":"Minnesota","lat":43.67569,"lng":-92.37296,"zip":"55975","miles_from_dt":14.12},{"city":"Eyota","state_name":"Minnesota","lat":44.00388,"lng":-92.26573,"zip":"55934","miles_from_dt":14.56},{"city":"Wykoff","state_name":"Minnesota","lat":43.7285,"lng":-92.2591,"zip":"55990","miles_from_dt":14.62},{"city":"Rochester","state_name":"Minnesota","lat":44.07679,"lng":-92.5018,"zip":"55901","miles_from_dt":14.73},{"city":"Sargeant","state_name":"Minnesota","lat":43.80794,"lng":-92.772,"zip":"55973","miles_from_dt":14.9},{"city":"Chatfield","state_name":"Minnesota","lat":43.8494,"lng":-92.18315,"zip":"55923","miles_from_dt":15.06},{"city":"Kasson","state_name":"Minnesota","lat":43.98754,"lng":-92.73758,"zip":"55944","miles_from_dt":15.27},{"city":"Hayfield","state_name":"Minnesota","lat":43.89417,"lng":-92.80775,"zip":"55940","miles_from_dt":16.31},{"city":"Rochester","state_name":"Minnesota","lat":44.10751,"lng":-92.40142,"zip":"55906","miles_from_dt":17.32},{"city":"Ostrander","state_name":"Minnesota","lat":43.60541,"lng":-92.47544,"zip":"55961","miles_from_dt":17.84},{"city":"Elkton","state_name":"Minnesota","lat":43.64787,"lng":-92.68504,"zip":"55933","miles_from_dt":17.99},{"city":"Dover","state_name":"Minnesota","lat":43.97765,"lng":-92.14412,"zip":"55929","miles_from_dt":18.69},{"city":"Oronoco","state_name":"Minnesota","lat":44.14226,"lng":-92.53564,"zip":"55960","miles_from_dt":19.4},{"city":"Fountain","state_name":"Minnesota","lat":43.74737,"lng":-92.12734,"zip":"55935","miles_from_dt":19.56},{"city":"Brownsdale","state_name":"Minnesota","lat":43.74236,"lng":-92.84673,"zip":"55918","miles_from_dt":19.98},{"city":"Mantorville","state_name":"Minnesota","lat":44.09179,"lng":-92.73985,"zip":"55955","miles_from_dt":20.26},{"city":"Waltham","state_name":"Minnesota","lat":43.81582,"lng":-92.886,"zip":"55982","miles_from_dt":20.36},{"city":"Elgin","state_name":"Minnesota","lat":44.13804,"lng":-92.30081,"zip":"55932","miles_from_dt":21.02},{"city":"Dodge Center","state_name":"Minnesota","lat":44.0335,"lng":-92.87291,"zip":"55927","miles_from_dt":22.67},{"city":"Le Roy","state_name":"Minnesota","lat":43.53529,"lng":-92.48414,"zip":"55951","miles_from_dt":22.68},{"city":"Taopi","state_name":"Minnesota","lat":43.55371,"lng":-92.64792,"zip":"55977","miles_from_dt":22.93},{"city":"Saint Charles","state_name":"Minnesota","lat":43.99396,"lng":-92.05092,"zip":"55972","miles_from_dt":23.4},{"city":"Preston","state_name":"Minnesota","lat":43.62913,"lng":-92.13282,"zip":"55965","miles_from_dt":23.9},{"city":"Pine Island","state_name":"Minnesota","lat":44.18784,"lng":-92.66227,"zip":"55963","miles_from_dt":24.07},{"city":"Adams","state_name":"Minnesota","lat":43.56312,"lng":-92.73461,"zip":"55909","miles_from_dt":24.26},{"city":"Rose Creek","state_name":"Minnesota","lat":43.59681,"lng":-92.83118,"zip":"55970","miles_from_dt":25.34},{"city":"Lansing","state_name":"Minnesota","lat":43.74341,"lng":-92.96618,"zip":"55950","miles_from_dt":25.5},{"city":"Plainview","state_name":"Minnesota","lat":44.16448,"lng":-92.15483,"zip":"55964","miles_from_dt":26.46},{"city":"Utica","state_name":"Minnesota","lat":43.92312,"lng":-91.95132,"zip":"55979","miles_from_dt":26.91},{"city":"Chester","state_name":"Iowa","lat":43.47156,"lng":-92.40078,"zip":"52134","miles_from_dt":27.4},{"city":"Zumbro Falls","state_name":"Minnesota","lat":44.25903,"lng":-92.41986,"zip":"55991","miles_from_dt":27.47},{"city":"Austin","state_name":"Minnesota","lat":43.6827,"lng":-92.99148,"zip":"55912","miles_from_dt":28.3},{"city":"Millville","state_name":"Minnesota","lat":44.25494,"lng":-92.28373,"zip":"55957","miles_from_dt":28.79},{"city":"West Concord","state_name":"Minnesota","lat":44.15669,"lng":-92.90259,"zip":"55985","miles_from_dt":29.05},{"city":"Mazeppa","state_name":"Minnesota","lat":44.28382,"lng":-92.53068,"zip":"55956","miles_from_dt":29.09},{"city":"Lanesboro","state_name":"Minnesota","lat":43.71156,"lng":-91.94032,"zip":"55949","miles_from_dt":29.15},{"city":"Claremont","state_name":"Minnesota","lat":44.0354,"lng":-93.01838,"zip":"55924","miles_from_dt":29.17},{"city":"McIntire","state_name":"Iowa","lat":43.45695,"lng":-92.64981,"zip":"50455","miles_from_dt":29.29},{"city":"Blooming Prairie","state_name":"Minnesota","lat":43.88164,"lng":-93.0716,"zip":"55917","miles_from_dt":29.38},{"city":"Harmony","state_name":"Minnesota","lat":43.54682,"lng":-92.08144,"zip":"55939","miles_from_dt":29.75}],"targetCityZipCode":"55976","targetCityState":"Minnesota"},"__N_SSG":true}