{"pageProps":{"stateName":"Oklahoma","cityName":"allen","nearbyCities":[{"city":"Atwood","state_name":"Oklahoma","lat":34.94101,"lng":-96.34208,"zip":"74827","miles_from_dt":9.93},{"city":"Calvin","state_name":"Oklahoma","lat":34.8777,"lng":-96.24035,"zip":"74531","miles_from_dt":10.48},{"city":"Francis","state_name":"Oklahoma","lat":34.87421,"lng":-96.58869,"zip":"74844","miles_from_dt":11.57},{"city":"Tupelo","state_name":"Oklahoma","lat":34.63831,"lng":-96.42594,"zip":"74572","miles_from_dt":11.63},{"city":"Centrahoma","state_name":"Oklahoma","lat":34.61965,"lng":-96.36634,"zip":"74534","miles_from_dt":13.01},{"city":"Sasakwa","state_name":"Oklahoma","lat":34.96335,"lng":-96.54663,"zip":"74867","miles_from_dt":13.58},{"city":"Ada","state_name":"Oklahoma","lat":34.77708,"lng":-96.67943,"zip":"74821","miles_from_dt":15.86},{"city":"Stonewall","state_name":"Oklahoma","lat":34.59942,"lng":-96.5528,"zip":"74871","miles_from_dt":16.6},{"city":"Stuart","state_name":"Oklahoma","lat":34.86574,"lng":-96.10432,"zip":"74570","miles_from_dt":17.46},{"city":"Ada","state_name":"Oklahoma","lat":34.80691,"lng":-96.71348,"zip":"74820","miles_from_dt":17.66},{"city":"Fittstown","state_name":"Oklahoma","lat":34.6166,"lng":-96.61456,"zip":"74842","miles_from_dt":17.76},{"city":"Coalgate","state_name":"Oklahoma","lat":34.57453,"lng":-96.25575,"zip":"74538","miles_from_dt":18.01},{"city":"Holdenville","state_name":"Oklahoma","lat":35.08197,"lng":-96.34804,"zip":"74848","miles_from_dt":19.28},{"city":"Fitzhugh","state_name":"Oklahoma","lat":34.65763,"lng":-96.7125,"zip":"74843","miles_from_dt":20.37},{"city":"Clarita","state_name":"Oklahoma","lat":34.48384,"lng":-96.44202,"zip":"74535","miles_from_dt":22.31},{"city":"Wardville","state_name":"Oklahoma","lat":34.67046,"lng":-96.04259,"zip":"74576","miles_from_dt":22.52},{"city":"Konawa","state_name":"Oklahoma","lat":34.9846,"lng":-96.73597,"zip":"74849","miles_from_dt":22.58},{"city":"Lehigh","state_name":"Oklahoma","lat":34.46102,"lng":-96.19878,"zip":"74556","miles_from_dt":26.46},{"city":"Bromide","state_name":"Oklahoma","lat":34.42677,"lng":-96.5152,"zip":"74530","miles_from_dt":26.91},{"city":"Roff","state_name":"Oklahoma","lat":34.60599,"lng":-96.80922,"zip":"74865","miles_from_dt":26.93},{"city":"Wewoka","state_name":"Oklahoma","lat":35.18635,"lng":-96.51882,"zip":"74884","miles_from_dt":27.04},{"city":"Lamar","state_name":"Oklahoma","lat":35.11169,"lng":-96.09045,"zip":"74850","miles_from_dt":27.54},{"city":"Bowlegs","state_name":"Oklahoma","lat":35.14452,"lng":-96.66464,"zip":"74830","miles_from_dt":27.67},{"city":"Connerville","state_name":"Oklahoma","lat":34.44436,"lng":-96.62581,"zip":"74836","miles_from_dt":27.97},{"city":"Kiowa","state_name":"Oklahoma","lat":34.70808,"lng":-95.91859,"zip":"74553","miles_from_dt":28.36},{"city":"Maud","state_name":"Oklahoma","lat":35.11527,"lng":-96.762,"zip":"74854","miles_from_dt":29.5}],"targetCityZipCode":"74825","targetCityState":"Oklahoma"},"__N_SSG":true}