{"pageProps":{"stateName":"Oklahoma","cityName":"burns-flat","nearbyCities":[{"city":"Foss","state_name":"Oklahoma","lat":35.44786,"lng":-99.16124,"zip":"73647","miles_from_dt":6.11},{"city":"Dill City","state_name":"Oklahoma","lat":35.26875,"lng":-99.20252,"zip":"73641","miles_from_dt":6.5},{"city":"Canute","state_name":"Oklahoma","lat":35.43965,"lng":-99.27941,"zip":"73626","miles_from_dt":8.2},{"city":"Bessie","state_name":"Oklahoma","lat":35.39518,"lng":-98.99791,"zip":"73622","miles_from_dt":10.12},{"city":"Sentinel","state_name":"Oklahoma","lat":35.17475,"lng":-99.2369,"zip":"73664","miles_from_dt":13.27},{"city":"Elk City","state_name":"Oklahoma","lat":35.40709,"lng":-99.42082,"zip":"73648","miles_from_dt":14.43},{"city":"Elk City","state_name":"Oklahoma","lat":35.40327,"lng":-99.42718,"zip":"73644","miles_from_dt":14.72},{"city":"Rocky","state_name":"Oklahoma","lat":35.17033,"lng":-99.0176,"zip":"73661","miles_from_dt":15.7},{"city":"Clinton","state_name":"Oklahoma","lat":35.49859,"lng":-98.94694,"zip":"73601","miles_from_dt":15.9},{"city":"Cordell","state_name":"Oklahoma","lat":35.27036,"lng":-98.90853,"zip":"73632","miles_from_dt":16.11},{"city":"Carter","state_name":"Oklahoma","lat":35.20169,"lng":-99.45218,"zip":"73627","miles_from_dt":19.23},{"city":"Arapaho","state_name":"Oklahoma","lat":35.61387,"lng":-99.02278,"zip":"73620","miles_from_dt":19.44},{"city":"Corn","state_name":"Oklahoma","lat":35.36608,"lng":-98.81508,"zip":"73024","miles_from_dt":20.16},{"city":"Butler","state_name":"Oklahoma","lat":35.6964,"lng":-99.19698,"zip":"73625","miles_from_dt":23.26},{"city":"Hobart","state_name":"Oklahoma","lat":35.02479,"lng":-99.06957,"zip":"73651","miles_from_dt":23.8},{"city":"Hammon","state_name":"Oklahoma","lat":35.64173,"lng":-99.41729,"zip":"73650","miles_from_dt":23.86},{"city":"Lone Wolf","state_name":"Oklahoma","lat":34.98189,"lng":-99.25267,"zip":"73655","miles_from_dt":26.44},{"city":"Weatherford","state_name":"Oklahoma","lat":35.51305,"lng":-98.7295,"zip":"73096","miles_from_dt":27.11},{"city":"Gotebo","state_name":"Oklahoma","lat":35.03594,"lng":-98.88064,"zip":"73041","miles_from_dt":27.74},{"city":"Sayre","state_name":"Oklahoma","lat":35.31533,"lng":-99.66273,"zip":"73662","miles_from_dt":27.9},{"city":"Custer City","state_name":"Oklahoma","lat":35.72666,"lng":-98.95578,"zip":"73639","miles_from_dt":28.08},{"city":"Colony","state_name":"Oklahoma","lat":35.33802,"lng":-98.67007,"zip":"73021","miles_from_dt":28.38},{"city":"Granite","state_name":"Oklahoma","lat":34.98651,"lng":-99.40507,"zip":"73547","miles_from_dt":28.91}],"targetCityZipCode":"73624","targetCityState":"Oklahoma"},"__N_SSG":true}