{"pageProps":{"stateName":"Oklahoma","cityName":"cheyenne","nearbyCities":[{"city":"Reydon","state_name":"Oklahoma","lat":35.62561,"lng":-99.91688,"zip":"73660","miles_from_dt":12.89},{"city":"Hammon","state_name":"Oklahoma","lat":35.64173,"lng":-99.41729,"zip":"73650","miles_from_dt":15.26},{"city":"Crawford","state_name":"Oklahoma","lat":35.86532,"lng":-99.79059,"zip":"73638","miles_from_dt":17.44},{"city":"Durham","state_name":"Oklahoma","lat":35.81909,"lng":-99.90887,"zip":"73642","miles_from_dt":18.18},{"city":"Sweetwater","state_name":"Oklahoma","lat":35.42036,"lng":-99.92412,"zip":"73666","miles_from_dt":19.49},{"city":"Elk City","state_name":"Oklahoma","lat":35.40327,"lng":-99.42718,"zip":"73644","miles_from_dt":21.29},{"city":"Elk City","state_name":"Oklahoma","lat":35.40709,"lng":-99.42082,"zip":"73648","miles_from_dt":21.35},{"city":"Sayre","state_name":"Oklahoma","lat":35.31533,"lng":-99.66273,"zip":"73662","miles_from_dt":21.51},{"city":"Allison","state_name":"Texas","lat":35.63873,"lng":-100.0881,"zip":"79003","miles_from_dt":22.54},{"city":"Leedey","state_name":"Oklahoma","lat":35.85908,"lng":-99.37483,"zip":"73654","miles_from_dt":23.8},{"city":"Canute","state_name":"Oklahoma","lat":35.43965,"lng":-99.27941,"zip":"73626","miles_from_dt":26.38},{"city":"Butler","state_name":"Oklahoma","lat":35.6964,"lng":-99.19698,"zip":"73625","miles_from_dt":28.03},{"city":"Briscoe","state_name":"Texas","lat":35.63111,"lng":-100.20866,"zip":"79011","miles_from_dt":29.32},{"city":"Arnett","state_name":"Oklahoma","lat":36.05298,"lng":-99.65687,"zip":"73832","miles_from_dt":29.44}],"targetCityZipCode":"73628","targetCityState":"Oklahoma"},"__N_SSG":true}