{"pageProps":{"stateName":"Oklahoma","cityName":"colony","nearbyCities":[{"city":"Eakly","state_name":"Oklahoma","lat":35.30709,"lng":-98.55502,"zip":"73033","miles_from_dt":6.84},{"city":"Corn","state_name":"Oklahoma","lat":35.36608,"lng":-98.81508,"zip":"73024","miles_from_dt":8.42},{"city":"Hydro","state_name":"Oklahoma","lat":35.48929,"lng":-98.55378,"zip":"73048","miles_from_dt":12.32},{"city":"Weatherford","state_name":"Oklahoma","lat":35.51305,"lng":-98.7295,"zip":"73096","miles_from_dt":12.52},{"city":"Cordell","state_name":"Oklahoma","lat":35.27036,"lng":-98.90853,"zip":"73632","miles_from_dt":14.26},{"city":"Lookeba","state_name":"Oklahoma","lat":35.36248,"lng":-98.41841,"zip":"73053","miles_from_dt":14.31},{"city":"Albert","state_name":"Oklahoma","lat":35.2262,"lng":-98.41654,"zip":"73001","miles_from_dt":16.27},{"city":"Binger","state_name":"Oklahoma","lat":35.28544,"lng":-98.37016,"zip":"73009","miles_from_dt":17.33},{"city":"Carnegie","state_name":"Oklahoma","lat":35.07648,"lng":-98.59016,"zip":"73015","miles_from_dt":18.59},{"city":"Bessie","state_name":"Oklahoma","lat":35.39518,"lng":-98.99791,"zip":"73622","miles_from_dt":18.93},{"city":"Clinton","state_name":"Oklahoma","lat":35.49859,"lng":-98.94694,"zip":"73601","miles_from_dt":19.15},{"city":"Fort Cobb","state_name":"Oklahoma","lat":35.1214,"lng":-98.44306,"zip":"73038","miles_from_dt":19.69},{"city":"Mountain View","state_name":"Oklahoma","lat":35.02929,"lng":-98.73478,"zip":"73062","miles_from_dt":21.6},{"city":"Hinton","state_name":"Oklahoma","lat":35.45658,"lng":-98.31553,"zip":"73047","miles_from_dt":21.62},{"city":"Rocky","state_name":"Oklahoma","lat":35.17033,"lng":-99.0176,"zip":"73661","miles_from_dt":22.8},{"city":"Gotebo","state_name":"Oklahoma","lat":35.03594,"lng":-98.88064,"zip":"73041","miles_from_dt":23.99},{"city":"Gracemont","state_name":"Oklahoma","lat":35.23019,"lng":-98.25151,"zip":"73042","miles_from_dt":24.8},{"city":"Geary","state_name":"Oklahoma","lat":35.64442,"lng":-98.37861,"zip":"73040","miles_from_dt":26.76},{"city":"Arapaho","state_name":"Oklahoma","lat":35.61387,"lng":-99.02278,"zip":"73620","miles_from_dt":27.52},{"city":"Burns Flat","state_name":"Oklahoma","lat":35.35969,"lng":-99.1719,"zip":"73624","miles_from_dt":28.38},{"city":"Foss","state_name":"Oklahoma","lat":35.44786,"lng":-99.16124,"zip":"73647","miles_from_dt":28.74},{"city":"Thomas","state_name":"Oklahoma","lat":35.75095,"lng":-98.74281,"zip":"73669","miles_from_dt":28.76}],"targetCityZipCode":"73021","targetCityState":"Oklahoma"},"__N_SSG":true}