{"pageProps":{"stateName":"Oklahoma","cityName":"earlsboro","nearbyCities":[{"city":"Seminole","state_name":"Oklahoma","lat":35.26699,"lng":-96.64193,"zip":"74868","miles_from_dt":7.51},{"city":"Seminole","state_name":"Oklahoma","lat":35.22504,"lng":-96.67054,"zip":"74818","miles_from_dt":7.73},{"city":"Shawnee","state_name":"Oklahoma","lat":35.32536,"lng":-96.92224,"zip":"74802","miles_from_dt":8.91},{"city":"Shawnee","state_name":"Oklahoma","lat":35.39358,"lng":-96.92399,"zip":"74804","miles_from_dt":10.79},{"city":"Shawnee","state_name":"Oklahoma","lat":35.31749,"lng":-96.96824,"zip":"74801","miles_from_dt":11.43},{"city":"Bowlegs","state_name":"Oklahoma","lat":35.14452,"lng":-96.66464,"zip":"74830","miles_from_dt":12.47},{"city":"Maud","state_name":"Oklahoma","lat":35.11527,"lng":-96.762,"zip":"74854","miles_from_dt":13.07},{"city":"Tecumseh","state_name":"Oklahoma","lat":35.22396,"lng":-96.97975,"zip":"74873","miles_from_dt":13.29},{"city":"Prague","state_name":"Oklahoma","lat":35.4921,"lng":-96.70269,"zip":"74864","miles_from_dt":13.4},{"city":"Wewoka","state_name":"Oklahoma","lat":35.18635,"lng":-96.51882,"zip":"74884","miles_from_dt":16.22},{"city":"Meeker","state_name":"Oklahoma","lat":35.51911,"lng":-96.90376,"zip":"74855","miles_from_dt":16.68},{"city":"Saint Louis","state_name":"Oklahoma","lat":35.06647,"lng":-96.84691,"zip":"74866","miles_from_dt":17.05},{"city":"Cromwell","state_name":"Oklahoma","lat":35.34321,"lng":-96.4561,"zip":"74837","miles_from_dt":17.74},{"city":"Macomb","state_name":"Oklahoma","lat":35.12844,"lng":-97.01301,"zip":"74852","miles_from_dt":18.51},{"city":"Paden","state_name":"Oklahoma","lat":35.52788,"lng":-96.56913,"zip":"74860","miles_from_dt":18.98},{"city":"Mcloud","state_name":"Oklahoma","lat":35.42653,"lng":-97.08072,"zip":"74851","miles_from_dt":19.63},{"city":"Sparks","state_name":"Oklahoma","lat":35.59117,"lng":-96.75763,"zip":"74869","miles_from_dt":19.74},{"city":"Asher","state_name":"Oklahoma","lat":35.01735,"lng":-96.90606,"zip":"74826","miles_from_dt":21.34},{"city":"Boley","state_name":"Oklahoma","lat":35.51332,"lng":-96.47392,"zip":"74829","miles_from_dt":21.89},{"city":"Konawa","state_name":"Oklahoma","lat":34.9846,"lng":-96.73597,"zip":"74849","miles_from_dt":22.15},{"city":"Newalla","state_name":"Oklahoma","lat":35.34132,"lng":-97.19576,"zip":"74857","miles_from_dt":24.38},{"city":"Harrah","state_name":"Oklahoma","lat":35.51201,"lng":-97.1414,"zip":"73045","miles_from_dt":25.53},{"city":"Sasakwa","state_name":"Oklahoma","lat":34.96335,"lng":-96.54663,"zip":"74867","miles_from_dt":26.63},{"city":"Wanette","state_name":"Oklahoma","lat":35.00768,"lng":-97.06999,"zip":"74878","miles_from_dt":26.74},{"city":"Okemah","state_name":"Oklahoma","lat":35.46237,"lng":-96.31792,"zip":"74859","miles_from_dt":27.55},{"city":"Castle","state_name":"Oklahoma","lat":35.58262,"lng":-96.41193,"zip":"74833","miles_from_dt":27.69},{"city":"Chandler","state_name":"Oklahoma","lat":35.6961,"lng":-96.87902,"zip":"74834","miles_from_dt":27.71},{"city":"Holdenville","state_name":"Oklahoma","lat":35.08197,"lng":-96.34804,"zip":"74848","miles_from_dt":28.23},{"city":"Davenport","state_name":"Oklahoma","lat":35.72266,"lng":-96.78282,"zip":"74026","miles_from_dt":28.82},{"city":"Norman","state_name":"Oklahoma","lat":35.23433,"lng":-97.2791,"zip":"73026","miles_from_dt":29.39},{"city":"Choctaw","state_name":"Oklahoma","lat":35.45588,"lng":-97.2619,"zip":"73020","miles_from_dt":29.84}],"targetCityZipCode":"74840","targetCityState":"Oklahoma"},"__N_SSG":true}