{"pageProps":{"stateName":"Oklahoma","cityName":"hollis","nearbyCities":[{"city":"Dodson","state_name":"Texas","lat":34.71353,"lng":-100.04878,"zip":"79230","miles_from_dt":8.68},{"city":"Gould","state_name":"Oklahoma","lat":34.65379,"lng":-99.75016,"zip":"73544","miles_from_dt":9.18},{"city":"Vinson","state_name":"Oklahoma","lat":34.9325,"lng":-99.92476,"zip":"73571","miles_from_dt":15.42},{"city":"Duke","state_name":"Oklahoma","lat":34.62768,"lng":-99.59637,"zip":"73532","miles_from_dt":18},{"city":"Mangum","state_name":"Oklahoma","lat":34.85562,"lng":-99.60118,"zip":"73554","miles_from_dt":19.55},{"city":"Samnorwood","state_name":"Texas","lat":34.84146,"lng":-100.20378,"zip":"79077","miles_from_dt":19.69},{"city":"Wellington","state_name":"Texas","lat":34.88485,"lng":-100.19561,"zip":"79095","miles_from_dt":20.85},{"city":"Eldorado","state_name":"Oklahoma","lat":34.46994,"lng":-99.67189,"zip":"73537","miles_from_dt":20.92},{"city":"Willow","state_name":"Oklahoma","lat":35.04649,"lng":-99.63762,"zip":"73673","miles_from_dt":27.45},{"city":"Olustee","state_name":"Oklahoma","lat":34.54307,"lng":-99.45024,"zip":"73560","miles_from_dt":27.9},{"city":"Quanah","state_name":"Texas","lat":34.31001,"lng":-99.80874,"zip":"79252","miles_from_dt":28.03},{"city":"Martha","state_name":"Oklahoma","lat":34.72617,"lng":-99.38673,"zip":"73556","miles_from_dt":29.03}],"targetCityZipCode":"73550","targetCityState":"Oklahoma"},"__N_SSG":true}