{"pageProps":{"stateName":"Oklahoma","cityName":"westville","nearbyCities":[{"city":"Summers","state_name":"Arkansas","lat":36.0347,"lng":-94.49702,"zip":"72769","miles_from_dt":7.68},{"city":"Watts","state_name":"Oklahoma","lat":36.11493,"lng":-94.6665,"zip":"74964","miles_from_dt":8.51},{"city":"Lincoln","state_name":"Arkansas","lat":35.96287,"lng":-94.43851,"zip":"72744","miles_from_dt":10.73},{"city":"Proctor","state_name":"Oklahoma","lat":36.03063,"lng":-94.82065,"zip":"74457","miles_from_dt":11.19},{"city":"Stilwell","state_name":"Oklahoma","lat":35.80995,"lng":-94.65027,"zip":"74960","miles_from_dt":12.91},{"city":"Morrow","state_name":"Arkansas","lat":35.86712,"lng":-94.43932,"zip":"72749","miles_from_dt":13.71},{"city":"Siloam Springs","state_name":"Arkansas","lat":36.17074,"lng":-94.45778,"zip":"72761","miles_from_dt":15.27},{"city":"Canehill","state_name":"Arkansas","lat":35.84054,"lng":-94.42503,"zip":"72717","miles_from_dt":15.54},{"city":"Kansas","state_name":"Oklahoma","lat":36.19573,"lng":-94.78525,"zip":"74347","miles_from_dt":16.41},{"city":"Evansville","state_name":"Arkansas","lat":35.78992,"lng":-94.46338,"zip":"72729","miles_from_dt":16.87},{"city":"Prairie Grove","state_name":"Arkansas","lat":35.93477,"lng":-94.32607,"zip":"72753","miles_from_dt":17.31},{"city":"Oaks","state_name":"Oklahoma","lat":36.16846,"lng":-94.85218,"zip":"74359","miles_from_dt":17.38},{"city":"Welling","state_name":"Oklahoma","lat":35.82749,"lng":-94.86454,"zip":"74471","miles_from_dt":17.74},{"city":"Moodys","state_name":"Oklahoma","lat":36.02852,"lng":-94.95576,"zip":"74444","miles_from_dt":18.63},{"city":"Colcord","state_name":"Oklahoma","lat":36.26234,"lng":-94.71572,"zip":"74338","miles_from_dt":19.04},{"city":"Twin Oaks","state_name":"Oklahoma","lat":36.20725,"lng":-94.84822,"zip":"74368","miles_from_dt":19.17},{"city":"Tahlequah","state_name":"Oklahoma","lat":35.94419,"lng":-94.97365,"zip":"74464","miles_from_dt":19.84},{"city":"Fayetteville","state_name":"Arkansas","lat":36.10475,"lng":-94.29539,"zip":"72704","miles_from_dt":19.95},{"city":"Farmington","state_name":"Arkansas","lat":36.03057,"lng":-94.26588,"zip":"72730","miles_from_dt":20.29},{"city":"Tahlequah","state_name":"Oklahoma","lat":35.90613,"lng":-94.98553,"zip":"74465","miles_from_dt":21.11},{"city":"Gentry","state_name":"Arkansas","lat":36.27217,"lng":-94.45355,"zip":"72734","miles_from_dt":21.33},{"city":"Bunch","state_name":"Oklahoma","lat":35.69226,"lng":-94.76459,"zip":"74931","miles_from_dt":22.35},{"city":"Natural Dam","state_name":"Arkansas","lat":35.70692,"lng":-94.4154,"zip":"72948","miles_from_dt":23.16},{"city":"Rose","state_name":"Oklahoma","lat":36.19915,"lng":-94.95683,"zip":"74364","miles_from_dt":23.23},{"city":"West Fork","state_name":"Arkansas","lat":35.87777,"lng":-94.21533,"zip":"72774","miles_from_dt":24.4},{"city":"Greenland","state_name":"Arkansas","lat":35.99447,"lng":-94.17441,"zip":"72737","miles_from_dt":25.28},{"city":"Decatur","state_name":"Arkansas","lat":36.34042,"lng":-94.46397,"zip":"72722","miles_from_dt":25.4},{"city":"Springdale","state_name":"Arkansas","lat":36.18747,"lng":-94.22794,"zip":"72762","miles_from_dt":25.87},{"city":"Tontitown","state_name":"Arkansas","lat":36.18797,"lng":-94.22779,"zip":"72770","miles_from_dt":25.89},{"city":"Maysville","state_name":"Arkansas","lat":36.37023,"lng":-94.5807,"zip":"72747","miles_from_dt":25.92},{"city":"Peggs","state_name":"Oklahoma","lat":36.12137,"lng":-95.06829,"zip":"74452","miles_from_dt":26.25},{"city":"Fayetteville","state_name":"Arkansas","lat":36.06307,"lng":-94.16246,"zip":"72702","miles_from_dt":26.34},{"city":"Elm Springs","state_name":"Arkansas","lat":36.20539,"lng":-94.23169,"zip":"72728","miles_from_dt":26.34},{"city":"Cookson","state_name":"Oklahoma","lat":35.68638,"lng":-94.91056,"zip":"74427","miles_from_dt":26.68},{"city":"Johnson","state_name":"Arkansas","lat":36.12914,"lng":-94.16412,"zip":"72741","miles_from_dt":27.41},{"city":"Park Hill","state_name":"Oklahoma","lat":35.72886,"lng":-95.00166,"zip":"74451","miles_from_dt":28.02},{"city":"Bentonville","state_name":"Arkansas","lat":36.30036,"lng":-94.28372,"zip":"72713","miles_from_dt":28.38},{"city":"Uniontown","state_name":"Arkansas","lat":35.6081,"lng":-94.44445,"zip":"72955","miles_from_dt":28.62},{"city":"Chester","state_name":"Arkansas","lat":35.68957,"lng":-94.2703,"zip":"72934","miles_from_dt":29.05},{"city":"Cave Springs","state_name":"Arkansas","lat":36.26347,"lng":-94.22147,"zip":"72718","miles_from_dt":29.17},{"city":"Hulbert","state_name":"Oklahoma","lat":35.97458,"lng":-95.14613,"zip":"74441","miles_from_dt":29.21}],"targetCityZipCode":"74965","targetCityState":"Oklahoma"},"__N_SSG":true}