{"pageProps":{"stateName":"Wyoming","cityName":"glendo","nearbyCities":[{"city":"Hartville","state_name":"Wyoming","lat":42.39738,"lng":-104.71507,"zip":"82215","miles_from_dt":16.57},{"city":"Manville","state_name":"Wyoming","lat":42.72083,"lng":-104.72875,"zip":"82227","miles_from_dt":20.7},{"city":"Guernsey","state_name":"Wyoming","lat":42.26421,"lng":-104.75104,"zip":"82214","miles_from_dt":21},{"city":"Shawnee","state_name":"Wyoming","lat":42.85613,"lng":-104.9863,"zip":"82229","miles_from_dt":24.46},{"city":"Jay Em","state_name":"Wyoming","lat":42.4973,"lng":-104.50627,"zip":"82219","miles_from_dt":25.56},{"city":"Fort Laramie","state_name":"Wyoming","lat":42.26126,"lng":-104.51995,"zip":"82212","miles_from_dt":29.95}],"targetCityZipCode":"82213","targetCityState":"Wyoming"},"__N_SSG":true}