{"pageProps":{"stateName":"Pennsylvania","cityName":"burnham","nearbyCities":[{"city":"Yeagertown","state_name":"Pennsylvania","lat":40.64535,"lng":-77.57639,"zip":"17099","miles_from_dt":0.85},{"city":"Lewistown","state_name":"Pennsylvania","lat":40.58236,"lng":-77.59013,"zip":"17044","miles_from_dt":3.9},{"city":"Reedsville","state_name":"Pennsylvania","lat":40.68705,"lng":-77.62692,"zip":"17084","miles_from_dt":4.76},{"city":"Granville","state_name":"Pennsylvania","lat":40.55416,"lng":-77.62196,"zip":"17029","miles_from_dt":6.36},{"city":"Belleville","state_name":"Pennsylvania","lat":40.59966,"lng":-77.73278,"zip":"17004","miles_from_dt":9.11},{"city":"Mifflin","state_name":"Pennsylvania","lat":40.50111,"lng":-77.54792,"zip":"17058","miles_from_dt":9.35},{"city":"Milroy","state_name":"Pennsylvania","lat":40.76274,"lng":-77.47343,"zip":"17063","miles_from_dt":10.01},{"city":"Mifflintown","state_name":"Pennsylvania","lat":40.59241,"lng":-77.38165,"zip":"17059","miles_from_dt":10.15},{"city":"Port Royal","state_name":"Pennsylvania","lat":40.49762,"lng":-77.42579,"zip":"17082","miles_from_dt":12.06},{"city":"McClure","state_name":"Pennsylvania","lat":40.72455,"lng":-77.35888,"zip":"17841","miles_from_dt":12.49},{"city":"Mattawana","state_name":"Pennsylvania","lat":40.49746,"lng":-77.72764,"zip":"17054","miles_from_dt":12.79},{"city":"Mexico","state_name":"Pennsylvania","lat":40.53349,"lng":-77.35585,"zip":"17056","miles_from_dt":13.12},{"city":"Centre Hall","state_name":"Pennsylvania","lat":40.80704,"lng":-77.69097,"zip":"16828","miles_from_dt":13.51},{"city":"Oakland Mills","state_name":"Pennsylvania","lat":40.62084,"lng":-77.30758,"zip":"17076","miles_from_dt":13.63},{"city":"Boalsburg","state_name":"Pennsylvania","lat":40.76607,"lng":-77.77739,"zip":"16827","miles_from_dt":14.28},{"city":"Spring Mills","state_name":"Pennsylvania","lat":40.84536,"lng":-77.56882,"zip":"16875","miles_from_dt":14.45},{"city":"Honey Grove","state_name":"Pennsylvania","lat":40.41638,"lng":-77.57443,"zip":"17035","miles_from_dt":15.15},{"city":"Ickesburg","state_name":"Pennsylvania","lat":40.43329,"lng":-77.42872,"zip":"17037","miles_from_dt":15.74},{"city":"Coburn","state_name":"Pennsylvania","lat":40.84711,"lng":-77.4347,"zip":"16832","miles_from_dt":16.12},{"city":"McAlisterville","state_name":"Pennsylvania","lat":40.65172,"lng":-77.25948,"zip":"17049","miles_from_dt":16.15},{"city":"McVeytown","state_name":"Pennsylvania","lat":40.45881,"lng":-77.77306,"zip":"17051","miles_from_dt":16.37},{"city":"Lemont","state_name":"Pennsylvania","lat":40.81229,"lng":-77.80132,"zip":"16851","miles_from_dt":17.34},{"city":"State College","state_name":"Pennsylvania","lat":40.78538,"lng":-77.84214,"zip":"16801","miles_from_dt":17.79},{"city":"Petersburg","state_name":"Pennsylvania","lat":40.65737,"lng":-77.90675,"zip":"16669","miles_from_dt":17.97},{"city":"Pine Grove Mills","state_name":"Pennsylvania","lat":40.72725,"lng":-77.89066,"zip":"16868","miles_from_dt":18.18},{"city":"Beaver Springs","state_name":"Pennsylvania","lat":40.76172,"lng":-77.25674,"zip":"17843","miles_from_dt":18.42},{"city":"Beaver Springs","state_name":"Pennsylvania","lat":40.73626,"lng":-77.23641,"zip":"17812","miles_from_dt":18.65},{"city":"Millheim","state_name":"Pennsylvania","lat":40.89697,"lng":-77.47228,"zip":"16854","miles_from_dt":18.67},{"city":"Thompsontown","state_name":"Pennsylvania","lat":40.58414,"lng":-77.2168,"zip":"17094","miles_from_dt":18.71},{"city":"State College","state_name":"Pennsylvania","lat":40.79192,"lng":-77.86099,"zip":"16805","miles_from_dt":18.86},{"city":"State College","state_name":"Pennsylvania","lat":40.79203,"lng":-77.86109,"zip":"16804","miles_from_dt":18.87},{"city":"University Park","state_name":"Pennsylvania","lat":40.79867,"lng":-77.86481,"zip":"16802","miles_from_dt":19.29},{"city":"Mill Creek","state_name":"Pennsylvania","lat":40.49144,"lng":-77.88158,"zip":"17060","miles_from_dt":19.36},{"city":"Cocolamus","state_name":"Pennsylvania","lat":40.6596,"lng":-77.19358,"zip":"17014","miles_from_dt":19.65},{"city":"Allensville","state_name":"Pennsylvania","lat":40.46463,"lng":-77.86761,"zip":"17002","miles_from_dt":19.79},{"city":"Loysville","state_name":"Pennsylvania","lat":40.37098,"lng":-77.41426,"zip":"17047","miles_from_dt":19.95},{"city":"Elliottsburg","state_name":"Pennsylvania","lat":40.40992,"lng":-77.30854,"zip":"17024","miles_from_dt":20.66},{"city":"Mingoville","state_name":"Pennsylvania","lat":40.92871,"lng":-77.65005,"zip":"16856","miles_from_dt":20.68},{"city":"Madisonburg","state_name":"Pennsylvania","lat":40.93639,"lng":-77.5386,"zip":"16852","miles_from_dt":20.78},{"city":"State College","state_name":"Pennsylvania","lat":40.80849,"lng":-77.89449,"zip":"16803","miles_from_dt":20.95},{"city":"East Waterford","state_name":"Pennsylvania","lat":40.33758,"lng":-77.66093,"zip":"17021","miles_from_dt":21.18},{"city":"Pennsylvania Furnace","state_name":"Pennsylvania","lat":40.72086,"lng":-77.96396,"zip":"16865","miles_from_dt":21.71},{"city":"Aaronsburg","state_name":"Pennsylvania","lat":40.91995,"lng":-77.38702,"zip":"16820","miles_from_dt":21.73},{"city":"Millerstown","state_name":"Pennsylvania","lat":40.55153,"lng":-77.16813,"zip":"17062","miles_from_dt":21.73},{"city":"Weikert","state_name":"Pennsylvania","lat":40.87042,"lng":-77.28941,"zip":"17885","miles_from_dt":21.74},{"city":"Newton Hamilton","state_name":"Pennsylvania","lat":40.39372,"lng":-77.83429,"zip":"17075","miles_from_dt":21.88},{"city":"Huntingdon","state_name":"Pennsylvania","lat":40.51692,"lng":-77.95302,"zip":"16652","miles_from_dt":21.95},{"city":"Troxelville","state_name":"Pennsylvania","lat":40.80301,"lng":-77.20565,"zip":"17882","miles_from_dt":22.16},{"city":"Woodward","state_name":"Pennsylvania","lat":40.90707,"lng":-77.33841,"zip":"16882","miles_from_dt":22.2},{"city":"Bellefonte","state_name":"Pennsylvania","lat":40.92734,"lng":-77.76685,"zip":"16823","miles_from_dt":22.7},{"city":"Beavertown","state_name":"Pennsylvania","lat":40.78505,"lng":-77.1772,"zip":"17813","miles_from_dt":22.87},{"city":"New Germantown","state_name":"Pennsylvania","lat":40.30061,"lng":-77.58928,"zip":"17071","miles_from_dt":23.17},{"city":"Richfield","state_name":"Pennsylvania","lat":40.69067,"lng":-77.12502,"zip":"17086","miles_from_dt":23.48},{"city":"Milesburg","state_name":"Pennsylvania","lat":40.94045,"lng":-77.78638,"zip":"16853","miles_from_dt":23.98},{"city":"Blain","state_name":"Pennsylvania","lat":40.28495,"lng":-77.54364,"zip":"17006","miles_from_dt":24.24},{"city":"Mount Union","state_name":"Pennsylvania","lat":40.35885,"lng":-77.85892,"zip":"17066","miles_from_dt":24.56},{"city":"Newport","state_name":"Pennsylvania","lat":40.47983,"lng":-77.14456,"zip":"17074","miles_from_dt":24.66},{"city":"Fleming","state_name":"Pennsylvania","lat":40.90668,"lng":-77.87731,"zip":"16835","miles_from_dt":24.81},{"city":"Millmont","state_name":"Pennsylvania","lat":40.88308,"lng":-77.21628,"zip":"17845","miles_from_dt":25.06},{"city":"Rebersburg","state_name":"Pennsylvania","lat":40.96715,"lng":-77.35939,"zip":"16872","miles_from_dt":25.3},{"city":"Landisburg","state_name":"Pennsylvania","lat":40.31558,"lng":-77.32571,"zip":"17040","miles_from_dt":25.47},{"city":"Laurelton","state_name":"Pennsylvania","lat":40.88365,"lng":-77.19795,"zip":"17835","miles_from_dt":25.79},{"city":"New Bloomfield","state_name":"Pennsylvania","lat":40.40685,"lng":-77.17795,"zip":"17068","miles_from_dt":25.84},{"city":"Lamar","state_name":"Pennsylvania","lat":41.01247,"lng":-77.53455,"zip":"16848","miles_from_dt":26.04},{"city":"Huntingdon","state_name":"Pennsylvania","lat":40.49189,"lng":-78.02854,"zip":"16654","miles_from_dt":26.29},{"city":"Spruce Creek","state_name":"Pennsylvania","lat":40.65595,"lng":-78.07313,"zip":"16683","miles_from_dt":26.68},{"city":"Julian","state_name":"Pennsylvania","lat":40.91285,"lng":-77.93261,"zip":"16844","miles_from_dt":27.11},{"city":"Warriors Mark","state_name":"Pennsylvania","lat":40.73291,"lng":-78.06846,"zip":"16877","miles_from_dt":27.22},{"city":"Paxtonville","state_name":"Pennsylvania","lat":40.77361,"lng":-77.0788,"zip":"17861","miles_from_dt":27.3},{"city":"Orbisonia","state_name":"Pennsylvania","lat":40.28368,"lng":-77.81484,"zip":"17243","miles_from_dt":27.61},{"city":"Port Matilda","state_name":"Pennsylvania","lat":40.80149,"lng":-78.04969,"zip":"16870","miles_from_dt":27.84},{"city":"Howard","state_name":"Pennsylvania","lat":41.03399,"lng":-77.69011,"zip":"16841","miles_from_dt":28.23},{"city":"Hartleton","state_name":"Pennsylvania","lat":40.90057,"lng":-77.15546,"zip":"17829","miles_from_dt":28.24},{"city":"Blairs Mills","state_name":"Pennsylvania","lat":40.25381,"lng":-77.77249,"zip":"17213","miles_from_dt":28.52},{"city":"Alexandria","state_name":"Pennsylvania","lat":40.56719,"lng":-78.10214,"zip":"16611","miles_from_dt":28.59},{"city":"Concord","state_name":"Pennsylvania","lat":40.23822,"lng":-77.72235,"zip":"17217","miles_from_dt":28.65},{"city":"Shirleysburg","state_name":"Pennsylvania","lat":40.2977,"lng":-77.89489,"zip":"17260","miles_from_dt":29.07},{"city":"McConnellstown","state_name":"Pennsylvania","lat":40.46214,"lng":-78.07009,"zip":"16660","miles_from_dt":29.11},{"city":"Swengel","state_name":"Pennsylvania","lat":40.89109,"lng":-77.12383,"zip":"17880","miles_from_dt":29.13},{"city":"Doylesburg","state_name":"Pennsylvania","lat":40.22367,"lng":-77.69318,"zip":"17219","miles_from_dt":29.22},{"city":"Shermans Dale","state_name":"Pennsylvania","lat":40.32953,"lng":-77.18302,"zip":"17090","miles_from_dt":29.23},{"city":"Mackeyville","state_name":"Pennsylvania","lat":41.05517,"lng":-77.47805,"zip":"17750","miles_from_dt":29.3},{"city":"Mount Pleasant Mills","state_name":"Pennsylvania","lat":40.69212,"lng":-77.01254,"zip":"17853","miles_from_dt":29.34},{"city":"Blanchard","state_name":"Pennsylvania","lat":41.06199,"lng":-77.58598,"zip":"16826","miles_from_dt":29.42},{"city":"Liverpool","state_name":"Pennsylvania","lat":40.58841,"lng":-77.00389,"zip":"17045","miles_from_dt":29.74},{"city":"Middleburg","state_name":"Pennsylvania","lat":40.80389,"lng":-77.04329,"zip":"17842","miles_from_dt":29.79}],"targetCityZipCode":"17009","targetCityState":"Pennsylvania"},"__N_SSG":true}