{"pageProps":{"stateName":"West-virginia","cityName":"beaver","nearbyCities":[{"city":"Piney View","state_name":"West Virginia","lat":37.83176,"lng":-81.12194,"zip":"25906","miles_from_dt":3.56},{"city":"Daniels","state_name":"West Virginia","lat":37.72637,"lng":-81.10494,"zip":"25832","miles_from_dt":3.92},{"city":"Lanark","state_name":"West Virginia","lat":37.82703,"lng":-81.14653,"zip":"25860","miles_from_dt":3.96},{"city":"Stanaford","state_name":"West Virginia","lat":37.81734,"lng":-81.16138,"zip":"25927","miles_from_dt":4.11},{"city":"Skelton","state_name":"West Virginia","lat":37.79607,"lng":-81.18216,"zip":"25919","miles_from_dt":4.58},{"city":"Raleigh","state_name":"West Virginia","lat":37.75232,"lng":-81.17848,"zip":"25911","miles_from_dt":4.79},{"city":"Prince","state_name":"West Virginia","lat":37.8593,"lng":-81.07196,"zip":"25907","miles_from_dt":5.48},{"city":"Shady Spring","state_name":"West Virginia","lat":37.74575,"lng":-81.00993,"zip":"25918","miles_from_dt":5.56},{"city":"Mabscott","state_name":"West Virginia","lat":37.76917,"lng":-81.21165,"zip":"25871","miles_from_dt":6.19},{"city":"Beckley","state_name":"West Virginia","lat":37.79333,"lng":-81.21961,"zip":"25802","miles_from_dt":6.58},{"city":"MacArthur","state_name":"West Virginia","lat":37.75136,"lng":-81.21515,"zip":"25873","miles_from_dt":6.67},{"city":"Prosperity","state_name":"West Virginia","lat":37.83687,"lng":-81.20192,"zip":"25909","miles_from_dt":6.7},{"city":"Bradley","state_name":"West Virginia","lat":37.8608,"lng":-81.19252,"zip":"25818","miles_from_dt":7.37},{"city":"White Oak","state_name":"West Virginia","lat":37.67864,"lng":-81.04594,"zip":"25989","miles_from_dt":7.79},{"city":"Layland","state_name":"West Virginia","lat":37.87948,"lng":-81.01781,"zip":"25864","miles_from_dt":8.03},{"city":"Midway","state_name":"West Virginia","lat":37.71303,"lng":-81.22464,"zip":"25878","miles_from_dt":8.36},{"city":"Mount Hope","state_name":"West Virginia","lat":37.87672,"lng":-81.20095,"zip":"25880","miles_from_dt":8.5},{"city":"Harper","state_name":"West Virginia","lat":37.80177,"lng":-81.26154,"zip":"25851","miles_from_dt":8.93},{"city":"Crab Orchard","state_name":"West Virginia","lat":37.73869,"lng":-81.25368,"zip":"25827","miles_from_dt":8.95},{"city":"Coal City","state_name":"West Virginia","lat":37.66626,"lng":-81.18231,"zip":"25823","miles_from_dt":9.23},{"city":"Cool Ridge","state_name":"West Virginia","lat":37.64736,"lng":-81.08862,"zip":"25825","miles_from_dt":9.38},{"city":"Mount Hope","state_name":"West Virginia","lat":37.90059,"lng":-81.18946,"zip":"25888","miles_from_dt":9.47},{"city":"Eccles","state_name":"West Virginia","lat":37.78693,"lng":-81.27804,"zip":"25836","miles_from_dt":9.75},{"city":"Beckley","state_name":"West Virginia","lat":37.83805,"lng":-81.27017,"zip":"25801","miles_from_dt":10.05},{"city":"Glen White","state_name":"West Virginia","lat":37.73175,"lng":-81.27799,"zip":"25849","miles_from_dt":10.37},{"city":"Glen Jean","state_name":"West Virginia","lat":37.92476,"lng":-81.16628,"zip":"25846","miles_from_dt":10.42},{"city":"Oak Hill","state_name":"West Virginia","lat":37.93575,"lng":-81.11242,"zip":"25901","miles_from_dt":10.55},{"city":"Sophia","state_name":"West Virginia","lat":37.69181,"lng":-81.25882,"zip":"25921","miles_from_dt":10.74},{"city":"Thurmond","state_name":"West Virginia","lat":37.92917,"lng":-81.03105,"zip":"25936","miles_from_dt":10.76},{"city":"Meadow Creek","state_name":"West Virginia","lat":37.80819,"lng":-80.90571,"zip":"25977","miles_from_dt":10.77},{"city":"Princewick","state_name":"West Virginia","lat":37.66782,"lng":-81.24434,"zip":"25908","miles_from_dt":11.21},{"city":"Hilltop","state_name":"West Virginia","lat":37.94052,"lng":-81.15296,"zip":"25855","miles_from_dt":11.24},{"city":"Surveyor","state_name":"West Virginia","lat":37.75623,"lng":-81.30282,"zip":"25932","miles_from_dt":11.26},{"city":"Ghent","state_name":"West Virginia","lat":37.62129,"lng":-81.14129,"zip":"25843","miles_from_dt":11.39},{"city":"Pax","state_name":"West Virginia","lat":37.9128,"lng":-81.25213,"zip":"25904","miles_from_dt":12.22},{"city":"Jumping Branch","state_name":"West Virginia","lat":37.61657,"lng":-81.00903,"zip":"25969","miles_from_dt":12.52},{"city":"Helen","state_name":"West Virginia","lat":37.64616,"lng":-81.27827,"zip":"25853","miles_from_dt":13.59},{"city":"Minden","state_name":"West Virginia","lat":37.98048,"lng":-81.10453,"zip":"25879","miles_from_dt":13.62},{"city":"Meadow Bridge","state_name":"West Virginia","lat":37.84372,"lng":-80.86221,"zip":"25976","miles_from_dt":13.67},{"city":"Josephine","state_name":"West Virginia","lat":37.61443,"lng":-81.23288,"zip":"25857","miles_from_dt":13.72},{"city":"Nimitz","state_name":"West Virginia","lat":37.62861,"lng":-80.94138,"zip":"25978","miles_from_dt":13.75},{"city":"Lester","state_name":"West Virginia","lat":37.73076,"lng":-81.35212,"zip":"25865","miles_from_dt":14.27},{"city":"Slab Fork","state_name":"West Virginia","lat":37.68646,"lng":-81.33661,"zip":"25920","miles_from_dt":14.57},{"city":"Danese","state_name":"West Virginia","lat":37.95645,"lng":-80.94037,"zip":"25831","miles_from_dt":14.8},{"city":"Sandstone","state_name":"West Virginia","lat":37.75752,"lng":-80.83044,"zip":"25985","miles_from_dt":14.86},{"city":"Glen Daniel","state_name":"West Virginia","lat":37.81056,"lng":-81.37022,"zip":"25844","miles_from_dt":14.91},{"city":"Clear Creek","state_name":"West Virginia","lat":37.91139,"lng":-81.32118,"zip":"25044","miles_from_dt":14.99},{"city":"Hinton","state_name":"West Virginia","lat":37.65535,"lng":-80.87197,"zip":"25951","miles_from_dt":15.29},{"city":"Rhodell","state_name":"West Virginia","lat":37.61575,"lng":-81.28691,"zip":"25915","miles_from_dt":15.43},{"city":"Fairdale","state_name":"West Virginia","lat":37.78091,"lng":-81.38228,"zip":"25839","miles_from_dt":15.45},{"city":"Dothan","state_name":"West Virginia","lat":37.98955,"lng":-81.21248,"zip":"25833","miles_from_dt":15.51},{"city":"Scarbro","state_name":"West Virginia","lat":37.97944,"lng":-81.25021,"zip":"25917","miles_from_dt":15.84},{"city":"Flat Top","state_name":"West Virginia","lat":37.55325,"lng":-81.09061,"zip":"25841","miles_from_dt":15.86},{"city":"Lochgelly","state_name":"West Virginia","lat":38.00883,"lng":-81.15738,"zip":"25866","miles_from_dt":15.88},{"city":"Odd","state_name":"West Virginia","lat":37.56301,"lng":-81.21115,"zip":"25902","miles_from_dt":16.36},{"city":"Amigo","state_name":"West Virginia","lat":37.60835,"lng":-81.3065,"zip":"25811","miles_from_dt":16.53},{"city":"Spring Dale","state_name":"West Virginia","lat":37.89395,"lng":-80.81741,"zip":"25986","miles_from_dt":17.24},{"city":"Bolt","state_name":"West Virginia","lat":37.76393,"lng":-81.42191,"zip":"25817","miles_from_dt":17.67},{"city":"Fayetteville","state_name":"West Virginia","lat":38.04001,"lng":-81.11442,"zip":"25840","miles_from_dt":17.74},{"city":"Winona","state_name":"West Virginia","lat":38.02691,"lng":-80.98836,"zip":"25942","miles_from_dt":17.89},{"city":"Rock Creek","state_name":"West Virginia","lat":37.86115,"lng":-81.41376,"zip":"25174","miles_from_dt":17.99},{"city":"Arnett","state_name":"West Virginia","lat":37.8252,"lng":-81.42766,"zip":"25007","miles_from_dt":18.16},{"city":"Artie","state_name":"West Virginia","lat":37.95044,"lng":-81.35766,"zip":"25008","miles_from_dt":18.21},{"city":"Saxon","state_name":"West Virginia","lat":37.78961,"lng":-81.43316,"zip":"25180","miles_from_dt":18.24},{"city":"Green Sulphur Springs","state_name":"West Virginia","lat":37.7975,"lng":-80.76729,"zip":"25966","miles_from_dt":18.24},{"city":"Maben","state_name":"West Virginia","lat":37.63931,"lng":-81.3813,"zip":"25870","miles_from_dt":18.33},{"city":"Glen Rogers","state_name":"West Virginia","lat":37.71427,"lng":-81.43117,"zip":"25848","miles_from_dt":18.75},{"city":"Wyco","state_name":"West Virginia","lat":37.59657,"lng":-81.34914,"zip":"25943","miles_from_dt":18.76},{"city":"Camp Creek","state_name":"West Virginia","lat":37.50812,"lng":-81.13549,"zip":"25820","miles_from_dt":19.06},{"city":"Page","state_name":"West Virginia","lat":38.0411,"lng":-81.24004,"zip":"25152","miles_from_dt":19.37},{"city":"Allen Junction","state_name":"West Virginia","lat":37.58355,"lng":-81.34953,"zip":"25810","miles_from_dt":19.4},{"city":"Edmond","state_name":"West Virginia","lat":38.06041,"lng":-81.0383,"zip":"25837","miles_from_dt":19.42},{"city":"Kincaid","state_name":"West Virginia","lat":38.03362,"lng":-81.27494,"zip":"25119","miles_from_dt":19.75},{"city":"Dry Creek","state_name":"West Virginia","lat":37.87549,"lng":-81.44411,"zip":"25062","miles_from_dt":19.87},{"city":"Rainelle","state_name":"West Virginia","lat":37.97044,"lng":-80.8098,"zip":"25962","miles_from_dt":20.46},{"city":"Mullens","state_name":"West Virginia","lat":37.60359,"lng":-81.39892,"zip":"25882","miles_from_dt":20.53},{"city":"Corinne","state_name":"West Virginia","lat":37.57291,"lng":-81.36565,"zip":"25826","miles_from_dt":20.55},{"city":"Stephenson","state_name":"West Virginia","lat":37.55481,"lng":-81.34126,"zip":"25928","miles_from_dt":20.56},{"city":"Grassy Meadows","state_name":"West Virginia","lat":37.83632,"lng":-80.72709,"zip":"24943","miles_from_dt":20.73},{"city":"Lansing","state_name":"West Virginia","lat":38.08448,"lng":-81.05192,"zip":"25862","miles_from_dt":20.95},{"city":"Ravencliff","state_name":"West Virginia","lat":37.70781,"lng":-81.47301,"zip":"25913","miles_from_dt":21.08},{"city":"Robson","state_name":"West Virginia","lat":38.07519,"lng":-81.21898,"zip":"25173","miles_from_dt":21.17},{"city":"Pipestem","state_name":"West Virginia","lat":37.5126,"lng":-80.91736,"zip":"25979","miles_from_dt":21.17},{"city":"McGraws","state_name":"West Virginia","lat":37.66907,"lng":-81.45956,"zip":"25875","miles_from_dt":21.21},{"city":"Lookout","state_name":"West Virginia","lat":38.07172,"lng":-80.96461,"zip":"25868","miles_from_dt":21.24},{"city":"Spanishburg","state_name":"West Virginia","lat":37.47147,"lng":-81.09966,"zip":"25922","miles_from_dt":21.49},{"city":"Saulsville","state_name":"West Virginia","lat":37.63677,"lng":-81.44731,"zip":"25876","miles_from_dt":21.54},{"city":"Beeson","state_name":"West Virginia","lat":37.47627,"lng":-81.18352,"zip":"24714","miles_from_dt":21.65},{"city":"Lerona","state_name":"West Virginia","lat":37.48001,"lng":-80.97821,"zip":"25971","miles_from_dt":21.94},{"city":"Athens","state_name":"West Virginia","lat":37.46903,"lng":-81.02029,"zip":"24712","miles_from_dt":22.1},{"city":"Forest Hill","state_name":"West Virginia","lat":37.56362,"lng":-80.80344,"zip":"24935","miles_from_dt":22.21},{"city":"Talcott","state_name":"West Virginia","lat":37.63256,"lng":-80.73968,"zip":"24981","miles_from_dt":22.31},{"city":"Colcord","state_name":"West Virginia","lat":37.95442,"lng":-81.44656,"zip":"25048","miles_from_dt":22.33},{"city":"Pence Springs","state_name":"West Virginia","lat":37.66029,"lng":-80.72041,"zip":"24962","miles_from_dt":22.45},{"city":"Naoma","state_name":"West Virginia","lat":37.86738,"lng":-81.49733,"zip":"25140","miles_from_dt":22.5},{"city":"Itmann","state_name":"West Virginia","lat":37.57339,"lng":-81.41455,"zip":"24847","miles_from_dt":22.5},{"city":"Sabine","state_name":"West Virginia","lat":37.67818,"lng":-81.49019,"zip":"25916","miles_from_dt":22.56},{"city":"Powellton","state_name":"West Virginia","lat":38.06123,"lng":-81.3189,"zip":"25161","miles_from_dt":22.61},{"city":"Bud","state_name":"West Virginia","lat":37.53331,"lng":-81.37337,"zip":"24716","miles_from_dt":22.83},{"city":"New Richmond","state_name":"West Virginia","lat":37.60432,"lng":-81.45261,"zip":"24867","miles_from_dt":22.92},{"city":"Glen Fork","state_name":"West Virginia","lat":37.70291,"lng":-81.51107,"zip":"25845","miles_from_dt":23.18},{"city":"Herndon","state_name":"West Virginia","lat":37.52084,"lng":-81.37229,"zip":"24726","miles_from_dt":23.45},{"city":"Deep Water","state_name":"West Virginia","lat":38.1078,"lng":-81.23783,"zip":"25057","miles_from_dt":23.63},{"city":"Lashmeet","state_name":"West Virginia","lat":37.44986,"lng":-81.20094,"zip":"24733","miles_from_dt":23.64},{"city":"Alderson","state_name":"West Virginia","lat":37.74173,"lng":-80.66835,"zip":"24910","miles_from_dt":23.81},{"city":"Oceana","state_name":"West Virginia","lat":37.73784,"lng":-81.53203,"zip":"24870","miles_from_dt":23.86},{"city":"Covel","state_name":"West Virginia","lat":37.48722,"lng":-81.32652,"zip":"24719","miles_from_dt":23.89},{"city":"Dorothy","state_name":"West Virginia","lat":37.97058,"lng":-81.47286,"zip":"25060","miles_from_dt":24.14},{"city":"Gallagher","state_name":"West Virginia","lat":38.06809,"lng":-81.36118,"zip":"25083","miles_from_dt":24.29},{"city":"Kanawha Falls","state_name":"West Virginia","lat":38.13065,"lng":-81.18997,"zip":"25115","miles_from_dt":24.47},{"city":"Nallen","state_name":"West Virginia","lat":38.08991,"lng":-80.87423,"zip":"26680","miles_from_dt":24.49},{"city":"Hiawatha","state_name":"West Virginia","lat":37.44759,"lng":-81.24699,"zip":"24729","miles_from_dt":24.5},{"city":"Hico","state_name":"West Virginia","lat":38.12629,"lng":-80.97537,"zip":"25854","miles_from_dt":24.63},{"city":"Ansted","state_name":"West Virginia","lat":38.14048,"lng":-81.11512,"zip":"25812","miles_from_dt":24.66},{"city":"Mount Carbon","state_name":"West Virginia","lat":38.11038,"lng":-81.2874,"zip":"25139","miles_from_dt":24.78},{"city":"Smoot","state_name":"West Virginia","lat":37.90823,"lng":-80.67527,"zip":"24977","miles_from_dt":24.78},{"city":"Charmco","state_name":"West Virginia","lat":38.02156,"lng":-80.76077,"zip":"25958","miles_from_dt":24.78},{"city":"Matoaka","state_name":"West Virginia","lat":37.45045,"lng":-81.29589,"zip":"24736","miles_from_dt":25.33},{"city":"Alloy","state_name":"West Virginia","lat":38.13087,"lng":-81.25466,"zip":"25002","miles_from_dt":25.43},{"city":"Rock View","state_name":"West Virginia","lat":37.64679,"lng":-81.53187,"zip":"24880","miles_from_dt":25.46},{"city":"Charlton Heights","state_name":"West Virginia","lat":38.13673,"lng":-81.24385,"zip":"25040","miles_from_dt":25.62},{"city":"Wayside","state_name":"West Virginia","lat":37.59989,"lng":-80.68948,"zip":"24985","miles_from_dt":25.8},{"city":"Eskdale","state_name":"West Virginia","lat":38.0526,"lng":-81.42915,"zip":"25075","miles_from_dt":25.86},{"city":"Princeton","state_name":"West Virginia","lat":37.4042,"lng":-81.10205,"zip":"24740","miles_from_dt":26.13},{"city":"Kimberly","state_name":"West Virginia","lat":38.11882,"lng":-81.32294,"zip":"25118","miles_from_dt":26.16},{"city":"Jesse","state_name":"West Virginia","lat":37.67435,"lng":-81.55848,"zip":"24849","miles_from_dt":26.21},{"city":"Victor","state_name":"West Virginia","lat":38.15993,"lng":-81.03447,"zip":"25938","miles_from_dt":26.24},{"city":"Ballard","state_name":"West Virginia","lat":37.51793,"lng":-80.75461,"zip":"24918","miles_from_dt":26.33},{"city":"Kopperston","state_name":"West Virginia","lat":37.73997,"lng":-81.5789,"zip":"24854","miles_from_dt":26.39},{"city":"Glen Ferris","state_name":"West Virginia","lat":38.15544,"lng":-81.21655,"zip":"25090","miles_from_dt":26.46},{"city":"Whitesville","state_name":"West Virginia","lat":37.96271,"lng":-81.52861,"zip":"25209","miles_from_dt":26.5},{"city":"Pineville","state_name":"West Virginia","lat":37.60201,"lng":-81.53072,"zip":"24874","miles_from_dt":26.7},{"city":"Kegley","state_name":"West Virginia","lat":37.39733,"lng":-81.15162,"zip":"24731","miles_from_dt":26.75},{"city":"Wolfcreek","state_name":"West Virginia","lat":37.66095,"lng":-80.63512,"zip":"24993","miles_from_dt":26.82},{"city":"Boomer","state_name":"West Virginia","lat":38.14615,"lng":-81.2801,"zip":"25031","miles_from_dt":26.9},{"city":"Gauley Bridge","state_name":"West Virginia","lat":38.16762,"lng":-81.18867,"zip":"25085","miles_from_dt":26.96},{"city":"Leslie","state_name":"West Virginia","lat":38.03576,"lng":-80.7222,"zip":"25972","miles_from_dt":27.02},{"city":"Rock","state_name":"West Virginia","lat":37.40182,"lng":-81.2273,"zip":"24747","miles_from_dt":27.21},{"city":"Greenville","state_name":"West Virginia","lat":37.54113,"lng":-80.68795,"zip":"24945","miles_from_dt":28.09},{"city":"Matheny","state_name":"West Virginia","lat":37.65919,"lng":-81.59075,"zip":"24860","miles_from_dt":28.21},{"city":"Mount Lookout","state_name":"West Virginia","lat":38.16883,"lng":-80.91085,"zip":"26678","miles_from_dt":28.54},{"city":"Montgomery","state_name":"West Virginia","lat":38.15864,"lng":-81.31977,"zip":"25136","miles_from_dt":28.55},{"city":"Marianna","state_name":"West Virginia","lat":37.61732,"lng":-81.57824,"zip":"24859","miles_from_dt":28.59},{"city":"Asbury","state_name":"West Virginia","lat":37.82735,"lng":-80.57735,"zip":"24916","miles_from_dt":28.76},{"city":"Smithers","state_name":"West Virginia","lat":38.17113,"lng":-81.29811,"zip":"25186","miles_from_dt":28.87},{"city":"Crawley","state_name":"West Virginia","lat":37.91471,"lng":-80.59355,"zip":"24931","miles_from_dt":29.15},{"city":"Princeton","state_name":"West Virginia","lat":37.36784,"lng":-80.9949,"zip":"24739","miles_from_dt":29.21},{"city":"Twilight","state_name":"West Virginia","lat":37.91546,"lng":-81.60914,"zip":"25204","miles_from_dt":29.3},{"city":"Wyoming","state_name":"West Virginia","lat":37.58752,"lng":-81.57504,"zip":"24898","miles_from_dt":29.32},{"city":"Sylvester","state_name":"West Virginia","lat":38.01672,"lng":-81.55089,"zip":"25193","miles_from_dt":29.44},{"city":"Pool","state_name":"West Virginia","lat":38.16324,"lng":-80.8544,"zip":"26684","miles_from_dt":29.45},{"city":"Orgas","state_name":"West Virginia","lat":38.03511,"lng":-81.53695,"zip":"25148","miles_from_dt":29.53},{"city":"Cannelton","state_name":"West Virginia","lat":38.19168,"lng":-81.26438,"zip":"25036","miles_from_dt":29.57},{"city":"Peterstown","state_name":"West Virginia","lat":37.43743,"lng":-80.77617,"zip":"24963","miles_from_dt":29.73},{"city":"Northfork","state_name":"West Virginia","lat":37.42412,"lng":-81.40259,"zip":"24868","miles_from_dt":29.81},{"city":"Handley","state_name":"West Virginia","lat":38.16735,"lng":-81.35192,"zip":"25102","miles_from_dt":29.86},{"city":"Quinwood","state_name":"West Virginia","lat":38.08321,"lng":-80.70274,"zip":"25981","miles_from_dt":29.99},{"city":"Swiss","state_name":"West Virginia","lat":38.21757,"lng":-81.12069,"zip":"26690","miles_from_dt":29.99}],"targetCityZipCode":"25813","targetCityState":"West Virginia"},"__N_SSG":true}