{"pageProps":{"stateName":"West-virginia","cityName":"great-cacapon","nearbyCities":[{"city":"Little Orleans","state_name":"Maryland","lat":39.65928,"lng":-78.39859,"zip":"21766","miles_from_dt":7.29},{"city":"Berkeley Springs","state_name":"West Virginia","lat":39.55497,"lng":-78.22004,"zip":"25411","miles_from_dt":7.42},{"city":"Paw Paw","state_name":"West Virginia","lat":39.45797,"lng":-78.45038,"zip":"25434","miles_from_dt":8.46},{"city":"Oldtown","state_name":"Maryland","lat":39.58777,"lng":-78.55685,"zip":"21555","miles_from_dt":10.77},{"city":"Hancock","state_name":"Maryland","lat":39.68698,"lng":-78.2129,"zip":"21750","miles_from_dt":11.82},{"city":"Slanesville","state_name":"West Virginia","lat":39.43543,"lng":-78.52081,"zip":"25444","miles_from_dt":12.11},{"city":"Levels","state_name":"West Virginia","lat":39.48682,"lng":-78.57279,"zip":"25431","miles_from_dt":12.44},{"city":"Cross Junction","state_name":"Virginia","lat":39.37397,"lng":-78.31172,"zip":"22625","miles_from_dt":12.95},{"city":"Flintstone","state_name":"Maryland","lat":39.68878,"lng":-78.54138,"zip":"21530","miles_from_dt":13.27},{"city":"Artemas","state_name":"Pennsylvania","lat":39.75191,"lng":-78.41457,"zip":"17211","miles_from_dt":13.7},{"city":"Bloomery","state_name":"West Virginia","lat":39.35957,"lng":-78.39067,"zip":"26817","miles_from_dt":13.8},{"city":"Hedgesville","state_name":"West Virginia","lat":39.52608,"lng":-78.09098,"zip":"25427","miles_from_dt":14.48},{"city":"Points","state_name":"West Virginia","lat":39.4225,"lng":-78.57623,"zip":"25437","miles_from_dt":14.92},{"city":"Green Spring","state_name":"West Virginia","lat":39.49774,"lng":-78.63463,"zip":"26722","miles_from_dt":15.31},{"city":"Glengary","state_name":"West Virginia","lat":39.37821,"lng":-78.16384,"zip":"25421","miles_from_dt":16.21},{"city":"Gerrardstown","state_name":"West Virginia","lat":39.38095,"lng":-78.11969,"zip":"25420","miles_from_dt":17.69},{"city":"Warfordsburg","state_name":"Pennsylvania","lat":39.80389,"lng":-78.23958,"zip":"17267","miles_from_dt":18.11},{"city":"Spring Gap","state_name":"Maryland","lat":39.56508,"lng":-78.70632,"zip":"21560","miles_from_dt":18.56},{"city":"Capon Bridge","state_name":"West Virginia","lat":39.30301,"lng":-78.47073,"zip":"26711","miles_from_dt":18.59},{"city":"Springfield","state_name":"West Virginia","lat":39.4789,"lng":-78.69316,"zip":"26763","miles_from_dt":18.68},{"city":"Clearville","state_name":"Pennsylvania","lat":39.826,"lng":-78.45001,"zip":"15535","miles_from_dt":19.11},{"city":"Martinsburg","state_name":"West Virginia","lat":39.4842,"lng":-78.00725,"zip":"25403","miles_from_dt":19.47},{"city":"Big Pool","state_name":"Maryland","lat":39.66808,"lng":-78.01247,"zip":"21711","miles_from_dt":19.98},{"city":"Winchester","state_name":"Virginia","lat":39.28153,"lng":-78.2056,"zip":"22603","miles_from_dt":20.77},{"city":"Gore","state_name":"Virginia","lat":39.25057,"lng":-78.3605,"zip":"22637","miles_from_dt":21.22},{"city":"Wiley Ford","state_name":"West Virginia","lat":39.61581,"lng":-78.75674,"zip":"26767","miles_from_dt":21.61},{"city":"Cumberland","state_name":"Maryland","lat":39.66077,"lng":-78.74317,"zip":"21504","miles_from_dt":21.7},{"city":"Cumberland","state_name":"Maryland","lat":39.65805,"lng":-78.74626,"zip":"21505","miles_from_dt":21.79},{"city":"Martinsburg","state_name":"West Virginia","lat":39.45642,"lng":-77.97267,"zip":"25401","miles_from_dt":21.8},{"city":"Inwood","state_name":"West Virginia","lat":39.37407,"lng":-78.02729,"zip":"25428","miles_from_dt":21.81},{"city":"Martinsburg","state_name":"West Virginia","lat":39.46145,"lng":-77.96982,"zip":"25402","miles_from_dt":21.83},{"city":"Cumberland","state_name":"Maryland","lat":39.64143,"lng":-78.75609,"zip":"21502","miles_from_dt":21.96},{"city":"Cumberland","state_name":"Maryland","lat":39.64968,"lng":-78.75776,"zip":"21501","miles_from_dt":22.2},{"city":"Fort Ashby","state_name":"West Virginia","lat":39.49778,"lng":-78.7678,"zip":"26719","miles_from_dt":22.24},{"city":"Cumberland","state_name":"Maryland","lat":39.64708,"lng":-78.75968,"zip":"21503","miles_from_dt":22.25},{"city":"Augusta","state_name":"West Virginia","lat":39.28619,"lng":-78.59471,"zip":"26704","miles_from_dt":22.61},{"city":"Ridgeley","state_name":"West Virginia","lat":39.56017,"lng":-78.79026,"zip":"26753","miles_from_dt":23.04},{"city":"Big Cove Tannery","state_name":"Pennsylvania","lat":39.81,"lng":-78.07073,"zip":"17212","miles_from_dt":23.19},{"city":"Bunker Hill","state_name":"West Virginia","lat":39.31632,"lng":-78.053,"zip":"25413","miles_from_dt":23.37},{"city":"Martinsburg","state_name":"West Virginia","lat":39.40892,"lng":-77.96235,"zip":"25405","miles_from_dt":23.56},{"city":"Ridgeway","state_name":"West Virginia","lat":39.29801,"lng":-78.07101,"zip":"25440","miles_from_dt":23.65},{"city":"Needmore","state_name":"Pennsylvania","lat":39.8612,"lng":-78.13003,"zip":"17238","miles_from_dt":24.21},{"city":"Clear Brook","state_name":"Virginia","lat":39.26535,"lng":-78.09507,"zip":"22624","miles_from_dt":24.64},{"city":"Ellerslie","state_name":"Maryland","lat":39.71692,"lng":-78.77474,"zip":"21529","miles_from_dt":24.74},{"city":"Clear Spring","state_name":"Maryland","lat":39.66575,"lng":-77.91457,"zip":"21722","miles_from_dt":24.84},{"city":"Martinsburg","state_name":"West Virginia","lat":39.48631,"lng":-77.89782,"zip":"25404","miles_from_dt":25.13},{"city":"Falling Waters","state_name":"West Virginia","lat":39.58286,"lng":-77.88493,"zip":"25419","miles_from_dt":25.36},{"city":"High View","state_name":"West Virginia","lat":39.19563,"lng":-78.44416,"zip":"26808","miles_from_dt":25.42},{"city":"Corriganville","state_name":"Maryland","lat":39.70666,"lng":-78.80203,"zip":"21524","miles_from_dt":25.77},{"city":"Pinto","state_name":"Maryland","lat":39.56932,"lng":-78.84283,"zip":"21556","miles_from_dt":25.85},{"city":"Brucetown","state_name":"Virginia","lat":39.25659,"lng":-78.06706,"zip":"22622","miles_from_dt":26.01},{"city":"Romney","state_name":"West Virginia","lat":39.31652,"lng":-78.75001,"zip":"26757","miles_from_dt":26.75},{"city":"Yellow Spring","state_name":"West Virginia","lat":39.19053,"lng":-78.51932,"zip":"26865","miles_from_dt":26.77},{"city":"Shanks","state_name":"West Virginia","lat":39.27303,"lng":-78.6997,"zip":"26761","miles_from_dt":26.82},{"city":"Hyndman","state_name":"Pennsylvania","lat":39.77943,"lng":-78.776,"zip":"15545","miles_from_dt":26.98},{"city":"Kearneysville","state_name":"West Virginia","lat":39.34024,"lng":-77.93899,"zip":"25430","miles_from_dt":27.02},{"city":"Stephenson","state_name":"Virginia","lat":39.21723,"lng":-78.08901,"zip":"22656","miles_from_dt":27.6},{"city":"Mercersburg","state_name":"Pennsylvania","lat":39.79997,"lng":-77.94305,"zip":"17236","miles_from_dt":27.74},{"city":"Winchester","state_name":"Virginia","lat":39.18715,"lng":-78.15463,"zip":"22604","miles_from_dt":27.83},{"city":"Crystal Spring","state_name":"Pennsylvania","lat":39.94956,"lng":-78.2109,"zip":"15536","miles_from_dt":28.13},{"city":"Winchester","state_name":"Virginia","lat":39.1743,"lng":-78.1743,"zip":"22601","miles_from_dt":28.26},{"city":"Williamsport","state_name":"Maryland","lat":39.582,"lng":-77.82733,"zip":"21795","miles_from_dt":28.43},{"city":"Wellersburg","state_name":"Pennsylvania","lat":39.72967,"lng":-78.84542,"zip":"15564","miles_from_dt":28.52},{"city":"Winchester","state_name":"Virginia","lat":39.1508,"lng":-78.26555,"zip":"22602","miles_from_dt":28.54},{"city":"Mount Savage","state_name":"Maryland","lat":39.6991,"lng":-78.86513,"zip":"21545","miles_from_dt":28.71},{"city":"Bedford","state_name":"Pennsylvania","lat":39.94931,"lng":-78.55173,"zip":"15522","miles_from_dt":28.88},{"city":"Buffalo Mills","state_name":"Pennsylvania","lat":39.89712,"lng":-78.69589,"zip":"15534","miles_from_dt":29.48},{"city":"Eckhart Mines","state_name":"Maryland","lat":39.65022,"lng":-78.90548,"zip":"21528","miles_from_dt":29.85}],"targetCityZipCode":"25422","targetCityState":"West Virginia"},"__N_SSG":true}