{"pageProps":{"stateName":"Pennsylvania","cityName":"centerville","nearbyCities":[{"city":"Riceville","state_name":"Pennsylvania","lat":41.77923,"lng":-79.79955,"zip":"16432","miles_from_dt":3.79},{"city":"Townville","state_name":"Pennsylvania","lat":41.68167,"lng":-79.89028,"zip":"16360","miles_from_dt":5.97},{"city":"Hydetown","state_name":"Pennsylvania","lat":41.651,"lng":-79.72716,"zip":"16328","miles_from_dt":6.05},{"city":"Spartansburg","state_name":"Pennsylvania","lat":41.79442,"lng":-79.66765,"zip":"16434","miles_from_dt":7.95},{"city":"Titusville","state_name":"Pennsylvania","lat":41.61476,"lng":-79.70637,"zip":"16354","miles_from_dt":8.75},{"city":"Guys Mills","state_name":"Pennsylvania","lat":41.6323,"lng":-79.95878,"zip":"16327","miles_from_dt":10.81},{"city":"Union City","state_name":"Pennsylvania","lat":41.89084,"lng":-79.84709,"zip":"16438","miles_from_dt":11.83},{"city":"Elgin","state_name":"Pennsylvania","lat":41.9001,"lng":-79.74527,"zip":"16413","miles_from_dt":12.32},{"city":"Cambridge Springs","state_name":"Pennsylvania","lat":41.7912,"lng":-80.02017,"zip":"16403","miles_from_dt":12.74},{"city":"Grand Valley","state_name":"Pennsylvania","lat":41.69481,"lng":-79.54544,"zip":"16420","miles_from_dt":12.83},{"city":"Cooperstown","state_name":"Pennsylvania","lat":41.53232,"lng":-79.85258,"zip":"16317","miles_from_dt":13.67},{"city":"Mill Village","state_name":"Pennsylvania","lat":41.87466,"lng":-79.97132,"zip":"16427","miles_from_dt":13.94},{"city":"Corry","state_name":"Pennsylvania","lat":41.91743,"lng":-79.66374,"zip":"16407","miles_from_dt":14.81},{"city":"Pleasantville","state_name":"Pennsylvania","lat":41.56288,"lng":-79.54703,"zip":"16341","miles_from_dt":16.83},{"city":"Spring Creek","state_name":"Pennsylvania","lat":41.85563,"lng":-79.49889,"zip":"16436","miles_from_dt":17.55},{"city":"Garland","state_name":"Pennsylvania","lat":41.82606,"lng":-79.47311,"zip":"16416","miles_from_dt":17.81},{"city":"Venango","state_name":"Pennsylvania","lat":41.78673,"lng":-80.13088,"zip":"16440","miles_from_dt":18.12},{"city":"Saegertown","state_name":"Pennsylvania","lat":41.73553,"lng":-80.14316,"zip":"16433","miles_from_dt":18.26},{"city":"Rouseville","state_name":"Pennsylvania","lat":41.47045,"lng":-79.684,"zip":"16344","miles_from_dt":18.4},{"city":"Waterford","state_name":"Pennsylvania","lat":41.9554,"lng":-79.98552,"zip":"16441","miles_from_dt":18.84},{"city":"Meadville","state_name":"Pennsylvania","lat":41.64896,"lng":-80.14727,"zip":"16388","miles_from_dt":19.2},{"city":"Columbus","state_name":"Pennsylvania","lat":41.938,"lng":-79.5335,"zip":"16405","miles_from_dt":19.8},{"city":"Edinboro","state_name":"Pennsylvania","lat":41.87071,"lng":-80.12175,"zip":"16444","miles_from_dt":19.86},{"city":"Meadville","state_name":"Pennsylvania","lat":41.63143,"lng":-80.15378,"zip":"16335","miles_from_dt":19.89},{"city":"Pittsfield","state_name":"Pennsylvania","lat":41.79864,"lng":-79.41749,"zip":"16340","miles_from_dt":19.92},{"city":"Oil City","state_name":"Pennsylvania","lat":41.45596,"lng":-79.64946,"zip":"16301","miles_from_dt":19.94},{"city":"Cochranton","state_name":"Pennsylvania","lat":41.51895,"lng":-80.06782,"zip":"16314","miles_from_dt":20.21},{"city":"West Hickory","state_name":"Pennsylvania","lat":41.56586,"lng":-79.44796,"zip":"16370","miles_from_dt":20.84},{"city":"Utica","state_name":"Pennsylvania","lat":41.45032,"lng":-79.96284,"zip":"16362","miles_from_dt":20.95},{"city":"Reno","state_name":"Pennsylvania","lat":41.42204,"lng":-79.75233,"zip":"16343","miles_from_dt":20.99},{"city":"Franklin","state_name":"Pennsylvania","lat":41.41286,"lng":-79.83047,"zip":"16323","miles_from_dt":21.63},{"city":"Tidioute","state_name":"Pennsylvania","lat":41.67583,"lng":-79.37285,"zip":"16351","miles_from_dt":21.85},{"city":"Wattsburg","state_name":"Pennsylvania","lat":42.04094,"lng":-79.82631,"zip":"16442","miles_from_dt":21.9},{"city":"Edinboro","state_name":"Pennsylvania","lat":41.88212,"lng":-80.16392,"zip":"16412","miles_from_dt":22.14},{"city":"Carlton","state_name":"Pennsylvania","lat":41.45706,"lng":-80.03477,"zip":"16311","miles_from_dt":22.41},{"city":"Endeavor","state_name":"Pennsylvania","lat":41.60567,"lng":-79.38428,"zip":"16322","miles_from_dt":22.56},{"city":"East Hickory","state_name":"Pennsylvania","lat":41.56835,"lng":-79.40084,"zip":"16321","miles_from_dt":22.87},{"city":"Bear Lake","state_name":"Pennsylvania","lat":41.96459,"lng":-79.48076,"zip":"16402","miles_from_dt":23},{"city":"Clymer","state_name":"New York","lat":42.05272,"lng":-79.67031,"zip":"14724","miles_from_dt":23.46},{"city":"Seneca","state_name":"Pennsylvania","lat":41.37845,"lng":-79.6727,"zip":"16346","miles_from_dt":24.67},{"city":"McKean","state_name":"Pennsylvania","lat":41.98121,"lng":-80.13937,"zip":"16426","miles_from_dt":25.25},{"city":"Tionesta","state_name":"Pennsylvania","lat":41.49359,"lng":-79.38839,"zip":"16353","miles_from_dt":26.23},{"city":"Youngsville","state_name":"Pennsylvania","lat":41.86751,"lng":-79.3187,"zip":"16371","miles_from_dt":26.27},{"city":"Niobe","state_name":"New York","lat":42.01142,"lng":-79.45041,"zip":"14758","miles_from_dt":26.43},{"city":"Erie","state_name":"Pennsylvania","lat":42.05861,"lng":-80.04419,"zip":"16509","miles_from_dt":26.5},{"city":"Panama","state_name":"New York","lat":42.05344,"lng":-79.51583,"zip":"14767","miles_from_dt":26.73},{"city":"Irvine","state_name":"Pennsylvania","lat":41.80642,"lng":-79.27684,"zip":"16329","miles_from_dt":27.12},{"city":"Harmonsburg","state_name":"Pennsylvania","lat":41.66555,"lng":-80.31447,"zip":"16422","miles_from_dt":27.43},{"city":"Sandy Lake","state_name":"Pennsylvania","lat":41.38574,"lng":-80.07422,"zip":"16145","miles_from_dt":27.65},{"city":"Conneaut Lake","state_name":"Pennsylvania","lat":41.6012,"lng":-80.29958,"zip":"16316","miles_from_dt":27.71},{"city":"Erie","state_name":"Pennsylvania","lat":42.1076,"lng":-79.95604,"zip":"16515","miles_from_dt":27.77},{"city":"Erie","state_name":"Pennsylvania","lat":42.11184,"lng":-79.95395,"zip":"16510","miles_from_dt":28.01},{"city":"Findley Lake","state_name":"New York","lat":42.13715,"lng":-79.74644,"zip":"14736","miles_from_dt":28.55},{"city":"Erie","state_name":"Pennsylvania","lat":42.06906,"lng":-80.10263,"zip":"16565","miles_from_dt":28.71},{"city":"Venus","state_name":"Pennsylvania","lat":41.36379,"lng":-79.51517,"zip":"16364","miles_from_dt":28.71},{"city":"Sugar Grove","state_name":"Pennsylvania","lat":41.96323,"lng":-79.3322,"zip":"16350","miles_from_dt":28.8},{"city":"Polk","state_name":"Pennsylvania","lat":41.31995,"lng":-79.9294,"zip":"16342","miles_from_dt":28.86},{"city":"Chandlers Valley","state_name":"Pennsylvania","lat":41.93218,"lng":-79.30324,"zip":"16312","miles_from_dt":28.92},{"city":"Sheakleyville","state_name":"Pennsylvania","lat":41.4428,"lng":-80.2056,"zip":"16151","miles_from_dt":29.02},{"city":"Erie","state_name":"Pennsylvania","lat":42.11929,"lng":-79.98643,"zip":"16563","miles_from_dt":29.04},{"city":"Cranberry","state_name":"Pennsylvania","lat":41.3216,"lng":-79.62942,"zip":"16319","miles_from_dt":29.05},{"city":"Atlantic","state_name":"Pennsylvania","lat":41.51936,"lng":-80.28463,"zip":"16111","miles_from_dt":29.27},{"city":"Hadley","state_name":"Pennsylvania","lat":41.44315,"lng":-80.21668,"zip":"16130","miles_from_dt":29.43},{"city":"Erie","state_name":"Pennsylvania","lat":42.10389,"lng":-80.05338,"zip":"16546","miles_from_dt":29.47},{"city":"Conneautville","state_name":"Pennsylvania","lat":41.75047,"lng":-80.36273,"zip":"16406","miles_from_dt":29.65},{"city":"Erie","state_name":"Pennsylvania","lat":42.10942,"lng":-80.0489,"zip":"16504","miles_from_dt":29.71},{"city":"Erie","state_name":"Pennsylvania","lat":42.11987,"lng":-80.02023,"zip":"16514","miles_from_dt":29.73},{"city":"Erie","state_name":"Pennsylvania","lat":42.11988,"lng":-80.0201,"zip":"16541","miles_from_dt":29.73},{"city":"Cranesville","state_name":"Pennsylvania","lat":41.92012,"lng":-80.30482,"zip":"16410","miles_from_dt":29.79}],"targetCityZipCode":"16404","targetCityState":"Pennsylvania"},"__N_SSG":true}