{"pageProps":{"stateName":"Pennsylvania","cityName":"dagus-mines","nearbyCities":[{"city":"Kersey","state_name":"Pennsylvania","lat":41.33375,"lng":-78.6147,"zip":"15846","miles_from_dt":1.44},{"city":"Brandy Camp","state_name":"Pennsylvania","lat":41.31891,"lng":-78.68736,"zip":"15822","miles_from_dt":4.93},{"city":"Byrnedale","state_name":"Pennsylvania","lat":41.29479,"lng":-78.50582,"zip":"15827","miles_from_dt":6.5},{"city":"Saint Marys","state_name":"Pennsylvania","lat":41.45671,"lng":-78.53439,"zip":"15857","miles_from_dt":8.02},{"city":"Force","state_name":"Pennsylvania","lat":41.25798,"lng":-78.50441,"zip":"15841","miles_from_dt":8.36},{"city":"Brockport","state_name":"Pennsylvania","lat":41.25888,"lng":-78.71001,"zip":"15823","miles_from_dt":8.52},{"city":"Ridgway","state_name":"Pennsylvania","lat":41.39253,"lng":-78.79357,"zip":"15853","miles_from_dt":10.22},{"city":"Weedville","state_name":"Pennsylvania","lat":41.29885,"lng":-78.41799,"zip":"15868","miles_from_dt":10.37},{"city":"Johnsonburg","state_name":"Pennsylvania","lat":41.50714,"lng":-78.69066,"zip":"15845","miles_from_dt":11.55},{"city":"Penfield","state_name":"Pennsylvania","lat":41.17838,"lng":-78.55592,"zip":"15849","miles_from_dt":12.31},{"city":"Benezett","state_name":"Pennsylvania","lat":41.35868,"lng":-78.36453,"zip":"15821","miles_from_dt":12.46},{"city":"Brockway","state_name":"Pennsylvania","lat":41.24831,"lng":-78.83828,"zip":"15824","miles_from_dt":14.17},{"city":"Wilcox","state_name":"Pennsylvania","lat":41.58116,"lng":-78.57935,"zip":"15870","miles_from_dt":15.79},{"city":"Du Bois","state_name":"Pennsylvania","lat":41.12867,"lng":-78.72352,"zip":"15801","miles_from_dt":16.69},{"city":"Falls Creek","state_name":"Pennsylvania","lat":41.16927,"lng":-78.82708,"zip":"15840","miles_from_dt":17.2},{"city":"Rockton","state_name":"Pennsylvania","lat":41.08906,"lng":-78.6154,"zip":"15856","miles_from_dt":18.23},{"city":"Emporium","state_name":"Pennsylvania","lat":41.51228,"lng":-78.27811,"zip":"15834","miles_from_dt":20.18},{"city":"Clearfield","state_name":"Pennsylvania","lat":41.08569,"lng":-78.43317,"zip":"16830","miles_from_dt":20.49},{"city":"Driftwood","state_name":"Pennsylvania","lat":41.35301,"lng":-78.19053,"zip":"15832","miles_from_dt":21.5},{"city":"Kane","state_name":"Pennsylvania","lat":41.63045,"lng":-78.81,"zip":"16735","miles_from_dt":21.93},{"city":"De Young","state_name":"Pennsylvania","lat":41.57439,"lng":-78.91211,"zip":"16728","miles_from_dt":22.12},{"city":"James City","state_name":"Pennsylvania","lat":41.61806,"lng":-78.84418,"zip":"16734","miles_from_dt":22.13},{"city":"Frenchville","state_name":"Pennsylvania","lat":41.14633,"lng":-78.26454,"zip":"16836","miles_from_dt":22.72},{"city":"Luthersburg","state_name":"Pennsylvania","lat":41.03137,"lng":-78.71908,"zip":"15848","miles_from_dt":22.99},{"city":"Sigel","state_name":"Pennsylvania","lat":41.3435,"lng":-79.04697,"zip":"15860","miles_from_dt":23.05},{"city":"Shawville","state_name":"Pennsylvania","lat":41.06993,"lng":-78.3605,"zip":"16873","miles_from_dt":23.3},{"city":"Reynoldsville","state_name":"Pennsylvania","lat":41.10115,"lng":-78.90316,"zip":"15851","miles_from_dt":23.35},{"city":"Sykesville","state_name":"Pennsylvania","lat":41.0508,"lng":-78.81418,"zip":"15865","miles_from_dt":23.56},{"city":"Mount Jewett","state_name":"Pennsylvania","lat":41.69255,"lng":-78.54998,"zip":"16740","miles_from_dt":23.6},{"city":"Hazel Hurst","state_name":"Pennsylvania","lat":41.70303,"lng":-78.59514,"zip":"16733","miles_from_dt":24.16},{"city":"Troutville","state_name":"Pennsylvania","lat":41.02587,"lng":-78.78628,"zip":"15866","miles_from_dt":24.5},{"city":"Hyde","state_name":"Pennsylvania","lat":41.00849,"lng":-78.46269,"zip":"16843","miles_from_dt":24.89},{"city":"Lecontes Mills","state_name":"Pennsylvania","lat":41.08186,"lng":-78.28036,"zip":"16850","miles_from_dt":25.19},{"city":"Grampian","state_name":"Pennsylvania","lat":40.98923,"lng":-78.64292,"zip":"16838","miles_from_dt":25.19},{"city":"Brookville","state_name":"Pennsylvania","lat":41.17005,"lng":-79.03885,"zip":"15825","miles_from_dt":25.93},{"city":"Stump Creek","state_name":"Pennsylvania","lat":41.0157,"lng":-78.83847,"zip":"15863","miles_from_dt":26.29},{"city":"Woodland","state_name":"Pennsylvania","lat":41.02743,"lng":-78.31119,"zip":"16881","miles_from_dt":27.16},{"city":"Mineral Springs","state_name":"Pennsylvania","lat":40.99902,"lng":-78.36046,"zip":"16855","miles_from_dt":27.53},{"city":"Sinnamahoning","state_name":"Pennsylvania","lat":41.3221,"lng":-78.07246,"zip":"15861","miles_from_dt":27.73},{"city":"Clarington","state_name":"Pennsylvania","lat":41.35104,"lng":-79.13906,"zip":"15828","miles_from_dt":27.82},{"city":"Curwensville","state_name":"Pennsylvania","lat":40.94158,"lng":-78.57862,"zip":"16833","miles_from_dt":28.43},{"city":"Knox Dale","state_name":"Pennsylvania","lat":41.08614,"lng":-79.02948,"zip":"15847","miles_from_dt":28.82},{"city":"Glen Richey","state_name":"Pennsylvania","lat":40.94576,"lng":-78.47494,"zip":"16837","miles_from_dt":28.9},{"city":"Marienville","state_name":"Pennsylvania","lat":41.49507,"lng":-79.1297,"zip":"16239","miles_from_dt":29.01},{"city":"Crosby","state_name":"Pennsylvania","lat":41.74674,"lng":-78.39022,"zip":"16724","miles_from_dt":29.34},{"city":"Smethport","state_name":"Pennsylvania","lat":41.75578,"lng":-78.4214,"zip":"16749","miles_from_dt":29.36},{"city":"Bigler","state_name":"Pennsylvania","lat":40.98803,"lng":-78.31208,"zip":"16825","miles_from_dt":29.43}],"targetCityZipCode":"15831","targetCityState":"Pennsylvania"},"__N_SSG":true}