{"pageProps":{"stateName":"Pennsylvania","cityName":"east-hickory","nearbyCities":[{"city":"West Hickory","state_name":"Pennsylvania","lat":41.56586,"lng":-79.44796,"zip":"16370","miles_from_dt":2.45},{"city":"Endeavor","state_name":"Pennsylvania","lat":41.60567,"lng":-79.38428,"zip":"16322","miles_from_dt":2.71},{"city":"Tionesta","state_name":"Pennsylvania","lat":41.49359,"lng":-79.38839,"zip":"16353","miles_from_dt":5.2},{"city":"Tidioute","state_name":"Pennsylvania","lat":41.67583,"lng":-79.37285,"zip":"16351","miles_from_dt":7.56},{"city":"Pleasantville","state_name":"Pennsylvania","lat":41.56288,"lng":-79.54703,"zip":"16341","miles_from_dt":7.59},{"city":"Grand Valley","state_name":"Pennsylvania","lat":41.69481,"lng":-79.54544,"zip":"16420","miles_from_dt":11.5},{"city":"Crown","state_name":"Pennsylvania","lat":41.41817,"lng":-79.26659,"zip":"16220","miles_from_dt":12.49},{"city":"Tylersburg","state_name":"Pennsylvania","lat":41.38597,"lng":-79.3422,"zip":"16361","miles_from_dt":12.95},{"city":"Fryburg","state_name":"Pennsylvania","lat":41.36733,"lng":-79.43182,"zip":"16326","miles_from_dt":13.97},{"city":"Vowinckel","state_name":"Pennsylvania","lat":41.41102,"lng":-79.23092,"zip":"16260","miles_from_dt":13.99},{"city":"Lickingville","state_name":"Pennsylvania","lat":41.36096,"lng":-79.36873,"zip":"16332","miles_from_dt":14.41},{"city":"Marienville","state_name":"Pennsylvania","lat":41.49507,"lng":-79.1297,"zip":"16239","miles_from_dt":14.94},{"city":"Oil City","state_name":"Pennsylvania","lat":41.45596,"lng":-79.64946,"zip":"16301","miles_from_dt":15.05},{"city":"Venus","state_name":"Pennsylvania","lat":41.36379,"lng":-79.51517,"zip":"16364","miles_from_dt":15.31},{"city":"Leeper","state_name":"Pennsylvania","lat":41.36162,"lng":-79.27588,"zip":"16233","miles_from_dt":15.67},{"city":"Pittsfield","state_name":"Pennsylvania","lat":41.79864,"lng":-79.41749,"zip":"16340","miles_from_dt":15.92},{"city":"Titusville","state_name":"Pennsylvania","lat":41.61476,"lng":-79.70637,"zip":"16354","miles_from_dt":16.15},{"city":"Rouseville","state_name":"Pennsylvania","lat":41.47045,"lng":-79.684,"zip":"16344","miles_from_dt":16.17},{"city":"Snydersburg","state_name":"Pennsylvania","lat":41.3342,"lng":-79.35791,"zip":"16257","miles_from_dt":16.31},{"city":"Clarendon","state_name":"Pennsylvania","lat":41.72294,"lng":-79.13884,"zip":"16313","miles_from_dt":17.26},{"city":"Lucinda","state_name":"Pennsylvania","lat":41.31759,"lng":-79.34943,"zip":"16235","miles_from_dt":17.51},{"city":"Irvine","state_name":"Pennsylvania","lat":41.80642,"lng":-79.27684,"zip":"16329","miles_from_dt":17.64},{"city":"Hydetown","state_name":"Pennsylvania","lat":41.651,"lng":-79.72716,"zip":"16328","miles_from_dt":17.84},{"city":"Garland","state_name":"Pennsylvania","lat":41.82606,"lng":-79.47311,"zip":"16416","miles_from_dt":18.17},{"city":"Sheffield","state_name":"Pennsylvania","lat":41.64671,"lng":-79.06481,"zip":"16347","miles_from_dt":18.23},{"city":"Marble","state_name":"Pennsylvania","lat":41.29749,"lng":-79.44968,"zip":"16334","miles_from_dt":18.86},{"city":"Cooksburg","state_name":"Pennsylvania","lat":41.34908,"lng":-79.18095,"zip":"16217","miles_from_dt":18.96},{"city":"Seneca","state_name":"Pennsylvania","lat":41.37845,"lng":-79.6727,"zip":"16346","miles_from_dt":19.26},{"city":"Clarington","state_name":"Pennsylvania","lat":41.35104,"lng":-79.13906,"zip":"15828","miles_from_dt":20.24},{"city":"Spring Creek","state_name":"Pennsylvania","lat":41.85563,"lng":-79.49889,"zip":"16436","miles_from_dt":20.46},{"city":"Cranberry","state_name":"Pennsylvania","lat":41.3216,"lng":-79.62942,"zip":"16319","miles_from_dt":20.76},{"city":"Spartansburg","state_name":"Pennsylvania","lat":41.79442,"lng":-79.66765,"zip":"16434","miles_from_dt":20.83},{"city":"Reno","state_name":"Pennsylvania","lat":41.42204,"lng":-79.75233,"zip":"16343","miles_from_dt":20.85},{"city":"Kossuth","state_name":"Pennsylvania","lat":41.29047,"lng":-79.56435,"zip":"16331","miles_from_dt":20.97},{"city":"Shippenville","state_name":"Pennsylvania","lat":41.26557,"lng":-79.45259,"zip":"16254","miles_from_dt":21.07},{"city":"Youngsville","state_name":"Pennsylvania","lat":41.86751,"lng":-79.3187,"zip":"16371","miles_from_dt":21.08},{"city":"Fisher","state_name":"Pennsylvania","lat":41.26606,"lng":-79.25198,"zip":"16225","miles_from_dt":22.25},{"city":"Warren","state_name":"Pennsylvania","lat":41.83943,"lng":-79.15324,"zip":"16365","miles_from_dt":22.67},{"city":"Centerville","state_name":"Pennsylvania","lat":41.72483,"lng":-79.79018,"zip":"16404","miles_from_dt":22.87},{"city":"Warren","state_name":"Pennsylvania","lat":41.84644,"lng":-79.14642,"zip":"16367","miles_from_dt":23.27},{"city":"Tiona","state_name":"Pennsylvania","lat":41.76615,"lng":-79.03644,"zip":"16352","miles_from_dt":23.28},{"city":"Warren","state_name":"Pennsylvania","lat":41.84396,"lng":-79.1411,"zip":"16366","miles_from_dt":23.29},{"city":"Warren","state_name":"Pennsylvania","lat":41.84749,"lng":-79.14589,"zip":"16369","miles_from_dt":23.34},{"city":"Warren","state_name":"Pennsylvania","lat":41.84876,"lng":-79.14668,"zip":"16368","miles_from_dt":23.39},{"city":"Cooperstown","state_name":"Pennsylvania","lat":41.53232,"lng":-79.85258,"zip":"16317","miles_from_dt":23.55},{"city":"Sigel","state_name":"Pennsylvania","lat":41.3435,"lng":-79.04697,"zip":"15860","miles_from_dt":24.05},{"city":"Strattanville","state_name":"Pennsylvania","lat":41.2307,"lng":-79.27217,"zip":"16258","miles_from_dt":24.24},{"city":"Franklin","state_name":"Pennsylvania","lat":41.41286,"lng":-79.83047,"zip":"16323","miles_from_dt":24.74},{"city":"Knox","state_name":"Pennsylvania","lat":41.22197,"lng":-79.54923,"zip":"16232","miles_from_dt":25.12},{"city":"Riceville","state_name":"Pennsylvania","lat":41.77923,"lng":-79.79955,"zip":"16432","miles_from_dt":25.25},{"city":"De Young","state_name":"Pennsylvania","lat":41.57439,"lng":-78.91211,"zip":"16728","miles_from_dt":25.33},{"city":"Clarion","state_name":"Pennsylvania","lat":41.2008,"lng":-79.36046,"zip":"16214","miles_from_dt":25.45},{"city":"Chandlers Valley","state_name":"Pennsylvania","lat":41.93218,"lng":-79.30324,"zip":"16312","miles_from_dt":25.61},{"city":"Columbus","state_name":"Pennsylvania","lat":41.938,"lng":-79.5335,"zip":"16405","miles_from_dt":26.42},{"city":"Townville","state_name":"Pennsylvania","lat":41.68167,"lng":-79.89028,"zip":"16360","miles_from_dt":26.52},{"city":"Lamartine","state_name":"Pennsylvania","lat":41.22191,"lng":-79.63543,"zip":"16375","miles_from_dt":26.84},{"city":"Ludlow","state_name":"Pennsylvania","lat":41.74922,"lng":-78.9323,"zip":"16333","miles_from_dt":27.27},{"city":"Sugar Grove","state_name":"Pennsylvania","lat":41.96323,"lng":-79.3322,"zip":"16350","miles_from_dt":27.48},{"city":"Bear Lake","state_name":"Pennsylvania","lat":41.96459,"lng":-79.48076,"zip":"16402","miles_from_dt":27.66},{"city":"Corry","state_name":"Pennsylvania","lat":41.91743,"lng":-79.66374,"zip":"16407","miles_from_dt":27.66},{"city":"Turkey City","state_name":"Pennsylvania","lat":41.18794,"lng":-79.61358,"zip":"16058","miles_from_dt":28.49},{"city":"Elgin","state_name":"Pennsylvania","lat":41.9001,"lng":-79.74527,"zip":"16413","miles_from_dt":29},{"city":"James City","state_name":"Pennsylvania","lat":41.61806,"lng":-78.84418,"zip":"16734","miles_from_dt":29.04},{"city":"Guys Mills","state_name":"Pennsylvania","lat":41.6323,"lng":-79.95878,"zip":"16327","miles_from_dt":29.24},{"city":"Emlenton","state_name":"Pennsylvania","lat":41.20786,"lng":-79.69796,"zip":"16373","miles_from_dt":29.28},{"city":"Corsica","state_name":"Pennsylvania","lat":41.17337,"lng":-79.19324,"zip":"15829","miles_from_dt":29.32}],"targetCityZipCode":"16321","targetCityState":"Pennsylvania"},"__N_SSG":true}