{"pageProps":{"stateName":"Pennsylvania","cityName":"felton","nearbyCities":[{"city":"Red Lion","state_name":"Pennsylvania","lat":39.89834,"lng":-76.58366,"zip":"17356","miles_from_dt":3.92},{"city":"Brogue","state_name":"Pennsylvania","lat":39.87351,"lng":-76.44894,"zip":"17309","miles_from_dt":4.75},{"city":"Windsor","state_name":"Pennsylvania","lat":39.93184,"lng":-76.55585,"zip":"17366","miles_from_dt":5.38},{"city":"Craley","state_name":"Pennsylvania","lat":39.94623,"lng":-76.50513,"zip":"17312","miles_from_dt":6.46},{"city":"Stewartstown","state_name":"Pennsylvania","lat":39.76736,"lng":-76.58504,"zip":"17363","miles_from_dt":6.63},{"city":"New Park","state_name":"Pennsylvania","lat":39.76199,"lng":-76.50008,"zip":"17352","miles_from_dt":6.71},{"city":"Dallastown","state_name":"Pennsylvania","lat":39.88472,"lng":-76.65719,"zip":"17313","miles_from_dt":6.8},{"city":"Airville","state_name":"Pennsylvania","lat":39.81659,"lng":-76.41069,"zip":"17302","miles_from_dt":7.14},{"city":"East Prospect","state_name":"Pennsylvania","lat":39.97136,"lng":-76.52267,"zip":"17317","miles_from_dt":8.02},{"city":"Fawn Grove","state_name":"Pennsylvania","lat":39.75406,"lng":-76.44742,"zip":"17321","miles_from_dt":8.41},{"city":"Wrightsville","state_name":"Pennsylvania","lat":39.98463,"lng":-76.51966,"zip":"17368","miles_from_dt":8.95},{"city":"Loganville","state_name":"Pennsylvania","lat":39.85275,"lng":-76.70756,"zip":"17342","miles_from_dt":9.17},{"city":"York","state_name":"Pennsylvania","lat":39.8855,"lng":-76.71244,"zip":"17407","miles_from_dt":9.65},{"city":"Conestoga","state_name":"Pennsylvania","lat":39.93773,"lng":-76.38703,"zip":"17516","miles_from_dt":9.7},{"city":"York","state_name":"Pennsylvania","lat":39.95799,"lng":-76.66045,"zip":"17402","miles_from_dt":9.71},{"city":"Shrewsbury","state_name":"Pennsylvania","lat":39.76617,"lng":-76.67702,"zip":"17361","miles_from_dt":9.74},{"city":"Washington Boro","state_name":"Pennsylvania","lat":39.98928,"lng":-76.44756,"zip":"17582","miles_from_dt":10.34},{"city":"New Freedom","state_name":"Pennsylvania","lat":39.75536,"lng":-76.68003,"zip":"17349","miles_from_dt":10.35},{"city":"York","state_name":"Pennsylvania","lat":39.92142,"lng":-76.71277,"zip":"17403","miles_from_dt":10.48},{"city":"Railroad","state_name":"Pennsylvania","lat":39.75978,"lng":-76.696,"zip":"17355","miles_from_dt":10.81},{"city":"Pequea","state_name":"Pennsylvania","lat":39.89191,"lng":-76.32994,"zip":"17565","miles_from_dt":11.19},{"city":"Maryland Line","state_name":"Maryland","lat":39.71512,"lng":-76.65225,"zip":"21105","miles_from_dt":11.52},{"city":"Seven Valleys","state_name":"Pennsylvania","lat":39.85196,"lng":-76.75377,"zip":"17360","miles_from_dt":11.63},{"city":"Millersville","state_name":"Pennsylvania","lat":39.97911,"lng":-76.37608,"zip":"17551","miles_from_dt":12.01},{"city":"York","state_name":"Pennsylvania","lat":40.01224,"lng":-76.64249,"zip":"17406","miles_from_dt":12.23},{"city":"Pylesville","state_name":"Maryland","lat":39.69601,"lng":-76.42577,"zip":"21132","miles_from_dt":12.45},{"city":"York","state_name":"Pennsylvania","lat":39.96008,"lng":-76.7301,"zip":"17405","miles_from_dt":12.63},{"city":"York","state_name":"Pennsylvania","lat":39.95893,"lng":-76.73359,"zip":"17401","miles_from_dt":12.73},{"city":"Glen Rock","state_name":"Pennsylvania","lat":39.77934,"lng":-76.75373,"zip":"17327","miles_from_dt":12.76},{"city":"Holtwood","state_name":"Pennsylvania","lat":39.85731,"lng":-76.2923,"zip":"17532","miles_from_dt":12.91},{"city":"Columbia","state_name":"Pennsylvania","lat":40.04,"lng":-76.48558,"zip":"17512","miles_from_dt":13},{"city":"Delta","state_name":"Pennsylvania","lat":39.75469,"lng":-76.32852,"zip":"17314","miles_from_dt":13.01},{"city":"White Hall","state_name":"Maryland","lat":39.65983,"lng":-76.56475,"zip":"21161","miles_from_dt":13.59},{"city":"Lancaster","state_name":"Pennsylvania","lat":40.01,"lng":-76.37219,"zip":"17611","miles_from_dt":13.73},{"city":"York New Salem","state_name":"Pennsylvania","lat":39.90258,"lng":-76.78797,"zip":"17371","miles_from_dt":13.83},{"city":"Mountville","state_name":"Pennsylvania","lat":40.03923,"lng":-76.42584,"zip":"17554","miles_from_dt":13.94},{"city":"Lancaster","state_name":"Pennsylvania","lat":40.0127,"lng":-76.35287,"zip":"17603","miles_from_dt":14.54},{"city":"Freeland","state_name":"Maryland","lat":39.69296,"lng":-76.71567,"zip":"21053","miles_from_dt":14.77},{"city":"Marietta","state_name":"Pennsylvania","lat":40.07056,"lng":-76.58436,"zip":"17547","miles_from_dt":15.07},{"city":"Drumore","state_name":"Pennsylvania","lat":39.80519,"lng":-76.25932,"zip":"17518","miles_from_dt":15.08},{"city":"Emigsville","state_name":"Pennsylvania","lat":40.01847,"lng":-76.7265,"zip":"17318","miles_from_dt":15.16},{"city":"York","state_name":"Pennsylvania","lat":39.93451,"lng":-76.80203,"zip":"17408","miles_from_dt":15.2},{"city":"Silver Spring","state_name":"Pennsylvania","lat":40.06372,"lng":-76.43579,"zip":"17575","miles_from_dt":15.3},{"city":"Maytown","state_name":"Pennsylvania","lat":40.07492,"lng":-76.58339,"zip":"17550","miles_from_dt":15.36},{"city":"Mount Wolf","state_name":"Pennsylvania","lat":40.04927,"lng":-76.68247,"zip":"17347","miles_from_dt":15.49},{"city":"Whiteford","state_name":"Maryland","lat":39.70728,"lng":-76.30754,"zip":"21160","miles_from_dt":15.85},{"city":"Bausman","state_name":"Pennsylvania","lat":40.02448,"lng":-76.32855,"zip":"17504","miles_from_dt":16.01},{"city":"Willow Street","state_name":"Pennsylvania","lat":39.95981,"lng":-76.26463,"zip":"17584","miles_from_dt":16.07},{"city":"Parkton","state_name":"Maryland","lat":39.64723,"lng":-76.67703,"zip":"21120","miles_from_dt":16.23},{"city":"York","state_name":"Pennsylvania","lat":40.00496,"lng":-76.77217,"zip":"17404","miles_from_dt":16.28},{"city":"Lancaster","state_name":"Pennsylvania","lat":40.05004,"lng":-76.36006,"zip":"17607","miles_from_dt":16.33},{"city":"Codorus","state_name":"Pennsylvania","lat":39.81709,"lng":-76.84191,"zip":"17311","miles_from_dt":16.53},{"city":"Street","state_name":"Maryland","lat":39.65314,"lng":-76.36087,"zip":"21154","miles_from_dt":16.76},{"city":"New Providence","state_name":"Pennsylvania","lat":39.91117,"lng":-76.22712,"zip":"17560","miles_from_dt":16.82},{"city":"Jarrettsville","state_name":"Maryland","lat":39.61659,"lng":-76.46317,"zip":"21084","miles_from_dt":16.92},{"city":"Refton","state_name":"Pennsylvania","lat":39.94806,"lng":-76.23416,"zip":"17568","miles_from_dt":17.22},{"city":"Landisville","state_name":"Pennsylvania","lat":40.08804,"lng":-76.41528,"zip":"17538","miles_from_dt":17.26},{"city":"Lancaster","state_name":"Pennsylvania","lat":40.04,"lng":-76.31219,"zip":"17622","miles_from_dt":17.38},{"city":"Lancaster","state_name":"Pennsylvania","lat":40.04002,"lng":-76.31005,"zip":"17608","miles_from_dt":17.46},{"city":"Lancaster","state_name":"Pennsylvania","lat":40.0577,"lng":-76.33731,"zip":"17604","miles_from_dt":17.46},{"city":"Mount Joy","state_name":"Pennsylvania","lat":40.10935,"lng":-76.51174,"zip":"17552","miles_from_dt":17.56},{"city":"Spring Grove","state_name":"Pennsylvania","lat":39.85088,"lng":-76.86872,"zip":"17362","miles_from_dt":17.74},{"city":"Lancaster","state_name":"Pennsylvania","lat":40.04187,"lng":-76.30012,"zip":"17699","miles_from_dt":17.92},{"city":"Glenville","state_name":"Pennsylvania","lat":39.76295,"lng":-76.85374,"zip":"17329","miles_from_dt":18.11},{"city":"Lampeter","state_name":"Pennsylvania","lat":39.98673,"lng":-76.23869,"zip":"17537","miles_from_dt":18.17},{"city":"Bainbridge","state_name":"Pennsylvania","lat":40.10081,"lng":-76.66732,"zip":"17502","miles_from_dt":18.32},{"city":"Lineboro","state_name":"Maryland","lat":39.71748,"lng":-76.83,"zip":"21088","miles_from_dt":18.36},{"city":"Manchester","state_name":"Pennsylvania","lat":40.07929,"lng":-76.72812,"zip":"17345","miles_from_dt":18.53},{"city":"Rheems","state_name":"Pennsylvania","lat":40.12574,"lng":-76.57035,"zip":"17570","miles_from_dt":18.74},{"city":"Lancaster","state_name":"Pennsylvania","lat":40.01486,"lng":-76.24632,"zip":"17602","miles_from_dt":18.87},{"city":"Lancaster","state_name":"Pennsylvania","lat":40.07296,"lng":-76.31457,"zip":"17601","miles_from_dt":19.03},{"city":"East Petersburg","state_name":"Pennsylvania","lat":40.09813,"lng":-76.34897,"zip":"17520","miles_from_dt":19.44},{"city":"Monkton","state_name":"Maryland","lat":39.57568,"lng":-76.58089,"zip":"21111","miles_from_dt":19.46},{"city":"Peach Bottom","state_name":"Pennsylvania","lat":39.76404,"lng":-76.18649,"zip":"17563","miles_from_dt":19.59},{"city":"Thomasville","state_name":"Pennsylvania","lat":39.92985,"lng":-76.90049,"zip":"17364","miles_from_dt":20.08},{"city":"Forest Hill","state_name":"Maryland","lat":39.58569,"lng":-76.39228,"zip":"21050","miles_from_dt":20.11},{"city":"Strasburg","state_name":"Pennsylvania","lat":39.95938,"lng":-76.18032,"zip":"17579","miles_from_dt":20.17},{"city":"Manchester","state_name":"Maryland","lat":39.68732,"lng":-76.84564,"zip":"21102","miles_from_dt":20.2},{"city":"Lancaster","state_name":"Pennsylvania","lat":40.05,"lng":-76.25005,"zip":"17605","miles_from_dt":20.23},{"city":"Quarryville","state_name":"Pennsylvania","lat":39.86924,"lng":-76.1476,"zip":"17566","miles_from_dt":20.63},{"city":"Dover","state_name":"Pennsylvania","lat":40.01859,"lng":-76.8685,"zip":"17315","miles_from_dt":20.98},{"city":"Lancaster","state_name":"Pennsylvania","lat":40.11174,"lng":-76.30401,"zip":"17606","miles_from_dt":21.52},{"city":"Witmer","state_name":"Pennsylvania","lat":40.04718,"lng":-76.21116,"zip":"17585","miles_from_dt":21.7},{"city":"Smoketown","state_name":"Pennsylvania","lat":40.03561,"lng":-76.19782,"zip":"17576","miles_from_dt":21.8},{"city":"Elizabethtown","state_name":"Pennsylvania","lat":40.16677,"lng":-76.60823,"zip":"17022","miles_from_dt":21.82},{"city":"Darlington","state_name":"Maryland","lat":39.64905,"lng":-76.22261,"zip":"21034","miles_from_dt":21.9},{"city":"York Haven","state_name":"Pennsylvania","lat":40.1174,"lng":-76.78124,"zip":"17370","miles_from_dt":22.3},{"city":"Sparks Glencoe","state_name":"Maryland","lat":39.54905,"lng":-76.68107,"zip":"21152","miles_from_dt":22.53},{"city":"Manheim","state_name":"Pennsylvania","lat":40.17307,"lng":-76.42792,"zip":"17545","miles_from_dt":22.64},{"city":"Lancaster","state_name":"Pennsylvania","lat":40.02885,"lng":-76.16733,"zip":"17573","miles_from_dt":22.9},{"city":"Conowingo","state_name":"Maryland","lat":39.68327,"lng":-76.16662,"zip":"21918","miles_from_dt":22.94},{"city":"Ronks","state_name":"Pennsylvania","lat":40.00937,"lng":-76.15105,"zip":"17572","miles_from_dt":23},{"city":"Bird In Hand","state_name":"Pennsylvania","lat":40.05915,"lng":-76.18999,"zip":"17505","miles_from_dt":23.09},{"city":"Fallston","state_name":"Maryland","lat":39.52818,"lng":-76.43781,"zip":"21047","miles_from_dt":23.17},{"city":"Hampstead","state_name":"Maryland","lat":39.61746,"lng":-76.84351,"zip":"21074","miles_from_dt":23.23},{"city":"Hanover","state_name":"Pennsylvania","lat":39.80769,"lng":-76.97011,"zip":"17335","miles_from_dt":23.37},{"city":"Baldwin","state_name":"Maryland","lat":39.51123,"lng":-76.49124,"zip":"21013","miles_from_dt":23.86},{"city":"Abbottstown","state_name":"Pennsylvania","lat":39.89119,"lng":-76.9815,"zip":"17301","miles_from_dt":23.86},{"city":"Hanover","state_name":"Pennsylvania","lat":39.8,"lng":-76.98219,"zip":"17334","miles_from_dt":24.09},{"city":"Hanover","state_name":"Pennsylvania","lat":39.79085,"lng":-76.98028,"zip":"17331","miles_from_dt":24.1},{"city":"Bel Air","state_name":"Maryland","lat":39.53606,"lng":-76.35164,"zip":"21014","miles_from_dt":24.11},{"city":"Upperco","state_name":"Maryland","lat":39.57183,"lng":-76.80597,"zip":"21155","miles_from_dt":24.31},{"city":"Hanover","state_name":"Pennsylvania","lat":39.82421,"lng":-76.9907,"zip":"17333","miles_from_dt":24.33},{"city":"Phoenix","state_name":"Maryland","lat":39.50338,"lng":-76.57486,"zip":"21131","miles_from_dt":24.38},{"city":"Hanover","state_name":"Pennsylvania","lat":39.7981,"lng":-76.9882,"zip":"17332","miles_from_dt":24.42},{"city":"Kirkwood","state_name":"Pennsylvania","lat":39.84345,"lng":-76.07316,"zip":"17536","miles_from_dt":24.58},{"city":"Bart","state_name":"Pennsylvania","lat":39.93825,"lng":-76.08325,"zip":"17503","miles_from_dt":24.68},{"city":"Bel Air","state_name":"Maryland","lat":39.54691,"lng":-76.29619,"zip":"21015","miles_from_dt":24.81},{"city":"Talmage","state_name":"Pennsylvania","lat":40.11651,"lng":-76.21281,"zip":"17580","miles_from_dt":24.84},{"city":"Leola","state_name":"Pennsylvania","lat":40.09877,"lng":-76.1888,"zip":"17540","miles_from_dt":24.89},{"city":"Lawn","state_name":"Pennsylvania","lat":40.21667,"lng":-76.5395,"zip":"17041","miles_from_dt":24.92},{"city":"Paradise","state_name":"Pennsylvania","lat":39.97636,"lng":-76.09264,"zip":"17562","miles_from_dt":24.94},{"city":"Etters","state_name":"Pennsylvania","lat":40.1585,"lng":-76.79468,"zip":"17319","miles_from_dt":25.03},{"city":"Rossville","state_name":"Pennsylvania","lat":40.06587,"lng":-76.92031,"zip":"17358","miles_from_dt":25.08},{"city":"Brownstown","state_name":"Pennsylvania","lat":40.12455,"lng":-76.21394,"zip":"17508","miles_from_dt":25.2},{"city":"Churchville","state_name":"Maryland","lat":39.56832,"lng":-76.24162,"zip":"21028","miles_from_dt":25.24},{"city":"Butler","state_name":"Maryland","lat":39.52368,"lng":-76.73984,"zip":"21023","miles_from_dt":25.36},{"city":"Middletown","state_name":"Pennsylvania","lat":40.19437,"lng":-76.72659,"zip":"17057","miles_from_dt":25.49},{"city":"Benson","state_name":"Maryland","lat":39.50417,"lng":-76.38647,"zip":"21018","miles_from_dt":25.5},{"city":"Wellsville","state_name":"Pennsylvania","lat":40.05696,"lng":-76.9392,"zip":"17365","miles_from_dt":25.56},{"city":"Penryn","state_name":"Pennsylvania","lat":40.20546,"lng":-76.37044,"zip":"17564","miles_from_dt":25.68},{"city":"Intercourse","state_name":"Pennsylvania","lat":40.03665,"lng":-76.11214,"zip":"17534","miles_from_dt":25.71},{"city":"Lititz","state_name":"Pennsylvania","lat":40.18217,"lng":-76.30038,"zip":"17543","miles_from_dt":25.75},{"city":"Hunt Valley","state_name":"Maryland","lat":39.4939,"lng":-76.66119,"zip":"21065","miles_from_dt":25.83},{"city":"McSherrystown","state_name":"Pennsylvania","lat":39.80535,"lng":-77.01887,"zip":"17344","miles_from_dt":25.96},{"city":"Hydes","state_name":"Maryland","lat":39.48284,"lng":-76.46735,"zip":"21082","miles_from_dt":25.96},{"city":"Nottingham","state_name":"Pennsylvania","lat":39.75175,"lng":-76.06576,"zip":"19362","miles_from_dt":25.98},{"city":"East Berlin","state_name":"Pennsylvania","lat":39.96721,"lng":-77.00226,"zip":"17316","miles_from_dt":25.99},{"city":"Elm","state_name":"Pennsylvania","lat":40.20369,"lng":-76.34792,"zip":"17521","miles_from_dt":26},{"city":"Cockeysville","state_name":"Maryland","lat":39.49002,"lng":-76.6659,"zip":"21030","miles_from_dt":26.16},{"city":"Hunt Valley","state_name":"Maryland","lat":39.4874,"lng":-76.65792,"zip":"21031","miles_from_dt":26.22},{"city":"Long Green","state_name":"Maryland","lat":39.4753,"lng":-76.52858,"zip":"21092","miles_from_dt":26.23},{"city":"Gordonville","state_name":"Pennsylvania","lat":40.04036,"lng":-76.10008,"zip":"17529","miles_from_dt":26.39},{"city":"Colora","state_name":"Maryland","lat":39.67106,"lng":-76.09823,"zip":"21917","miles_from_dt":26.51},{"city":"Lewisberry","state_name":"Pennsylvania","lat":40.13438,"lng":-76.88188,"zip":"17339","miles_from_dt":26.62},{"city":"Fork","state_name":"Maryland","lat":39.4721,"lng":-76.45388,"zip":"21051","miles_from_dt":26.8},{"city":"Mount Gretna","state_name":"Pennsylvania","lat":40.24135,"lng":-76.47553,"zip":"17064","miles_from_dt":26.81},{"city":"Christiana","state_name":"Pennsylvania","lat":39.90923,"lng":-76.03073,"zip":"17509","miles_from_dt":27.07},{"city":"Akron","state_name":"Pennsylvania","lat":40.15697,"lng":-76.20532,"zip":"17501","miles_from_dt":27.18},{"city":"Boring","state_name":"Maryland","lat":39.52394,"lng":-76.8169,"zip":"21020","miles_from_dt":27.36},{"city":"Highspire","state_name":"Pennsylvania","lat":40.20831,"lng":-76.78489,"zip":"17034","miles_from_dt":27.71},{"city":"Glen Arm","state_name":"Maryland","lat":39.45111,"lng":-76.50606,"zip":"21057","miles_from_dt":27.94},{"city":"Kinzers","state_name":"Pennsylvania","lat":40.01224,"lng":-76.03813,"zip":"17535","miles_from_dt":28.53},{"city":"Havre De Grace","state_name":"Maryland","lat":39.56911,"lng":-76.14776,"zip":"21078","miles_from_dt":28.57},{"city":"Rising Sun","state_name":"Maryland","lat":39.68931,"lng":-76.03886,"zip":"21911","miles_from_dt":28.8},{"city":"Kingsville","state_name":"Maryland","lat":39.44728,"lng":-76.41583,"zip":"21087","miles_from_dt":28.87},{"city":"Hershey","state_name":"Pennsylvania","lat":40.26829,"lng":-76.62754,"zip":"17033","miles_from_dt":28.9},{"city":"New Oxford","state_name":"Pennsylvania","lat":39.88918,"lng":-77.07896,"zip":"17350","miles_from_dt":29},{"city":"Port Deposit","state_name":"Maryland","lat":39.62303,"lng":-76.07812,"zip":"21904","miles_from_dt":29.15},{"city":"Reisterstown","state_name":"Maryland","lat":39.48851,"lng":-76.80888,"zip":"21136","miles_from_dt":29.22},{"city":"Campbelltown","state_name":"Pennsylvania","lat":40.27809,"lng":-76.58335,"zip":"17010","miles_from_dt":29.27},{"city":"Ephrata","state_name":"Pennsylvania","lat":40.17499,"lng":-76.17009,"zip":"17522","miles_from_dt":29.34},{"city":"Lutherville Timonium","state_name":"Maryland","lat":39.43773,"lng":-76.64318,"zip":"21093","miles_from_dt":29.39},{"city":"Glyndon","state_name":"Maryland","lat":39.48516,"lng":-76.8081,"zip":"21071","miles_from_dt":29.4},{"city":"Abingdon","state_name":"Maryland","lat":39.47032,"lng":-76.29378,"zip":"21009","miles_from_dt":29.52},{"city":"New Cumberland","state_name":"Pennsylvania","lat":40.20217,"lng":-76.86377,"zip":"17070","miles_from_dt":29.6},{"city":"Cornwall","state_name":"Pennsylvania","lat":40.27322,"lng":-76.40705,"zip":"17016","miles_from_dt":29.61},{"city":"Aberdeen","state_name":"Maryland","lat":39.51077,"lng":-76.20274,"zip":"21001","miles_from_dt":29.66},{"city":"Hopeland","state_name":"Pennsylvania","lat":40.23452,"lng":-76.26784,"zip":"17533","miles_from_dt":29.75},{"city":"Upper Falls","state_name":"Maryland","lat":39.43752,"lng":-76.397,"zip":"21156","miles_from_dt":29.76},{"city":"New Holland","state_name":"Pennsylvania","lat":40.10328,"lng":-76.07543,"zip":"17557","miles_from_dt":29.79},{"city":"Joppa","state_name":"Maryland","lat":39.44462,"lng":-76.35601,"zip":"21085","miles_from_dt":29.91},{"city":"Harrisburg","state_name":"Pennsylvania","lat":40.23032,"lng":-76.82083,"zip":"17113","miles_from_dt":29.97}],"targetCityZipCode":"17322","targetCityState":"Pennsylvania"},"__N_SSG":true}