{"pageProps":{"stateName":"Pennsylvania","cityName":"fogelsville","nearbyCities":[{"city":"Allentown","state_name":"Pennsylvania","lat":40.58427,"lng":-75.62479,"zip":"18195","miles_from_dt":2.18},{"city":"Breinigsville","state_name":"Pennsylvania","lat":40.554,"lng":-75.65361,"zip":"18031","miles_from_dt":2.82},{"city":"Orefield","state_name":"Pennsylvania","lat":40.626,"lng":-75.616,"zip":"18069","miles_from_dt":3.36},{"city":"Maxatawny","state_name":"Pennsylvania","lat":40.54655,"lng":-75.70023,"zip":"19538","miles_from_dt":3.79},{"city":"Allentown","state_name":"Pennsylvania","lat":40.57472,"lng":-75.59542,"zip":"18106","miles_from_dt":3.85},{"city":"Trexlertown","state_name":"Pennsylvania","lat":40.55398,"lng":-75.59588,"zip":"18087","miles_from_dt":4.53},{"city":"Schnecksville","state_name":"Pennsylvania","lat":40.67181,"lng":-75.62096,"zip":"18078","miles_from_dt":5.82},{"city":"Allentown","state_name":"Pennsylvania","lat":40.61122,"lng":-75.54699,"zip":"18104","miles_from_dt":6.27},{"city":"East Texas","state_name":"Pennsylvania","lat":40.54803,"lng":-75.56029,"zip":"18046","miles_from_dt":6.32},{"city":"New Tripoli","state_name":"Pennsylvania","lat":40.6635,"lng":-75.74492,"zip":"18066","miles_from_dt":6.4},{"city":"Topton","state_name":"Pennsylvania","lat":40.50316,"lng":-75.70135,"zip":"19562","miles_from_dt":6.57},{"city":"Kutztown","state_name":"Pennsylvania","lat":40.54012,"lng":-75.77675,"zip":"19530","miles_from_dt":7},{"city":"Mertztown","state_name":"Pennsylvania","lat":40.49071,"lng":-75.68823,"zip":"19539","miles_from_dt":7.24},{"city":"Macungie","state_name":"Pennsylvania","lat":40.5035,"lng":-75.57886,"zip":"18062","miles_from_dt":7.7},{"city":"Neffs","state_name":"Pennsylvania","lat":40.69814,"lng":-75.61086,"zip":"18065","miles_from_dt":7.71},{"city":"Alburtis","state_name":"Pennsylvania","lat":40.47288,"lng":-75.64395,"zip":"18011","miles_from_dt":8.43},{"city":"Bowers","state_name":"Pennsylvania","lat":40.48473,"lng":-75.74381,"zip":"19511","miles_from_dt":8.63},{"city":"Coplay","state_name":"Pennsylvania","lat":40.68203,"lng":-75.54638,"zip":"18037","miles_from_dt":8.67},{"city":"Germansville","state_name":"Pennsylvania","lat":40.71802,"lng":-75.70999,"zip":"18053","miles_from_dt":8.88},{"city":"Lyon Station","state_name":"Pennsylvania","lat":40.48069,"lng":-75.75891,"zip":"19536","miles_from_dt":9.28},{"city":"Whitehall","state_name":"Pennsylvania","lat":40.65668,"lng":-75.50443,"zip":"18052","miles_from_dt":9.44},{"city":"Emmaus","state_name":"Pennsylvania","lat":40.53396,"lng":-75.49794,"zip":"18099","miles_from_dt":9.68},{"city":"Allentown","state_name":"Pennsylvania","lat":40.57223,"lng":-75.48138,"zip":"18103","miles_from_dt":9.73},{"city":"Allentown","state_name":"Pennsylvania","lat":40.60792,"lng":-75.47613,"zip":"18102","miles_from_dt":9.93},{"city":"Slatington","state_name":"Pennsylvania","lat":40.73618,"lng":-75.63227,"zip":"18080","miles_from_dt":9.95},{"city":"Lehigh Valley","state_name":"Pennsylvania","lat":40.58033,"lng":-75.47498,"zip":"18001","miles_from_dt":10},{"city":"Emmaus","state_name":"Pennsylvania","lat":40.51912,"lng":-75.50018,"zip":"18049","miles_from_dt":10.06},{"city":"Allentown","state_name":"Pennsylvania","lat":40.59981,"lng":-75.47029,"zip":"18105","miles_from_dt":10.2},{"city":"Emmaus","state_name":"Pennsylvania","lat":40.53845,"lng":-75.48389,"zip":"18098","miles_from_dt":10.23},{"city":"Allentown","state_name":"Pennsylvania","lat":40.60301,"lng":-75.4698,"zip":"18101","miles_from_dt":10.24},{"city":"Slatedale","state_name":"Pennsylvania","lat":40.74415,"lng":-75.65754,"zip":"18079","miles_from_dt":10.36},{"city":"Old Zionsville","state_name":"Pennsylvania","lat":40.48776,"lng":-75.52217,"zip":"18068","miles_from_dt":10.47},{"city":"Kempton","state_name":"Pennsylvania","lat":40.63387,"lng":-75.86158,"zip":"19529","miles_from_dt":10.74},{"city":"Laurys Station","state_name":"Pennsylvania","lat":40.7233,"lng":-75.53644,"zip":"18059","miles_from_dt":11.16},{"city":"Catasauqua","state_name":"Pennsylvania","lat":40.65694,"lng":-75.46776,"zip":"18032","miles_from_dt":11.2},{"city":"Lenhartsville","state_name":"Pennsylvania","lat":40.57813,"lng":-75.88111,"zip":"19534","miles_from_dt":11.47},{"city":"Treichlers","state_name":"Pennsylvania","lat":40.73867,"lng":-75.54757,"zip":"18086","miles_from_dt":11.71},{"city":"Zionsville","state_name":"Pennsylvania","lat":40.46844,"lng":-75.51372,"zip":"18092","miles_from_dt":11.74},{"city":"Hereford","state_name":"Pennsylvania","lat":40.44798,"lng":-75.54911,"zip":"18056","miles_from_dt":11.76},{"city":"Allentown","state_name":"Pennsylvania","lat":40.63673,"lng":-75.44043,"zip":"18109","miles_from_dt":12.13},{"city":"Virginville","state_name":"Pennsylvania","lat":40.51926,"lng":-75.87403,"zip":"19564","miles_from_dt":12.19},{"city":"Lehigh Valley","state_name":"Pennsylvania","lat":40.64472,"lng":-75.43468,"zip":"18003","miles_from_dt":12.56},{"city":"Cherryville","state_name":"Pennsylvania","lat":40.75053,"lng":-75.54148,"zip":"18035","miles_from_dt":12.57},{"city":"Ashfield","state_name":"Pennsylvania","lat":40.77292,"lng":-75.71883,"zip":"18212","miles_from_dt":12.67},{"city":"Fleetwood","state_name":"Pennsylvania","lat":40.44948,"lng":-75.81676,"zip":"19522","miles_from_dt":12.81},{"city":"Northampton","state_name":"Pennsylvania","lat":40.71792,"lng":-75.47937,"zip":"18067","miles_from_dt":12.93},{"city":"Palm","state_name":"Pennsylvania","lat":40.4317,"lng":-75.53884,"zip":"18070","miles_from_dt":13},{"city":"Limeport","state_name":"Pennsylvania","lat":40.50754,"lng":-75.44338,"zip":"18060","miles_from_dt":13.06},{"city":"Walnutport","state_name":"Pennsylvania","lat":40.76578,"lng":-75.5576,"zip":"18088","miles_from_dt":13.1},{"city":"Andreas","state_name":"Pennsylvania","lat":40.74315,"lng":-75.82314,"zip":"18211","miles_from_dt":13.25},{"city":"Barto","state_name":"Pennsylvania","lat":40.40699,"lng":-75.58965,"zip":"19504","miles_from_dt":13.49},{"city":"Center Valley","state_name":"Pennsylvania","lat":40.54182,"lng":-75.41654,"zip":"18034","miles_from_dt":13.52},{"city":"Bally","state_name":"Pennsylvania","lat":40.40808,"lng":-75.5755,"zip":"19503","miles_from_dt":13.66},{"city":"Bethlehem","state_name":"Pennsylvania","lat":40.62766,"lng":-75.39538,"zip":"18018","miles_from_dt":14.32},{"city":"Bowmanstown","state_name":"Pennsylvania","lat":40.80408,"lng":-75.66336,"zip":"18030","miles_from_dt":14.49},{"city":"East Greenville","state_name":"Pennsylvania","lat":40.41742,"lng":-75.51306,"zip":"18041","miles_from_dt":14.56},{"city":"Bechtelsville","state_name":"Pennsylvania","lat":40.3795,"lng":-75.62331,"zip":"19505","miles_from_dt":14.96},{"city":"Bethlehem","state_name":"Pennsylvania","lat":40.66069,"lng":-75.38739,"zip":"18017","miles_from_dt":15.26},{"city":"Bethlehem","state_name":"Pennsylvania","lat":40.62236,"lng":-75.37516,"zip":"18016","miles_from_dt":15.32},{"city":"Blandon","state_name":"Pennsylvania","lat":40.44551,"lng":-75.88179,"zip":"19510","miles_from_dt":15.38},{"city":"Aquashicola","state_name":"Pennsylvania","lat":40.81135,"lng":-75.59158,"zip":"18012","miles_from_dt":15.47},{"city":"Oley","state_name":"Pennsylvania","lat":40.38315,"lng":-75.76644,"zip":"19547","miles_from_dt":15.52},{"city":"Bethlehem","state_name":"Pennsylvania","lat":40.62507,"lng":-75.3712,"zip":"18025","miles_from_dt":15.55},{"city":"Bethlehem","state_name":"Pennsylvania","lat":40.5887,"lng":-75.36786,"zip":"18015","miles_from_dt":15.59},{"city":"Coopersburg","state_name":"Pennsylvania","lat":40.50925,"lng":-75.38891,"zip":"18036","miles_from_dt":15.62},{"city":"Lehigh Valley","state_name":"Pennsylvania","lat":40.66966,"lng":-75.38022,"zip":"18002","miles_from_dt":15.81},{"city":"Parryville","state_name":"Pennsylvania","lat":40.82361,"lng":-75.66879,"zip":"18244","miles_from_dt":15.84},{"city":"Spinnerstown","state_name":"Pennsylvania","lat":40.43875,"lng":-75.4362,"zip":"18968","miles_from_dt":16.09},{"city":"Zionhill","state_name":"Pennsylvania","lat":40.48373,"lng":-75.39386,"zip":"18981","miles_from_dt":16.14},{"city":"New Ringgold","state_name":"Pennsylvania","lat":40.69932,"lng":-75.94656,"zip":"17960","miles_from_dt":16.52},{"city":"Shoemakersville","state_name":"Pennsylvania","lat":40.49335,"lng":-75.94993,"zip":"19555","miles_from_dt":16.57},{"city":"Lehighton","state_name":"Pennsylvania","lat":40.83603,"lng":-75.692,"zip":"18235","miles_from_dt":16.76},{"city":"Boyertown","state_name":"Pennsylvania","lat":40.35,"lng":-75.67937,"zip":"19512","miles_from_dt":16.86},{"city":"Danielsville","state_name":"Pennsylvania","lat":40.79574,"lng":-75.48246,"zip":"18038","miles_from_dt":16.87},{"city":"Palmerton","state_name":"Pennsylvania","lat":40.83098,"lng":-75.57843,"zip":"18071","miles_from_dt":16.95},{"city":"Pennsburg","state_name":"Pennsylvania","lat":40.38378,"lng":-75.47702,"zip":"18073","miles_from_dt":17.54},{"city":"New Berlinville","state_name":"Pennsylvania","lat":40.3411,"lng":-75.62977,"zip":"19545","miles_from_dt":17.55},{"city":"Milford Square","state_name":"Pennsylvania","lat":40.43444,"lng":-75.39714,"zip":"18935","miles_from_dt":17.86},{"city":"Bath","state_name":"Pennsylvania","lat":40.7654,"lng":-75.40923,"zip":"18014","miles_from_dt":17.86},{"city":"Hamburg","state_name":"Pennsylvania","lat":40.5465,"lng":-75.99802,"zip":"19526","miles_from_dt":17.87},{"city":"Temple","state_name":"Pennsylvania","lat":40.40053,"lng":-75.88993,"zip":"19560","miles_from_dt":17.88},{"city":"Red Hill","state_name":"Pennsylvania","lat":40.37382,"lng":-75.48154,"zip":"18076","miles_from_dt":17.99},{"city":"Sassamansville","state_name":"Pennsylvania","lat":40.34036,"lng":-75.58189,"zip":"19472","miles_from_dt":18.04},{"city":"Bethlehem","state_name":"Pennsylvania","lat":40.67267,"lng":-75.32692,"zip":"18020","miles_from_dt":18.54},{"city":"Summit Hill","state_name":"Pennsylvania","lat":40.81744,"lng":-75.86145,"zip":"18250","miles_from_dt":18.57},{"city":"Limekiln","state_name":"Pennsylvania","lat":40.3394,"lng":-75.79537,"zip":"19535","miles_from_dt":18.89},{"city":"Port Clinton","state_name":"Pennsylvania","lat":40.58176,"lng":-76.02672,"zip":"19549","miles_from_dt":19.09},{"city":"Frederick","state_name":"Pennsylvania","lat":40.32788,"lng":-75.56518,"zip":"19435","miles_from_dt":19.09},{"city":"Hellertown","state_name":"Pennsylvania","lat":40.58794,"lng":-75.29929,"zip":"18055","miles_from_dt":19.2},{"city":"Centerport","state_name":"Pennsylvania","lat":40.48686,"lng":-76.00526,"zip":"19516","miles_from_dt":19.42},{"city":"Trumbauersville","state_name":"Pennsylvania","lat":40.41212,"lng":-75.38129,"zip":"18970","miles_from_dt":19.48},{"city":"Earlville","state_name":"Pennsylvania","lat":40.315,"lng":-75.73839,"zip":"19519","miles_from_dt":19.65},{"city":"Quakertown","state_name":"Pennsylvania","lat":40.45294,"lng":-75.33833,"zip":"18951","miles_from_dt":19.73},{"city":"Richlandtown","state_name":"Pennsylvania","lat":40.48469,"lng":-75.3141,"zip":"18955","miles_from_dt":19.91},{"city":"Reading","state_name":"Pennsylvania","lat":40.39917,"lng":-75.94596,"zip":"19605","miles_from_dt":20.03},{"city":"Lansford","state_name":"Pennsylvania","lat":40.83515,"lng":-75.87939,"zip":"18232","miles_from_dt":20.11},{"city":"Springtown","state_name":"Pennsylvania","lat":40.56236,"lng":-75.28396,"zip":"18081","miles_from_dt":20.12},{"city":"Gilbertsville","state_name":"Pennsylvania","lat":40.30784,"lng":-75.58591,"zip":"19525","miles_from_dt":20.18},{"city":"Coaldale","state_name":"Pennsylvania","lat":40.81974,"lng":-75.91611,"zip":"18218","miles_from_dt":20.43},{"city":"Green Lane","state_name":"Pennsylvania","lat":40.35321,"lng":-75.43824,"zip":"18054","miles_from_dt":20.44},{"city":"Reading","state_name":"Pennsylvania","lat":40.36608,"lng":-75.91368,"zip":"19612","miles_from_dt":20.5},{"city":"Perkiomenville","state_name":"Pennsylvania","lat":40.31971,"lng":-75.51424,"zip":"18074","miles_from_dt":20.51},{"city":"Reading","state_name":"Pennsylvania","lat":40.3357,"lng":-75.85755,"zip":"19606","miles_from_dt":20.54},{"city":"Mohrsville","state_name":"Pennsylvania","lat":40.47821,"lng":-76.02597,"zip":"19541","miles_from_dt":20.66},{"city":"Reading","state_name":"Pennsylvania","lat":40.35791,"lng":-75.90954,"zip":"19604","miles_from_dt":20.8},{"city":"Leesport","state_name":"Pennsylvania","lat":40.42245,"lng":-75.99021,"zip":"19533","miles_from_dt":20.86},{"city":"Tamaqua","state_name":"Pennsylvania","lat":40.77857,"lng":-75.97893,"zip":"18252","miles_from_dt":20.87},{"city":"Nesquehoning","state_name":"Pennsylvania","lat":40.86279,"lng":-75.84727,"zip":"18240","miles_from_dt":20.88},{"city":"Sumneytown","state_name":"Pennsylvania","lat":40.33258,"lng":-75.45839,"zip":"18084","miles_from_dt":21.05},{"city":"Orwigsburg","state_name":"Pennsylvania","lat":40.64713,"lng":-76.05988,"zip":"17961","miles_from_dt":21.13},{"city":"Nazareth","state_name":"Pennsylvania","lat":40.75755,"lng":-75.31927,"zip":"18064","miles_from_dt":21.34},{"city":"Pine Forge","state_name":"Pennsylvania","lat":40.28274,"lng":-75.69204,"zip":"19548","miles_from_dt":21.53},{"city":"Easton","state_name":"Pennsylvania","lat":40.6919,"lng":-75.27494,"zip":"18045","miles_from_dt":21.54},{"city":"Reading","state_name":"Pennsylvania","lat":40.3526,"lng":-75.9408,"zip":"19601","miles_from_dt":22.14},{"city":"Riegelsville","state_name":"Pennsylvania","lat":40.56603,"lng":-75.24115,"zip":"18077","miles_from_dt":22.34},{"city":"Tylersport","state_name":"Pennsylvania","lat":40.35009,"lng":-75.38443,"zip":"18971","miles_from_dt":22.38},{"city":"Reading","state_name":"Pennsylvania","lat":40.34008,"lng":-75.93014,"zip":"19603","miles_from_dt":22.44},{"city":"Kunkletown","state_name":"Pennsylvania","lat":40.8922,"lng":-75.49094,"zip":"18058","miles_from_dt":22.49},{"city":"Woxall","state_name":"Pennsylvania","lat":40.31151,"lng":-75.44922,"zip":"18979","miles_from_dt":22.55},{"city":"Zieglerville","state_name":"Pennsylvania","lat":40.28817,"lng":-75.50623,"zip":"19492","miles_from_dt":22.69},{"city":"Douglassville","state_name":"Pennsylvania","lat":40.27187,"lng":-75.74981,"zip":"19518","miles_from_dt":22.69},{"city":"Reading","state_name":"Pennsylvania","lat":40.32695,"lng":-75.91701,"zip":"19602","miles_from_dt":22.75},{"city":"Kresgeville","state_name":"Pennsylvania","lat":40.89833,"lng":-75.49104,"zip":"18333","miles_from_dt":22.87},{"city":"Tuscarora","state_name":"Pennsylvania","lat":40.76798,"lng":-76.03827,"zip":"17982","miles_from_dt":23.03},{"city":"Durham","state_name":"Pennsylvania","lat":40.57631,"lng":-75.22419,"zip":"18039","miles_from_dt":23.18},{"city":"Pottstown","state_name":"Pennsylvania","lat":40.25882,"lng":-75.616,"zip":"19464","miles_from_dt":23.27},{"city":"Jim Thorpe","state_name":"Pennsylvania","lat":40.93245,"lng":-75.68247,"zip":"18229","miles_from_dt":23.37},{"city":"Salford","state_name":"Pennsylvania","lat":40.29607,"lng":-75.45339,"zip":"18957","miles_from_dt":23.37},{"city":"Easton","state_name":"Pennsylvania","lat":40.6497,"lng":-75.22376,"zip":"18042","miles_from_dt":23.47},{"city":"Auburn","state_name":"Pennsylvania","lat":40.592,"lng":-76.11212,"zip":"17922","miles_from_dt":23.56},{"city":"Reading","state_name":"Pennsylvania","lat":40.32473,"lng":-75.9411,"zip":"19611","miles_from_dt":23.63},{"city":"Stockertown","state_name":"Pennsylvania","lat":40.75494,"lng":-75.2637,"zip":"18083","miles_from_dt":23.79},{"city":"Shartlesville","state_name":"Pennsylvania","lat":40.51288,"lng":-76.10377,"zip":"19554","miles_from_dt":23.81},{"city":"Tatamy","state_name":"Pennsylvania","lat":40.74174,"lng":-75.25434,"zip":"18085","miles_from_dt":23.82},{"city":"Mary D","state_name":"Pennsylvania","lat":40.76434,"lng":-76.05997,"zip":"17952","miles_from_dt":23.88},{"city":"Sellersville","state_name":"Pennsylvania","lat":40.36376,"lng":-75.32366,"zip":"18960","miles_from_dt":23.97},{"city":"Earlington","state_name":"Pennsylvania","lat":40.32391,"lng":-75.37711,"zip":"18918","miles_from_dt":24.01},{"city":"Salfordville","state_name":"Pennsylvania","lat":40.29393,"lng":-75.43295,"zip":"18958","miles_from_dt":24.03},{"city":"Telford","state_name":"Pennsylvania","lat":40.32644,"lng":-75.37239,"zip":"18969","miles_from_dt":24.03},{"city":"Reading","state_name":"Pennsylvania","lat":40.34015,"lng":-75.97612,"zip":"19610","miles_from_dt":24.03},{"city":"Kintnersville","state_name":"Pennsylvania","lat":40.52926,"lng":-75.2142,"zip":"18930","miles_from_dt":24.1},{"city":"Brockton","state_name":"Pennsylvania","lat":40.75609,"lng":-76.07047,"zip":"17925","miles_from_dt":24.1},{"city":"Wind Gap","state_name":"Pennsylvania","lat":40.82656,"lng":-75.32068,"zip":"18091","miles_from_dt":24.14},{"city":"Spring Mount","state_name":"Pennsylvania","lat":40.28011,"lng":-75.46001,"zip":"19478","miles_from_dt":24.19},{"city":"Easton","state_name":"Pennsylvania","lat":40.69,"lng":-75.22001,"zip":"18043","miles_from_dt":24.26},{"city":"Easton","state_name":"Pennsylvania","lat":40.69004,"lng":-75.22003,"zip":"18044","miles_from_dt":24.26},{"city":"Gilbert","state_name":"Pennsylvania","lat":40.90878,"lng":-75.44076,"zip":"18331","miles_from_dt":24.68},{"city":"Birdsboro","state_name":"Pennsylvania","lat":40.25913,"lng":-75.83984,"zip":"19508","miles_from_dt":24.9},{"city":"Weatherly","state_name":"Pennsylvania","lat":40.93308,"lng":-75.82996,"zip":"18255","miles_from_dt":24.96},{"city":"Cumbola","state_name":"Pennsylvania","lat":40.70867,"lng":-76.11529,"zip":"17930","miles_from_dt":24.99},{"city":"Middleport","state_name":"Pennsylvania","lat":40.74728,"lng":-76.09969,"zip":"17953","miles_from_dt":25.21},{"city":"Schwenksville","state_name":"Pennsylvania","lat":40.25842,"lng":-75.47363,"zip":"19473","miles_from_dt":25.25},{"city":"Reading","state_name":"Pennsylvania","lat":40.32774,"lng":-75.99622,"zip":"19609","miles_from_dt":25.38},{"city":"Easton","state_name":"Pennsylvania","lat":40.7459,"lng":-75.22172,"zip":"18040","miles_from_dt":25.5},{"city":"Reading","state_name":"Pennsylvania","lat":40.29147,"lng":-75.94521,"zip":"19607","miles_from_dt":25.6},{"city":"Bernville","state_name":"Pennsylvania","lat":40.45873,"lng":-76.12379,"zip":"19506","miles_from_dt":25.94},{"city":"Saylorsburg","state_name":"Pennsylvania","lat":40.89848,"lng":-75.36953,"zip":"18353","miles_from_dt":26.08},{"city":"Harleysville","state_name":"Pennsylvania","lat":40.2783,"lng":-75.39044,"zip":"19441","miles_from_dt":26.13},{"city":"Ferndale","state_name":"Pennsylvania","lat":40.52946,"lng":-75.1738,"zip":"18921","miles_from_dt":26.19},{"city":"Quakake","state_name":"Pennsylvania","lat":40.8528,"lng":-76.03011,"zip":"18245","miles_from_dt":26.23},{"city":"Barnesville","state_name":"Pennsylvania","lat":40.80667,"lng":-76.08093,"zip":"18214","miles_from_dt":26.35},{"city":"Harleysville","state_name":"Pennsylvania","lat":40.27018,"lng":-75.39554,"zip":"19438","miles_from_dt":26.46},{"city":"Junedale","state_name":"Pennsylvania","lat":40.9201,"lng":-75.93077,"zip":"18230","miles_from_dt":26.49},{"city":"Perkasie","state_name":"Pennsylvania","lat":40.39252,"lng":-75.23381,"zip":"18944","miles_from_dt":26.6},{"city":"Brodheadsville","state_name":"Pennsylvania","lat":40.9221,"lng":-75.39714,"zip":"18322","miles_from_dt":26.62},{"city":"Lederach","state_name":"Pennsylvania","lat":40.26193,"lng":-75.40575,"zip":"19450","miles_from_dt":26.66},{"city":"Revere","state_name":"Pennsylvania","lat":40.52487,"lng":-75.16262,"zip":"18953","miles_from_dt":26.82},{"city":"Souderton","state_name":"Pennsylvania","lat":40.29759,"lng":-75.33327,"zip":"18964","miles_from_dt":26.88},{"city":"Silverdale","state_name":"Pennsylvania","lat":40.34462,"lng":-75.27033,"zip":"18962","miles_from_dt":26.96},{"city":"Parker Ford","state_name":"Pennsylvania","lat":40.20512,"lng":-75.58758,"zip":"19457","miles_from_dt":27.14},{"city":"Beaver Meadows","state_name":"Pennsylvania","lat":40.94212,"lng":-75.90517,"zip":"18216","miles_from_dt":27.14},{"city":"Pottstown","state_name":"Pennsylvania","lat":40.19981,"lng":-75.6727,"zip":"19465","miles_from_dt":27.21},{"city":"Tresckow","state_name":"Pennsylvania","lat":40.91594,"lng":-75.96563,"zip":"18254","miles_from_dt":27.27},{"city":"Port Carbon","state_name":"Pennsylvania","lat":40.69919,"lng":-76.16536,"zip":"17965","miles_from_dt":27.32},{"city":"Delano","state_name":"Pennsylvania","lat":40.83958,"lng":-76.07509,"zip":"18220","miles_from_dt":27.43},{"city":"Pen Argyl","state_name":"Pennsylvania","lat":40.84548,"lng":-75.25842,"zip":"18072","miles_from_dt":27.47},{"city":"Reading","state_name":"Pennsylvania","lat":40.31401,"lng":-76.03574,"zip":"19608","miles_from_dt":27.51},{"city":"Royersford","state_name":"Pennsylvania","lat":40.20776,"lng":-75.53137,"zip":"19468","miles_from_dt":27.56},{"city":"New Philadelphia","state_name":"Pennsylvania","lat":40.74224,"lng":-76.15141,"zip":"17959","miles_from_dt":27.57},{"city":"Mcadoo","state_name":"Pennsylvania","lat":40.88591,"lng":-76.02582,"zip":"18237","miles_from_dt":27.67},{"city":"Kelayres","state_name":"Pennsylvania","lat":40.90068,"lng":-76.00446,"zip":"18231","miles_from_dt":27.69},{"city":"Ottsville","state_name":"Pennsylvania","lat":40.47167,"lng":-75.16261,"zip":"18942","miles_from_dt":27.72},{"city":"Blooming Glen","state_name":"Pennsylvania","lat":40.35987,"lng":-75.23369,"zip":"18911","miles_from_dt":27.85},{"city":"Effort","state_name":"Pennsylvania","lat":40.96505,"lng":-75.45285,"zip":"18330","miles_from_dt":27.89},{"city":"Cressona","state_name":"Pennsylvania","lat":40.63104,"lng":-76.19273,"zip":"17929","miles_from_dt":27.91},{"city":"Bedminster","state_name":"Pennsylvania","lat":40.42639,"lng":-75.17937,"zip":"18910","miles_from_dt":28.03},{"city":"Mainland","state_name":"Pennsylvania","lat":40.26003,"lng":-75.36002,"zip":"19451","miles_from_dt":28.08},{"city":"Phillipsburg","state_name":"New Jersey","lat":40.7094,"lng":-75.15109,"zip":"08865","miles_from_dt":28.11},{"city":"Albrightsville","state_name":"Pennsylvania","lat":41.00057,"lng":-75.59146,"zip":"18210","miles_from_dt":28.31},{"city":"Wernersville","state_name":"Pennsylvania","lat":40.34231,"lng":-76.08873,"zip":"19565","miles_from_dt":28.33},{"city":"Summit Station","state_name":"Pennsylvania","lat":40.56729,"lng":-76.20207,"zip":"17979","miles_from_dt":28.36},{"city":"Strausstown","state_name":"Pennsylvania","lat":40.49234,"lng":-76.18661,"zip":"19559","miles_from_dt":28.38},{"city":"Martins Creek","state_name":"Pennsylvania","lat":40.78229,"lng":-75.18164,"zip":"18063","miles_from_dt":28.48},{"city":"Dublin","state_name":"Pennsylvania","lat":40.37088,"lng":-75.202,"zip":"18917","miles_from_dt":28.81},{"city":"Saint Peters","state_name":"Pennsylvania","lat":40.17967,"lng":-75.73164,"zip":"19470","miles_from_dt":28.82},{"city":"Geigertown","state_name":"Pennsylvania","lat":40.20116,"lng":-75.84974,"zip":"19523","miles_from_dt":28.83},{"city":"Sciota","state_name":"Pennsylvania","lat":40.92561,"lng":-75.32831,"zip":"18354","miles_from_dt":28.88},{"city":"Schuylkill Haven","state_name":"Pennsylvania","lat":40.58199,"lng":-76.21367,"zip":"17972","miles_from_dt":28.92},{"city":"Upper Black Eddy","state_name":"Pennsylvania","lat":40.53395,"lng":-75.11997,"zip":"18972","miles_from_dt":28.93},{"city":"Skippack","state_name":"Pennsylvania","lat":40.22427,"lng":-75.40507,"zip":"19474","miles_from_dt":28.95},{"city":"Creamery","state_name":"Pennsylvania","lat":40.22035,"lng":-75.41455,"zip":"19430","miles_from_dt":28.95},{"city":"Hazleton","state_name":"Pennsylvania","lat":40.95198,"lng":-75.95395,"zip":"18201","miles_from_dt":29},{"city":"Hatfield","state_name":"Pennsylvania","lat":40.285,"lng":-75.29102,"zip":"19440","miles_from_dt":29.01},{"city":"Saint Clair","state_name":"Pennsylvania","lat":40.72072,"lng":-76.19056,"zip":"17970","miles_from_dt":29.01},{"city":"Hilltown","state_name":"Pennsylvania","lat":40.31952,"lng":-75.24514,"zip":"18927","miles_from_dt":29.1},{"city":"Mohnton","state_name":"Pennsylvania","lat":40.23714,"lng":-75.9658,"zip":"19540","miles_from_dt":29.32},{"city":"Spring City","state_name":"Pennsylvania","lat":40.17028,"lng":-75.60042,"zip":"19475","miles_from_dt":29.43},{"city":"Kulpsville","state_name":"Pennsylvania","lat":40.24412,"lng":-75.33915,"zip":"19443","miles_from_dt":29.61},{"city":"Mahanoy City","state_name":"Pennsylvania","lat":40.82485,"lng":-76.14223,"zip":"17948","miles_from_dt":29.73},{"city":"Line Lexington","state_name":"Pennsylvania","lat":40.29457,"lng":-75.25581,"zip":"18932","miles_from_dt":29.84},{"city":"Milford","state_name":"New Jersey","lat":40.59386,"lng":-75.09569,"zip":"08848","miles_from_dt":29.9},{"city":"Bloomsbury","state_name":"New Jersey","lat":40.64412,"lng":-75.09936,"zip":"08804","miles_from_dt":29.9},{"city":"Robesonia","state_name":"Pennsylvania","lat":40.35951,"lng":-76.14213,"zip":"19551","miles_from_dt":29.94}],"targetCityZipCode":"18051","targetCityState":"Pennsylvania"},"__N_SSG":true}