{"pageProps":{"stateName":"Pennsylvania","cityName":"irvona","nearbyCities":[{"city":"Glen Hope","state_name":"Pennsylvania","lat":40.80204,"lng":-78.49932,"zip":"16645","miles_from_dt":3.38},{"city":"La Jose","state_name":"Pennsylvania","lat":40.78681,"lng":-78.64728,"zip":"15753","miles_from_dt":4.6},{"city":"New Millport","state_name":"Pennsylvania","lat":40.86764,"lng":-78.51991,"zip":"16861","miles_from_dt":4.79},{"city":"Coalport","state_name":"Pennsylvania","lat":40.75272,"lng":-78.50036,"zip":"16627","miles_from_dt":4.98},{"city":"Madera","state_name":"Pennsylvania","lat":40.83058,"lng":-78.45026,"zip":"16661","miles_from_dt":6.16},{"city":"Beccaria","state_name":"Pennsylvania","lat":40.76832,"lng":-78.45128,"zip":"16616","miles_from_dt":6.45},{"city":"Flinton","state_name":"Pennsylvania","lat":40.70657,"lng":-78.5702,"zip":"16640","miles_from_dt":6.91},{"city":"Smokerun","state_name":"Pennsylvania","lat":40.80032,"lng":-78.42766,"zip":"16681","miles_from_dt":7.14},{"city":"Ramey","state_name":"Pennsylvania","lat":40.79414,"lng":-78.40203,"zip":"16671","miles_from_dt":8.51},{"city":"Olanta","state_name":"Pennsylvania","lat":40.91162,"lng":-78.47204,"zip":"16863","miles_from_dt":8.69},{"city":"Westover","state_name":"Pennsylvania","lat":40.75935,"lng":-78.72053,"zip":"16692","miles_from_dt":8.86},{"city":"Glasgow","state_name":"Pennsylvania","lat":40.7094,"lng":-78.4485,"zip":"16644","miles_from_dt":9.02},{"city":"Smithmill","state_name":"Pennsylvania","lat":40.75149,"lng":-78.40254,"zip":"16680","miles_from_dt":9.26},{"city":"Curwensville","state_name":"Pennsylvania","lat":40.94158,"lng":-78.57862,"zip":"16833","miles_from_dt":9.35},{"city":"Houtzdale","state_name":"Pennsylvania","lat":40.8505,"lng":-78.37945,"zip":"16651","miles_from_dt":10.11},{"city":"Saint Boniface","state_name":"Pennsylvania","lat":40.68796,"lng":-78.67905,"zip":"16675","miles_from_dt":10.19},{"city":"Fallentimber","state_name":"Pennsylvania","lat":40.68566,"lng":-78.44912,"zip":"16639","miles_from_dt":10.28},{"city":"Morann","state_name":"Pennsylvania","lat":40.7868,"lng":-78.36707,"zip":"16663","miles_from_dt":10.39},{"city":"Glen Richey","state_name":"Pennsylvania","lat":40.94576,"lng":-78.47494,"zip":"16837","miles_from_dt":10.66},{"city":"Mahaffey","state_name":"Pennsylvania","lat":40.8902,"lng":-78.73733,"zip":"15757","miles_from_dt":10.78},{"city":"Patton","state_name":"Pennsylvania","lat":40.65072,"lng":-78.61974,"zip":"16668","miles_from_dt":11.15},{"city":"Houtzdale","state_name":"Pennsylvania","lat":40.82833,"lng":-78.35235,"zip":"16698","miles_from_dt":11.17},{"city":"Brisbin","state_name":"Pennsylvania","lat":40.83947,"lng":-78.35259,"zip":"16620","miles_from_dt":11.29},{"city":"Blandburg","state_name":"Pennsylvania","lat":40.68367,"lng":-78.41591,"zip":"16619","miles_from_dt":11.49},{"city":"Hastings","state_name":"Pennsylvania","lat":40.68291,"lng":-78.71579,"zip":"16646","miles_from_dt":11.69},{"city":"Burnside","state_name":"Pennsylvania","lat":40.82029,"lng":-78.78739,"zip":"15721","miles_from_dt":11.77},{"city":"Grampian","state_name":"Pennsylvania","lat":40.98923,"lng":-78.64292,"zip":"16838","miles_from_dt":13.27},{"city":"Osceola Mills","state_name":"Pennsylvania","lat":40.87056,"lng":-78.31286,"zip":"16666","miles_from_dt":13.86},{"city":"Emeigh","state_name":"Pennsylvania","lat":40.69039,"lng":-78.78174,"zip":"15738","miles_from_dt":13.98},{"city":"Cherry Tree","state_name":"Pennsylvania","lat":40.73545,"lng":-78.81746,"zip":"15724","miles_from_dt":14.2},{"city":"Dysart","state_name":"Pennsylvania","lat":40.60214,"lng":-78.50161,"zip":"16636","miles_from_dt":14.48},{"city":"Arcadia","state_name":"Pennsylvania","lat":40.79323,"lng":-78.84692,"zip":"15712","miles_from_dt":14.89},{"city":"Hyde","state_name":"Pennsylvania","lat":41.00849,"lng":-78.46269,"zip":"16843","miles_from_dt":14.9},{"city":"Saint Benedict","state_name":"Pennsylvania","lat":40.63075,"lng":-78.73041,"zip":"15773","miles_from_dt":14.97},{"city":"West Decatur","state_name":"Pennsylvania","lat":40.94325,"lng":-78.33609,"zip":"16878","miles_from_dt":15.19},{"city":"Glen Campbell","state_name":"Pennsylvania","lat":40.81042,"lng":-78.8688,"zip":"15742","miles_from_dt":16.01},{"city":"Spangler","state_name":"Pennsylvania","lat":40.63488,"lng":-78.78405,"zip":"15775","miles_from_dt":16.57},{"city":"Sandy Ridge","state_name":"Pennsylvania","lat":40.81507,"lng":-78.2457,"zip":"16677","miles_from_dt":16.67},{"city":"Carrolltown","state_name":"Pennsylvania","lat":40.59833,"lng":-78.72532,"zip":"15722","miles_from_dt":16.69},{"city":"Hillsdale","state_name":"Pennsylvania","lat":40.75285,"lng":-78.87455,"zip":"15746","miles_from_dt":16.73},{"city":"Chest Springs","state_name":"Pennsylvania","lat":40.5651,"lng":-78.60664,"zip":"16624","miles_from_dt":16.82},{"city":"Marsteller","state_name":"Pennsylvania","lat":40.64583,"lng":-78.80509,"zip":"15760","miles_from_dt":16.85},{"city":"Mineral Springs","state_name":"Pennsylvania","lat":40.99902,"lng":-78.36046,"zip":"16855","miles_from_dt":17.01},{"city":"Gipsy","state_name":"Pennsylvania","lat":40.80601,"lng":-78.88924,"zip":"15741","miles_from_dt":17.08},{"city":"Elmora","state_name":"Pennsylvania","lat":40.59871,"lng":-78.75356,"zip":"15737","miles_from_dt":17.47},{"city":"Luthersburg","state_name":"Pennsylvania","lat":41.03137,"lng":-78.71908,"zip":"15848","miles_from_dt":17.52},{"city":"Wallaceton","state_name":"Pennsylvania","lat":40.96648,"lng":-78.29087,"zip":"16876","miles_from_dt":18.04},{"city":"Northern Cambria","state_name":"Pennsylvania","lat":40.63962,"lng":-78.82978,"zip":"15714","miles_from_dt":18.11},{"city":"Bigler","state_name":"Pennsylvania","lat":40.98803,"lng":-78.31208,"zip":"16825","miles_from_dt":18.17},{"city":"Rossiter","state_name":"Pennsylvania","lat":40.87392,"lng":-78.89984,"zip":"15772","miles_from_dt":18.23},{"city":"Tipton","state_name":"Pennsylvania","lat":40.63541,"lng":-78.29685,"zip":"16684","miles_from_dt":18.32},{"city":"Bellwood","state_name":"Pennsylvania","lat":40.6036,"lng":-78.32995,"zip":"16617","miles_from_dt":18.62},{"city":"Ashville","state_name":"Pennsylvania","lat":40.53723,"lng":-78.53214,"zip":"16613","miles_from_dt":18.66},{"city":"Coupon","state_name":"Pennsylvania","lat":40.53759,"lng":-78.51316,"zip":"16629","miles_from_dt":18.75},{"city":"Troutville","state_name":"Pennsylvania","lat":41.02587,"lng":-78.78628,"zip":"15866","miles_from_dt":19.1},{"city":"Tyrone","state_name":"Pennsylvania","lat":40.67056,"lng":-78.24102,"zip":"16686","miles_from_dt":19.36},{"city":"Rockton","state_name":"Pennsylvania","lat":41.08906,"lng":-78.6154,"zip":"15856","miles_from_dt":19.68},{"city":"Alverda","state_name":"Pennsylvania","lat":40.64019,"lng":-78.87193,"zip":"15710","miles_from_dt":19.85},{"city":"Big Run","state_name":"Pennsylvania","lat":40.97017,"lng":-78.87655,"zip":"15715","miles_from_dt":19.9},{"city":"Commodore","state_name":"Pennsylvania","lat":40.70583,"lng":-78.92049,"zip":"15729","miles_from_dt":19.98},{"city":"Loretto","state_name":"Pennsylvania","lat":40.52128,"lng":-78.63218,"zip":"15940","miles_from_dt":20.02},{"city":"Nicktown","state_name":"Pennsylvania","lat":40.6001,"lng":-78.83309,"zip":"15762","miles_from_dt":20.08},{"city":"Altoona","state_name":"Pennsylvania","lat":40.55338,"lng":-78.37283,"zip":"16601","miles_from_dt":20.14},{"city":"Woodland","state_name":"Pennsylvania","lat":41.02743,"lng":-78.31119,"zip":"16881","miles_from_dt":20.17},{"city":"Stump Creek","state_name":"Pennsylvania","lat":41.0157,"lng":-78.83847,"zip":"15863","miles_from_dt":20.38},{"city":"Clearfield","state_name":"Pennsylvania","lat":41.08569,"lng":-78.43317,"zip":"16830","miles_from_dt":20.43},{"city":"Gallitzin","state_name":"Pennsylvania","lat":40.50774,"lng":-78.57146,"zip":"16641","miles_from_dt":20.63},{"city":"Hawk Run","state_name":"Pennsylvania","lat":40.92555,"lng":-78.20214,"zip":"16840","miles_from_dt":20.63},{"city":"Mentcle","state_name":"Pennsylvania","lat":40.63399,"lng":-78.89019,"zip":"15761","miles_from_dt":20.88},{"city":"Philipsburg","state_name":"Pennsylvania","lat":40.86684,"lng":-78.17163,"zip":"16866","miles_from_dt":20.96},{"city":"Shawville","state_name":"Pennsylvania","lat":41.06993,"lng":-78.3605,"zip":"16873","miles_from_dt":21.05},{"city":"Sykesville","state_name":"Pennsylvania","lat":41.0508,"lng":-78.81418,"zip":"15865","miles_from_dt":21.35},{"city":"Colver","state_name":"Pennsylvania","lat":40.54148,"lng":-78.78019,"zip":"15927","miles_from_dt":21.55},{"city":"Altoona","state_name":"Pennsylvania","lat":40.52003,"lng":-78.40017,"zip":"16603","miles_from_dt":21.56},{"city":"Allport","state_name":"Pennsylvania","lat":40.95888,"lng":-78.19875,"zip":"16821","miles_from_dt":21.8},{"city":"Starford","state_name":"Pennsylvania","lat":40.69749,"lng":-78.96255,"zip":"15777","miles_from_dt":22.25},{"city":"Heilwood","state_name":"Pennsylvania","lat":40.62264,"lng":-78.91347,"zip":"15745","miles_from_dt":22.33},{"city":"Rochester Mills","state_name":"Pennsylvania","lat":40.83309,"lng":-78.99009,"zip":"15771","miles_from_dt":22.44},{"city":"Altoona","state_name":"Pennsylvania","lat":40.51491,"lng":-78.37052,"zip":"16602","miles_from_dt":22.54},{"city":"Ebensburg","state_name":"Pennsylvania","lat":40.51612,"lng":-78.76225,"zip":"15931","miles_from_dt":22.6},{"city":"Munson","state_name":"Pennsylvania","lat":40.94673,"lng":-78.17219,"zip":"16860","miles_from_dt":22.66},{"city":"Clymer","state_name":"Pennsylvania","lat":40.6757,"lng":-78.96644,"zip":"15728","miles_from_dt":22.99},{"city":"Morrisdale","state_name":"Pennsylvania","lat":41.00056,"lng":-78.20033,"zip":"16858","miles_from_dt":23.25},{"city":"Punxsutawney","state_name":"Pennsylvania","lat":40.95859,"lng":-78.96974,"zip":"15767","miles_from_dt":23.72},{"city":"Du Bois","state_name":"Pennsylvania","lat":41.12867,"lng":-78.72352,"zip":"15801","miles_from_dt":23.75},{"city":"Cresson","state_name":"Pennsylvania","lat":40.46231,"lng":-78.58003,"zip":"16630","miles_from_dt":23.77},{"city":"Dixonville","state_name":"Pennsylvania","lat":40.72046,"lng":-79.00836,"zip":"15734","miles_from_dt":24.08},{"city":"Lecontes Mills","state_name":"Pennsylvania","lat":41.08186,"lng":-78.28036,"zip":"16850","miles_from_dt":24.09},{"city":"De Lancey","state_name":"Pennsylvania","lat":40.9869,"lng":-78.96072,"zip":"15733","miles_from_dt":24.23},{"city":"Revloc","state_name":"Pennsylvania","lat":40.48986,"lng":-78.76699,"zip":"15948","miles_from_dt":24.33},{"city":"Winburne","state_name":"Pennsylvania","lat":40.97116,"lng":-78.15162,"zip":"16879","miles_from_dt":24.38},{"city":"Marion Center","state_name":"Pennsylvania","lat":40.7721,"lng":-79.03045,"zip":"15759","miles_from_dt":24.6},{"city":"Walston","state_name":"Pennsylvania","lat":40.96375,"lng":-78.98679,"zip":"15781","miles_from_dt":24.68},{"city":"Kylertown","state_name":"Pennsylvania","lat":40.99941,"lng":-78.16439,"zip":"16847","miles_from_dt":24.77},{"city":"Cresson","state_name":"Pennsylvania","lat":40.44736,"lng":-78.56054,"zip":"16699","miles_from_dt":24.79},{"city":"Anita","state_name":"Pennsylvania","lat":41.00926,"lng":-78.96235,"zip":"15711","miles_from_dt":25.13},{"city":"Strongstown","state_name":"Pennsylvania","lat":40.53953,"lng":-78.89744,"zip":"15957","miles_from_dt":25.44},{"city":"Penfield","state_name":"Pennsylvania","lat":41.17838,"lng":-78.55592,"zip":"15849","miles_from_dt":25.66},{"city":"Marchand","state_name":"Pennsylvania","lat":40.87431,"lng":-79.04554,"zip":"15758","miles_from_dt":25.69},{"city":"Lanse","state_name":"Pennsylvania","lat":40.95978,"lng":-78.11431,"zip":"16849","miles_from_dt":25.79},{"city":"Belsano","state_name":"Pennsylvania","lat":40.51853,"lng":-78.87794,"zip":"15922","miles_from_dt":25.85},{"city":"Twin Rocks","state_name":"Pennsylvania","lat":40.49848,"lng":-78.85184,"zip":"15960","miles_from_dt":26.11},{"city":"Warriors Mark","state_name":"Pennsylvania","lat":40.73291,"lng":-78.06846,"zip":"16877","miles_from_dt":26.46},{"city":"Lilly","state_name":"Pennsylvania","lat":40.42215,"lng":-78.6057,"zip":"15938","miles_from_dt":26.62},{"city":"Valier","state_name":"Pennsylvania","lat":40.91628,"lng":-79.05606,"zip":"15780","miles_from_dt":26.89},{"city":"Penn Run","state_name":"Pennsylvania","lat":40.59661,"lng":-78.99574,"zip":"15765","miles_from_dt":26.93},{"city":"Port Matilda","state_name":"Pennsylvania","lat":40.80149,"lng":-78.04969,"zip":"16870","miles_from_dt":26.94},{"city":"Reynoldsville","state_name":"Pennsylvania","lat":41.10115,"lng":-78.90316,"zip":"15851","miles_from_dt":27},{"city":"Nanty Glo","state_name":"Pennsylvania","lat":40.47437,"lng":-78.83513,"zip":"15943","miles_from_dt":27.01},{"city":"Duncansville","state_name":"Pennsylvania","lat":40.41621,"lng":-78.48743,"zip":"16635","miles_from_dt":27.23},{"city":"Grassflat","state_name":"Pennsylvania","lat":41.00319,"lng":-78.11113,"zip":"16839","miles_from_dt":27.29},{"city":"Oliveburg","state_name":"Pennsylvania","lat":40.99423,"lng":-79.02773,"zip":"15764","miles_from_dt":27.54},{"city":"Hamilton","state_name":"Pennsylvania","lat":40.91722,"lng":-79.07119,"zip":"15744","miles_from_dt":27.67},{"city":"Spruce Creek","state_name":"Pennsylvania","lat":40.65595,"lng":-78.07313,"zip":"16683","miles_from_dt":27.76},{"city":"Cassandra","state_name":"Pennsylvania","lat":40.40851,"lng":-78.6407,"zip":"15925","miles_from_dt":27.77},{"city":"Hollidaysburg","state_name":"Pennsylvania","lat":40.44231,"lng":-78.33242,"zip":"16648","miles_from_dt":27.92},{"city":"Frenchville","state_name":"Pennsylvania","lat":41.14633,"lng":-78.26454,"zip":"16836","miles_from_dt":28.18},{"city":"Falls Creek","state_name":"Pennsylvania","lat":41.16927,"lng":-78.82708,"zip":"15840","miles_from_dt":28.57},{"city":"Drifting","state_name":"Pennsylvania","lat":41.0391,"lng":-78.10389,"zip":"16834","miles_from_dt":28.92},{"city":"Alexandria","state_name":"Pennsylvania","lat":40.56719,"lng":-78.10214,"zip":"16611","miles_from_dt":29.33},{"city":"Newry","state_name":"Pennsylvania","lat":40.38898,"lng":-78.43491,"zip":"16665","miles_from_dt":29.6},{"city":"Williamsburg","state_name":"Pennsylvania","lat":40.46519,"lng":-78.21593,"zip":"16693","miles_from_dt":29.81},{"city":"Wilmore","state_name":"Pennsylvania","lat":40.38942,"lng":-78.71644,"zip":"15962","miles_from_dt":29.89}],"targetCityZipCode":"16656","targetCityState":"Pennsylvania"},"__N_SSG":true}