{"pageProps":{"stateName":"Pennsylvania","cityName":"lebanon","nearbyCities":[{"city":"Cornwall","state_name":"Pennsylvania","lat":40.27322,"lng":-76.40705,"zip":"17016","miles_from_dt":1.71},{"city":"Rexmont","state_name":"Pennsylvania","lat":40.27885,"lng":-76.3832,"zip":"17085","miles_from_dt":2.36},{"city":"Quentin","state_name":"Pennsylvania","lat":40.33791,"lng":-76.47433,"zip":"17083","miles_from_dt":4.03},{"city":"Mount Gretna","state_name":"Pennsylvania","lat":40.24135,"lng":-76.47553,"zip":"17064","miles_from_dt":4.63},{"city":"Lebanon","state_name":"Pennsylvania","lat":40.38242,"lng":-76.4306,"zip":"17046","miles_from_dt":6.05},{"city":"Penryn","state_name":"Pennsylvania","lat":40.20546,"lng":-76.37044,"zip":"17564","miles_from_dt":6.76},{"city":"Schaefferstown","state_name":"Pennsylvania","lat":40.30046,"lng":-76.295,"zip":"17088","miles_from_dt":6.76},{"city":"Elm","state_name":"Pennsylvania","lat":40.20369,"lng":-76.34792,"zip":"17521","miles_from_dt":7.43},{"city":"Lawn","state_name":"Pennsylvania","lat":40.21667,"lng":-76.5395,"zip":"17041","miles_from_dt":8.2},{"city":"Annville","state_name":"Pennsylvania","lat":40.35735,"lng":-76.55528,"zip":"17003","miles_from_dt":8.22},{"city":"Manheim","state_name":"Pennsylvania","lat":40.17307,"lng":-76.42792,"zip":"17545","miles_from_dt":8.41},{"city":"Palmyra","state_name":"Pennsylvania","lat":40.28952,"lng":-76.58484,"zip":"17078","miles_from_dt":8.57},{"city":"Campbelltown","state_name":"Pennsylvania","lat":40.27809,"lng":-76.58335,"zip":"17010","miles_from_dt":8.57},{"city":"Myerstown","state_name":"Pennsylvania","lat":40.38848,"lng":-76.31583,"zip":"17067","miles_from_dt":8.58},{"city":"Newmanstown","state_name":"Pennsylvania","lat":40.30047,"lng":-76.25924,"zip":"17073","miles_from_dt":8.64},{"city":"Hopeland","state_name":"Pennsylvania","lat":40.23452,"lng":-76.26784,"zip":"17533","miles_from_dt":9.18},{"city":"Ono","state_name":"Pennsylvania","lat":40.40232,"lng":-76.53651,"zip":"17077","miles_from_dt":9.54},{"city":"Kleinfeltersville","state_name":"Pennsylvania","lat":40.2928,"lng":-76.24077,"zip":"17039","miles_from_dt":9.61},{"city":"Lititz","state_name":"Pennsylvania","lat":40.18217,"lng":-76.30038,"zip":"17543","miles_from_dt":10.12},{"city":"Mount Aetna","state_name":"Pennsylvania","lat":40.41669,"lng":-76.29619,"zip":"19544","miles_from_dt":10.73},{"city":"Hershey","state_name":"Pennsylvania","lat":40.26829,"lng":-76.62754,"zip":"17033","miles_from_dt":10.98},{"city":"Richland","state_name":"Pennsylvania","lat":40.40523,"lng":-76.26356,"zip":"17087","miles_from_dt":11.34},{"city":"Fredericksburg","state_name":"Pennsylvania","lat":40.46734,"lng":-76.43626,"zip":"17026","miles_from_dt":11.92},{"city":"Womelsdorf","state_name":"Pennsylvania","lat":40.3957,"lng":-76.20989,"zip":"19567","miles_from_dt":13.21},{"city":"Elizabethtown","state_name":"Pennsylvania","lat":40.16677,"lng":-76.60823,"zip":"17022","miles_from_dt":13.21},{"city":"Mount Joy","state_name":"Pennsylvania","lat":40.10935,"lng":-76.51174,"zip":"17552","miles_from_dt":13.64},{"city":"Jonestown","state_name":"Pennsylvania","lat":40.46787,"lng":-76.54895,"zip":"17038","miles_from_dt":13.67},{"city":"Rheems","state_name":"Pennsylvania","lat":40.12574,"lng":-76.57035,"zip":"17570","miles_from_dt":14.04},{"city":"Lancaster","state_name":"Pennsylvania","lat":40.11174,"lng":-76.30401,"zip":"17606","miles_from_dt":14.11},{"city":"East Petersburg","state_name":"Pennsylvania","lat":40.09813,"lng":-76.34897,"zip":"17520","miles_from_dt":14.12},{"city":"Grantville","state_name":"Pennsylvania","lat":40.4033,"lng":-76.65073,"zip":"17028","miles_from_dt":14.17},{"city":"Landisville","state_name":"Pennsylvania","lat":40.08804,"lng":-76.41528,"zip":"17538","miles_from_dt":14.28},{"city":"Rehrersburg","state_name":"Pennsylvania","lat":40.45593,"lng":-76.25055,"zip":"19550","miles_from_dt":14.35},{"city":"Hummelstown","state_name":"Pennsylvania","lat":40.28579,"lng":-76.69611,"zip":"17036","miles_from_dt":14.46},{"city":"Stevens","state_name":"Pennsylvania","lat":40.22397,"lng":-76.16405,"zip":"17578","miles_from_dt":14.52},{"city":"Akron","state_name":"Pennsylvania","lat":40.15697,"lng":-76.20532,"zip":"17501","miles_from_dt":14.92},{"city":"Robesonia","state_name":"Pennsylvania","lat":40.35951,"lng":-76.14213,"zip":"19551","miles_from_dt":15.47},{"city":"Bethel","state_name":"Pennsylvania","lat":40.49268,"lng":-76.28235,"zip":"19507","miles_from_dt":15.53},{"city":"Ephrata","state_name":"Pennsylvania","lat":40.17499,"lng":-76.17009,"zip":"17522","miles_from_dt":15.71},{"city":"Denver","state_name":"Pennsylvania","lat":40.24402,"lng":-76.13151,"zip":"17517","miles_from_dt":15.79},{"city":"Silver Spring","state_name":"Pennsylvania","lat":40.06372,"lng":-76.43579,"zip":"17575","miles_from_dt":15.96},{"city":"Brownstown","state_name":"Pennsylvania","lat":40.12455,"lng":-76.21394,"zip":"17508","miles_from_dt":16.13},{"city":"Lancaster","state_name":"Pennsylvania","lat":40.07296,"lng":-76.31457,"zip":"17601","miles_from_dt":16.35},{"city":"Talmage","state_name":"Pennsylvania","lat":40.11651,"lng":-76.21281,"zip":"17580","miles_from_dt":16.58},{"city":"Reamstown","state_name":"Pennsylvania","lat":40.21244,"lng":-76.12343,"zip":"17567","miles_from_dt":16.81},{"city":"Lancaster","state_name":"Pennsylvania","lat":40.0577,"lng":-76.33731,"zip":"17604","miles_from_dt":16.98},{"city":"Lancaster","state_name":"Pennsylvania","lat":40.05004,"lng":-76.36006,"zip":"17607","miles_from_dt":17.22},{"city":"Reinholds","state_name":"Pennsylvania","lat":40.27043,"lng":-76.09652,"zip":"17569","miles_from_dt":17.32},{"city":"Maytown","state_name":"Pennsylvania","lat":40.07492,"lng":-76.58339,"zip":"17550","miles_from_dt":17.4},{"city":"Middletown","state_name":"Pennsylvania","lat":40.19437,"lng":-76.72659,"zip":"17057","miles_from_dt":17.5},{"city":"Mountville","state_name":"Pennsylvania","lat":40.03923,"lng":-76.42584,"zip":"17554","miles_from_dt":17.64},{"city":"Marietta","state_name":"Pennsylvania","lat":40.07056,"lng":-76.58436,"zip":"17547","miles_from_dt":17.68},{"city":"Columbia","state_name":"Pennsylvania","lat":40.04,"lng":-76.48558,"zip":"17512","miles_from_dt":17.9},{"city":"Wernersville","state_name":"Pennsylvania","lat":40.34231,"lng":-76.08873,"zip":"19565","miles_from_dt":17.94},{"city":"Leola","state_name":"Pennsylvania","lat":40.09877,"lng":-76.1888,"zip":"17540","miles_from_dt":18.34},{"city":"Pine Grove","state_name":"Pennsylvania","lat":40.56133,"lng":-76.39548,"zip":"17963","miles_from_dt":18.44},{"city":"Strausstown","state_name":"Pennsylvania","lat":40.49234,"lng":-76.18661,"zip":"19559","miles_from_dt":18.46},{"city":"Lancaster","state_name":"Pennsylvania","lat":40.04,"lng":-76.31219,"zip":"17622","miles_from_dt":18.53},{"city":"Lancaster","state_name":"Pennsylvania","lat":40.04002,"lng":-76.31005,"zip":"17608","miles_from_dt":18.57},{"city":"Lancaster","state_name":"Pennsylvania","lat":40.04187,"lng":-76.30012,"zip":"17699","miles_from_dt":18.62},{"city":"Bainbridge","state_name":"Pennsylvania","lat":40.10081,"lng":-76.66732,"zip":"17502","miles_from_dt":18.62},{"city":"Ravine","state_name":"Pennsylvania","lat":40.55922,"lng":-76.33073,"zip":"17966","miles_from_dt":18.87},{"city":"Harrisburg","state_name":"Pennsylvania","lat":40.27041,"lng":-76.78265,"zip":"17111","miles_from_dt":19.09},{"city":"Lancaster","state_name":"Pennsylvania","lat":40.05,"lng":-76.25005,"zip":"17605","miles_from_dt":19.21},{"city":"Harrisburg","state_name":"Pennsylvania","lat":40.37497,"lng":-76.77163,"zip":"17112","miles_from_dt":19.23},{"city":"Bausman","state_name":"Pennsylvania","lat":40.02448,"lng":-76.32855,"zip":"17504","miles_from_dt":19.31},{"city":"Tower City","state_name":"Pennsylvania","lat":40.531,"lng":-76.62065,"zip":"17980","miles_from_dt":19.35},{"city":"Bernville","state_name":"Pennsylvania","lat":40.45873,"lng":-76.12379,"zip":"19506","miles_from_dt":19.41},{"city":"Adamstown","state_name":"Pennsylvania","lat":40.24314,"lng":-76.05822,"zip":"19501","miles_from_dt":19.59},{"city":"Lancaster","state_name":"Pennsylvania","lat":40.0127,"lng":-76.35287,"zip":"17603","miles_from_dt":19.82},{"city":"Lancaster","state_name":"Pennsylvania","lat":40.01,"lng":-76.37219,"zip":"17611","miles_from_dt":19.84},{"city":"Highspire","state_name":"Pennsylvania","lat":40.20831,"lng":-76.78489,"zip":"17034","miles_from_dt":20.06},{"city":"Martindale","state_name":"Pennsylvania","lat":40.15,"lng":-76.09001,"zip":"17549","miles_from_dt":20.24},{"city":"Bird In Hand","state_name":"Pennsylvania","lat":40.05915,"lng":-76.18999,"zip":"17505","miles_from_dt":20.4},{"city":"Witmer","state_name":"Pennsylvania","lat":40.04718,"lng":-76.21116,"zip":"17585","miles_from_dt":20.43},{"city":"Reading","state_name":"Pennsylvania","lat":40.31401,"lng":-76.03574,"zip":"19608","miles_from_dt":20.48},{"city":"Harrisburg","state_name":"Pennsylvania","lat":40.25965,"lng":-76.80772,"zip":"17140","miles_from_dt":20.49},{"city":"Harrisburg","state_name":"Pennsylvania","lat":40.29036,"lng":-76.81259,"zip":"17177","miles_from_dt":20.6},{"city":"Washington Boro","state_name":"Pennsylvania","lat":39.98928,"lng":-76.44756,"zip":"17582","miles_from_dt":21.13},{"city":"Muir","state_name":"Pennsylvania","lat":40.59359,"lng":-76.51651,"zip":"17957","miles_from_dt":21.2},{"city":"Harrisburg","state_name":"Pennsylvania","lat":40.28986,"lng":-76.82414,"zip":"17109","miles_from_dt":21.21},{"city":"Lancaster","state_name":"Pennsylvania","lat":40.01486,"lng":-76.24632,"zip":"17602","miles_from_dt":21.46},{"city":"Smoketown","state_name":"Pennsylvania","lat":40.03561,"lng":-76.19782,"zip":"17576","miles_from_dt":21.49},{"city":"Harrisburg","state_name":"Pennsylvania","lat":40.23032,"lng":-76.82083,"zip":"17113","miles_from_dt":21.51},{"city":"Terre Hill","state_name":"Pennsylvania","lat":40.15617,"lng":-76.05535,"zip":"17581","miles_from_dt":21.66},{"city":"Etters","state_name":"Pennsylvania","lat":40.1585,"lng":-76.79468,"zip":"17319","miles_from_dt":21.81},{"city":"Mount Wolf","state_name":"Pennsylvania","lat":40.04927,"lng":-76.68247,"zip":"17347","miles_from_dt":21.82},{"city":"Millersville","state_name":"Pennsylvania","lat":39.97911,"lng":-76.37608,"zip":"17551","miles_from_dt":21.93},{"city":"Manchester","state_name":"Pennsylvania","lat":40.07929,"lng":-76.72812,"zip":"17345","miles_from_dt":21.96},{"city":"Wrightsville","state_name":"Pennsylvania","lat":39.98463,"lng":-76.51966,"zip":"17368","miles_from_dt":22.01},{"city":"Summit Station","state_name":"Pennsylvania","lat":40.56729,"lng":-76.20207,"zip":"17979","miles_from_dt":22.1},{"city":"Bowmansville","state_name":"Pennsylvania","lat":40.19806,"lng":-76.01624,"zip":"17507","miles_from_dt":22.5},{"city":"Shartlesville","state_name":"Pennsylvania","lat":40.51288,"lng":-76.10377,"zip":"19554","miles_from_dt":22.57},{"city":"York Haven","state_name":"Pennsylvania","lat":40.1174,"lng":-76.78124,"zip":"17370","miles_from_dt":22.58},{"city":"New Holland","state_name":"Pennsylvania","lat":40.10328,"lng":-76.07543,"zip":"17557","miles_from_dt":22.63},{"city":"Reading","state_name":"Pennsylvania","lat":40.32774,"lng":-75.99622,"zip":"19609","miles_from_dt":22.64},{"city":"Schuylkill Haven","state_name":"Pennsylvania","lat":40.58199,"lng":-76.21367,"zip":"17972","miles_from_dt":22.67},{"city":"York","state_name":"Pennsylvania","lat":40.01224,"lng":-76.64249,"zip":"17406","miles_from_dt":22.71},{"city":"Lancaster","state_name":"Pennsylvania","lat":40.02885,"lng":-76.16733,"zip":"17573","miles_from_dt":22.8},{"city":"Harrisburg","state_name":"Pennsylvania","lat":40.23901,"lng":-76.84985,"zip":"17104","miles_from_dt":22.9},{"city":"East Prospect","state_name":"Pennsylvania","lat":39.97136,"lng":-76.52267,"zip":"17317","miles_from_dt":22.94},{"city":"Blue Ball","state_name":"Pennsylvania","lat":40.11718,"lng":-76.0527,"zip":"17506","miles_from_dt":23.1},{"city":"Williamstown","state_name":"Pennsylvania","lat":40.58998,"lng":-76.63071,"zip":"17098","miles_from_dt":23.13},{"city":"Tremont","state_name":"Pennsylvania","lat":40.63077,"lng":-76.39523,"zip":"17981","miles_from_dt":23.22},{"city":"Harrisburg","state_name":"Pennsylvania","lat":40.27499,"lng":-76.86326,"zip":"17103","miles_from_dt":23.32},{"city":"Friedensburg","state_name":"Pennsylvania","lat":40.60357,"lng":-76.24244,"zip":"17933","miles_from_dt":23.32},{"city":"Lampeter","state_name":"Pennsylvania","lat":39.98673,"lng":-76.23869,"zip":"17537","miles_from_dt":23.39},{"city":"Wiconisco","state_name":"Pennsylvania","lat":40.57414,"lng":-76.67704,"zip":"17097","miles_from_dt":23.48},{"city":"East Earl","state_name":"Pennsylvania","lat":40.14278,"lng":-76.02145,"zip":"17519","miles_from_dt":23.68},{"city":"Reading","state_name":"Pennsylvania","lat":40.34015,"lng":-75.97612,"zip":"19610","miles_from_dt":23.79},{"city":"Harrisburg","state_name":"Pennsylvania","lat":40.29648,"lng":-76.87461,"zip":"17107","miles_from_dt":23.87},{"city":"Harrisburg","state_name":"Pennsylvania","lat":40.29406,"lng":-76.87783,"zip":"17106","miles_from_dt":24.05},{"city":"Harrisburg","state_name":"Pennsylvania","lat":40.26258,"lng":-76.87617,"zip":"17105","miles_from_dt":24.07},{"city":"Harrisburg","state_name":"Pennsylvania","lat":40.26328,"lng":-76.87698,"zip":"17127","miles_from_dt":24.1},{"city":"New Cumberland","state_name":"Pennsylvania","lat":40.20217,"lng":-76.86377,"zip":"17070","miles_from_dt":24.18},{"city":"Intercourse","state_name":"Pennsylvania","lat":40.03665,"lng":-76.11214,"zip":"17534","miles_from_dt":24.24},{"city":"Harrisburg","state_name":"Pennsylvania","lat":40.26596,"lng":-76.88045,"zip":"17123","miles_from_dt":24.27},{"city":"Harrisburg","state_name":"Pennsylvania","lat":40.26177,"lng":-76.8799,"zip":"17126","miles_from_dt":24.27},{"city":"Harrisburg","state_name":"Pennsylvania","lat":40.26617,"lng":-76.88091,"zip":"17125","miles_from_dt":24.29},{"city":"Harrisburg","state_name":"Pennsylvania","lat":40.26601,"lng":-76.88167,"zip":"17124","miles_from_dt":24.33},{"city":"Harrisburg","state_name":"Pennsylvania","lat":40.26329,"lng":-76.8816,"zip":"17122","miles_from_dt":24.35},{"city":"Harrisburg","state_name":"Pennsylvania","lat":40.31776,"lng":-76.88354,"zip":"17110","miles_from_dt":24.39},{"city":"Ronks","state_name":"Pennsylvania","lat":40.00937,"lng":-76.15105,"zip":"17572","miles_from_dt":24.39},{"city":"Harrisburg","state_name":"Pennsylvania","lat":40.26844,"lng":-76.88326,"zip":"17121","miles_from_dt":24.4},{"city":"Harrisburg","state_name":"Pennsylvania","lat":40.26511,"lng":-76.88281,"zip":"17120","miles_from_dt":24.4},{"city":"Harrisburg","state_name":"Pennsylvania","lat":40.26319,"lng":-76.88269,"zip":"17129","miles_from_dt":24.41},{"city":"Harrisburg","state_name":"Pennsylvania","lat":40.26109,"lng":-76.88275,"zip":"17108","miles_from_dt":24.42},{"city":"Harrisburg","state_name":"Pennsylvania","lat":40.26393,"lng":-76.8834,"zip":"17128","miles_from_dt":24.44},{"city":"Craley","state_name":"Pennsylvania","lat":39.94623,"lng":-76.50513,"zip":"17312","miles_from_dt":24.45},{"city":"Mohrsville","state_name":"Pennsylvania","lat":40.47821,"lng":-76.02597,"zip":"19541","miles_from_dt":24.46},{"city":"Leesport","state_name":"Pennsylvania","lat":40.42245,"lng":-75.99021,"zip":"19533","miles_from_dt":24.47},{"city":"Mohnton","state_name":"Pennsylvania","lat":40.23714,"lng":-75.9658,"zip":"19540","miles_from_dt":24.48},{"city":"Gordonville","state_name":"Pennsylvania","lat":40.04036,"lng":-76.10008,"zip":"17529","miles_from_dt":24.5},{"city":"Willow Street","state_name":"Pennsylvania","lat":39.95981,"lng":-76.26463,"zip":"17584","miles_from_dt":24.59},{"city":"Harrisburg","state_name":"Pennsylvania","lat":40.2595,"lng":-76.88705,"zip":"17101","miles_from_dt":24.66},{"city":"Harrisburg","state_name":"Pennsylvania","lat":40.27314,"lng":-76.88885,"zip":"17130","miles_from_dt":24.68},{"city":"Conestoga","state_name":"Pennsylvania","lat":39.93773,"lng":-76.38703,"zip":"17516","miles_from_dt":24.71},{"city":"Emigsville","state_name":"Pennsylvania","lat":40.01847,"lng":-76.7265,"zip":"17318","miles_from_dt":24.95},{"city":"Halifax","state_name":"Pennsylvania","lat":40.49448,"lng":-76.81788,"zip":"17032","miles_from_dt":24.99},{"city":"Valley View","state_name":"Pennsylvania","lat":40.64403,"lng":-76.55027,"zip":"17983","miles_from_dt":25.01},{"city":"Harrisburg","state_name":"Pennsylvania","lat":40.27119,"lng":-76.89686,"zip":"17102","miles_from_dt":25.11},{"city":"Goodville","state_name":"Pennsylvania","lat":40.12811,"lng":-75.99895,"zip":"17528","miles_from_dt":25.2},{"city":"Reading","state_name":"Pennsylvania","lat":40.29147,"lng":-75.94521,"zip":"19607","miles_from_dt":25.23},{"city":"Hegins","state_name":"Pennsylvania","lat":40.65558,"lng":-76.50198,"zip":"17938","miles_from_dt":25.24},{"city":"Spring Glen","state_name":"Pennsylvania","lat":40.6165,"lng":-76.65219,"zip":"17978","miles_from_dt":25.27},{"city":"Dauphin","state_name":"Pennsylvania","lat":40.40246,"lng":-76.88117,"zip":"17018","miles_from_dt":25.31},{"city":"Lemoyne","state_name":"Pennsylvania","lat":40.24679,"lng":-76.90033,"zip":"17043","miles_from_dt":25.46},{"city":"Reading","state_name":"Pennsylvania","lat":40.32473,"lng":-75.9411,"zip":"19611","miles_from_dt":25.52},{"city":"Centerport","state_name":"Pennsylvania","lat":40.48686,"lng":-76.00526,"zip":"19516","miles_from_dt":25.7},{"city":"Reading","state_name":"Pennsylvania","lat":40.3526,"lng":-75.9408,"zip":"19601","miles_from_dt":25.76},{"city":"Branchdale","state_name":"Pennsylvania","lat":40.66136,"lng":-76.31871,"zip":"17923","miles_from_dt":25.87},{"city":"Refton","state_name":"Pennsylvania","lat":39.94806,"lng":-76.23416,"zip":"17568","miles_from_dt":25.93},{"city":"Windsor","state_name":"Pennsylvania","lat":39.93184,"lng":-76.55585,"zip":"17366","miles_from_dt":26.02},{"city":"Cressona","state_name":"Pennsylvania","lat":40.63104,"lng":-76.19273,"zip":"17929","miles_from_dt":26.17},{"city":"Reading","state_name":"Pennsylvania","lat":40.39917,"lng":-75.94596,"zip":"19605","miles_from_dt":26.18},{"city":"Llewellyn","state_name":"Pennsylvania","lat":40.6605,"lng":-76.28903,"zip":"17944","miles_from_dt":26.19},{"city":"Reading","state_name":"Pennsylvania","lat":40.34008,"lng":-75.93014,"zip":"19603","miles_from_dt":26.2},{"city":"Sacramento","state_name":"Pennsylvania","lat":40.6417,"lng":-76.62625,"zip":"17968","miles_from_dt":26.22},{"city":"Auburn","state_name":"Pennsylvania","lat":40.592,"lng":-76.11212,"zip":"17922","miles_from_dt":26.24},{"city":"York","state_name":"Pennsylvania","lat":39.95799,"lng":-76.66045,"zip":"17402","miles_from_dt":26.44},{"city":"Strasburg","state_name":"Pennsylvania","lat":39.95938,"lng":-76.18032,"zip":"17579","miles_from_dt":26.47},{"city":"Camp Hill","state_name":"Pennsylvania","lat":40.24001,"lng":-76.92002,"zip":"17001","miles_from_dt":26.56},{"city":"Lewisberry","state_name":"Pennsylvania","lat":40.13438,"lng":-76.88188,"zip":"17339","miles_from_dt":26.69},{"city":"Summerdale","state_name":"Pennsylvania","lat":40.30998,"lng":-76.92817,"zip":"17093","miles_from_dt":26.72},{"city":"Lykens","state_name":"Pennsylvania","lat":40.60554,"lng":-76.72669,"zip":"17048","miles_from_dt":26.76},{"city":"Reading","state_name":"Pennsylvania","lat":40.32695,"lng":-75.91701,"zip":"19602","miles_from_dt":26.8},{"city":"Camp Hill","state_name":"Pennsylvania","lat":40.25388,"lng":-76.92733,"zip":"17089","miles_from_dt":26.82},{"city":"Narvon","state_name":"Pennsylvania","lat":40.12075,"lng":-75.96514,"zip":"17555","miles_from_dt":27.02},{"city":"Camp Hill","state_name":"Pennsylvania","lat":40.23508,"lng":-76.92931,"zip":"17011","miles_from_dt":27.09},{"city":"York","state_name":"Pennsylvania","lat":40.00496,"lng":-76.77217,"zip":"17404","miles_from_dt":27.25},{"city":"Reading","state_name":"Pennsylvania","lat":40.36608,"lng":-75.91368,"zip":"19612","miles_from_dt":27.32},{"city":"Reading","state_name":"Pennsylvania","lat":40.35791,"lng":-75.90954,"zip":"19604","miles_from_dt":27.45},{"city":"Gratz","state_name":"Pennsylvania","lat":40.60833,"lng":-76.74417,"zip":"17030","miles_from_dt":27.47},{"city":"Paradise","state_name":"Pennsylvania","lat":39.97636,"lng":-76.09264,"zip":"17562","miles_from_dt":28.08},{"city":"Mar Lin","state_name":"Pennsylvania","lat":40.67919,"lng":-76.24425,"zip":"17951","miles_from_dt":28.13},{"city":"Kinzers","state_name":"Pennsylvania","lat":40.01224,"lng":-76.03813,"zip":"17535","miles_from_dt":28.19},{"city":"Pequea","state_name":"Pennsylvania","lat":39.89191,"lng":-76.32994,"zip":"17565","miles_from_dt":28.23},{"city":"York","state_name":"Pennsylvania","lat":39.96008,"lng":-76.7301,"zip":"17405","miles_from_dt":28.26},{"city":"Hamburg","state_name":"Pennsylvania","lat":40.5465,"lng":-75.99802,"zip":"19526","miles_from_dt":28.34},{"city":"York","state_name":"Pennsylvania","lat":39.95893,"lng":-76.73359,"zip":"17401","miles_from_dt":28.43},{"city":"New Providence","state_name":"Pennsylvania","lat":39.91117,"lng":-76.22712,"zip":"17560","miles_from_dt":28.43},{"city":"Shoemakersville","state_name":"Pennsylvania","lat":40.49335,"lng":-75.94993,"zip":"19555","miles_from_dt":28.45},{"city":"Elizabethville","state_name":"Pennsylvania","lat":40.5813,"lng":-76.81169,"zip":"17023","miles_from_dt":28.48},{"city":"Minersville","state_name":"Pennsylvania","lat":40.69047,"lng":-76.25985,"zip":"17954","miles_from_dt":28.61},{"city":"Red Lion","state_name":"Pennsylvania","lat":39.89834,"lng":-76.58366,"zip":"17356","miles_from_dt":28.66},{"city":"Port Clinton","state_name":"Pennsylvania","lat":40.58176,"lng":-76.02672,"zip":"19549","miles_from_dt":28.77},{"city":"Klingerstown","state_name":"Pennsylvania","lat":40.68614,"lng":-76.61472,"zip":"17941","miles_from_dt":28.83},{"city":"Pottsville","state_name":"Pennsylvania","lat":40.69364,"lng":-76.25526,"zip":"17901","miles_from_dt":28.89},{"city":"Temple","state_name":"Pennsylvania","lat":40.40053,"lng":-75.88993,"zip":"19560","miles_from_dt":29.06},{"city":"Brogue","state_name":"Pennsylvania","lat":39.87351,"lng":-76.44894,"zip":"17309","miles_from_dt":29.11},{"city":"Morgantown","state_name":"Pennsylvania","lat":40.1697,"lng":-75.89635,"zip":"19543","miles_from_dt":29.14},{"city":"Pitman","state_name":"Pennsylvania","lat":40.71415,"lng":-76.49785,"zip":"17964","miles_from_dt":29.2},{"city":"Enola","state_name":"Pennsylvania","lat":40.29506,"lng":-76.97731,"zip":"17025","miles_from_dt":29.3},{"city":"Seltzer","state_name":"Pennsylvania","lat":40.69592,"lng":-76.23606,"zip":"17974","miles_from_dt":29.37},{"city":"Berrysburg","state_name":"Pennsylvania","lat":40.60304,"lng":-76.81065,"zip":"17005","miles_from_dt":29.5},{"city":"Gap","state_name":"Pennsylvania","lat":40.01495,"lng":-75.99333,"zip":"17527","miles_from_dt":29.83},{"city":"Reading","state_name":"Pennsylvania","lat":40.3357,"lng":-75.85755,"zip":"19606","miles_from_dt":29.98}],"targetCityZipCode":"17042","targetCityState":"Pennsylvania"},"__N_SSG":true}