{"pageProps":{"stateName":"Pennsylvania","cityName":"madisonburg","nearbyCities":[{"city":"Millheim","state_name":"Pennsylvania","lat":40.89697,"lng":-77.47228,"zip":"16854","miles_from_dt":4.41},{"city":"Lamar","state_name":"Pennsylvania","lat":41.01247,"lng":-77.53455,"zip":"16848","miles_from_dt":5.25},{"city":"Mingoville","state_name":"Pennsylvania","lat":40.92871,"lng":-77.65005,"zip":"16856","miles_from_dt":5.86},{"city":"Spring Mills","state_name":"Pennsylvania","lat":40.84536,"lng":-77.56882,"zip":"16875","miles_from_dt":6.48},{"city":"Aaronsburg","state_name":"Pennsylvania","lat":40.91995,"lng":-77.38702,"zip":"16820","miles_from_dt":8.01},{"city":"Coburn","state_name":"Pennsylvania","lat":40.84711,"lng":-77.4347,"zip":"16832","miles_from_dt":8.22},{"city":"Mackeyville","state_name":"Pennsylvania","lat":41.05517,"lng":-77.47805,"zip":"17750","miles_from_dt":8.79},{"city":"Blanchard","state_name":"Pennsylvania","lat":41.06199,"lng":-77.58598,"zip":"16826","miles_from_dt":9.01},{"city":"Rebersburg","state_name":"Pennsylvania","lat":40.96715,"lng":-77.35939,"zip":"16872","miles_from_dt":9.61},{"city":"Howard","state_name":"Pennsylvania","lat":41.03399,"lng":-77.69011,"zip":"16841","miles_from_dt":10.4},{"city":"Woodward","state_name":"Pennsylvania","lat":40.90707,"lng":-77.33841,"zip":"16882","miles_from_dt":10.67},{"city":"Bellefonte","state_name":"Pennsylvania","lat":40.92734,"lng":-77.76685,"zip":"16823","miles_from_dt":11.96},{"city":"Centre Hall","state_name":"Pennsylvania","lat":40.80704,"lng":-77.69097,"zip":"16828","miles_from_dt":11.97},{"city":"Milroy","state_name":"Pennsylvania","lat":40.76274,"lng":-77.47343,"zip":"17063","miles_from_dt":12.46},{"city":"Milesburg","state_name":"Pennsylvania","lat":40.94045,"lng":-77.78638,"zip":"16853","miles_from_dt":12.97},{"city":"Mill Hall","state_name":"Pennsylvania","lat":41.13086,"lng":-77.53201,"zip":"17751","miles_from_dt":13.42},{"city":"Loganton","state_name":"Pennsylvania","lat":41.03847,"lng":-77.31497,"zip":"17747","miles_from_dt":13.65},{"city":"Weikert","state_name":"Pennsylvania","lat":40.87042,"lng":-77.28941,"zip":"17885","miles_from_dt":13.82},{"city":"Castanea","state_name":"Pennsylvania","lat":41.12197,"lng":-77.4338,"zip":"17726","miles_from_dt":13.93},{"city":"Lemont","state_name":"Pennsylvania","lat":40.81229,"lng":-77.80132,"zip":"16851","miles_from_dt":16.21},{"city":"Boalsburg","state_name":"Pennsylvania","lat":40.76607,"lng":-77.77739,"zip":"16827","miles_from_dt":17.17},{"city":"Millmont","state_name":"Pennsylvania","lat":40.88308,"lng":-77.21628,"zip":"17845","miles_from_dt":17.27},{"city":"McClure","state_name":"Pennsylvania","lat":40.72455,"lng":-77.35888,"zip":"17841","miles_from_dt":17.39},{"city":"McElhattan","state_name":"Pennsylvania","lat":41.15147,"lng":-77.35043,"zip":"17748","miles_from_dt":17.8},{"city":"Reedsville","state_name":"Pennsylvania","lat":40.68705,"lng":-77.62692,"zip":"17084","miles_from_dt":17.82},{"city":"Beech Creek","state_name":"Pennsylvania","lat":41.15813,"lng":-77.71441,"zip":"16822","miles_from_dt":17.85},{"city":"Fleming","state_name":"Pennsylvania","lat":40.90668,"lng":-77.87731,"zip":"16835","miles_from_dt":17.85},{"city":"Laurelton","state_name":"Pennsylvania","lat":40.88365,"lng":-77.19795,"zip":"17835","miles_from_dt":18.2},{"city":"State College","state_name":"Pennsylvania","lat":40.78538,"lng":-77.84214,"zip":"16801","miles_from_dt":19.01},{"city":"Beaver Springs","state_name":"Pennsylvania","lat":40.76172,"lng":-77.25674,"zip":"17843","miles_from_dt":19.06},{"city":"University Park","state_name":"Pennsylvania","lat":40.79867,"lng":-77.86481,"zip":"16802","miles_from_dt":19.55},{"city":"State College","state_name":"Pennsylvania","lat":40.79203,"lng":-77.86109,"zip":"16804","miles_from_dt":19.61},{"city":"State College","state_name":"Pennsylvania","lat":40.79192,"lng":-77.86099,"zip":"16805","miles_from_dt":19.61},{"city":"Troxelville","state_name":"Pennsylvania","lat":40.80301,"lng":-77.20565,"zip":"17882","miles_from_dt":19.72},{"city":"Yeagertown","state_name":"Pennsylvania","lat":40.64535,"lng":-77.57639,"zip":"17099","miles_from_dt":20.18},{"city":"Hartleton","state_name":"Pennsylvania","lat":40.90057,"lng":-77.15546,"zip":"17829","miles_from_dt":20.21},{"city":"Orviston","state_name":"Pennsylvania","lat":41.15428,"lng":-77.79857,"zip":"16864","miles_from_dt":20.26},{"city":"Woolrich","state_name":"Pennsylvania","lat":41.20551,"lng":-77.38019,"zip":"17779","miles_from_dt":20.33},{"city":"Avis","state_name":"Pennsylvania","lat":41.18155,"lng":-77.31927,"zip":"17721","miles_from_dt":20.43},{"city":"State College","state_name":"Pennsylvania","lat":40.80849,"lng":-77.89449,"zip":"16803","miles_from_dt":20.63},{"city":"Julian","state_name":"Pennsylvania","lat":40.91285,"lng":-77.93261,"zip":"16844","miles_from_dt":20.69},{"city":"Burnham","state_name":"Pennsylvania","lat":40.6359,"lng":-77.56609,"zip":"17009","miles_from_dt":20.78},{"city":"Beaver Springs","state_name":"Pennsylvania","lat":40.73626,"lng":-77.23641,"zip":"17812","miles_from_dt":21.01},{"city":"Clarence","state_name":"Pennsylvania","lat":41.08223,"lng":-77.89386,"zip":"16829","miles_from_dt":21.12},{"city":"Beavertown","state_name":"Pennsylvania","lat":40.78505,"lng":-77.1772,"zip":"17813","miles_from_dt":21.62},{"city":"Snow Shoe","state_name":"Pennsylvania","lat":41.01141,"lng":-77.94077,"zip":"16874","miles_from_dt":21.66},{"city":"Swengel","state_name":"Pennsylvania","lat":40.89109,"lng":-77.12383,"zip":"17880","miles_from_dt":21.94},{"city":"Pine Grove Mills","state_name":"Pennsylvania","lat":40.72725,"lng":-77.89066,"zip":"16868","miles_from_dt":23.43},{"city":"Mifflinburg","state_name":"Pennsylvania","lat":40.95904,"lng":-77.08747,"zip":"17844","miles_from_dt":23.65},{"city":"Antes Fort","state_name":"Pennsylvania","lat":41.18046,"lng":-77.20503,"zip":"17720","miles_from_dt":24.23},{"city":"Lock Haven","state_name":"Pennsylvania","lat":41.28589,"lng":-77.48097,"zip":"17745","miles_from_dt":24.3},{"city":"McAlisterville","state_name":"Pennsylvania","lat":40.65172,"lng":-77.25948,"zip":"17049","miles_from_dt":24.5},{"city":"Lewistown","state_name":"Pennsylvania","lat":40.58236,"lng":-77.59013,"zip":"17044","miles_from_dt":24.58},{"city":"Oakland Mills","state_name":"Pennsylvania","lat":40.62084,"lng":-77.30758,"zip":"17076","miles_from_dt":24.92},{"city":"Mifflintown","state_name":"Pennsylvania","lat":40.59241,"lng":-77.38165,"zip":"17059","miles_from_dt":25.12},{"city":"Jersey Shore","state_name":"Pennsylvania","lat":41.2342,"lng":-77.26171,"zip":"17740","miles_from_dt":25.13},{"city":"Belleville","state_name":"Pennsylvania","lat":40.59966,"lng":-77.73278,"zip":"17004","miles_from_dt":25.37},{"city":"Penns Creek","state_name":"Pennsylvania","lat":40.86069,"lng":-77.05661,"zip":"17862","miles_from_dt":25.77},{"city":"Cocolamus","state_name":"Pennsylvania","lat":40.6596,"lng":-77.19358,"zip":"17014","miles_from_dt":26.31},{"city":"Paxtonville","state_name":"Pennsylvania","lat":40.77361,"lng":-77.0788,"zip":"17861","miles_from_dt":26.58},{"city":"Granville","state_name":"Pennsylvania","lat":40.55416,"lng":-77.62196,"zip":"17029","miles_from_dt":26.74},{"city":"Pennsylvania Furnace","state_name":"Pennsylvania","lat":40.72086,"lng":-77.96396,"zip":"16865","miles_from_dt":26.8},{"city":"Moshannon","state_name":"Pennsylvania","lat":41.04903,"lng":-78.03519,"zip":"16859","miles_from_dt":27.1},{"city":"Petersburg","state_name":"Pennsylvania","lat":40.65737,"lng":-77.90675,"zip":"16669","miles_from_dt":27.27},{"city":"Middleburg","state_name":"Pennsylvania","lat":40.80389,"lng":-77.04329,"zip":"17842","miles_from_dt":27.51},{"city":"Richfield","state_name":"Pennsylvania","lat":40.69067,"lng":-77.12502,"zip":"17086","miles_from_dt":27.52},{"city":"Port Matilda","state_name":"Pennsylvania","lat":40.80149,"lng":-78.04969,"zip":"16870","miles_from_dt":28.34},{"city":"Linden","state_name":"Pennsylvania","lat":41.24397,"lng":-77.16139,"zip":"17744","miles_from_dt":28.95},{"city":"Mexico","state_name":"Pennsylvania","lat":40.53349,"lng":-77.35585,"zip":"17056","miles_from_dt":29.41},{"city":"Allenwood","state_name":"Pennsylvania","lat":41.1123,"lng":-77.02543,"zip":"17810","miles_from_dt":29.44},{"city":"Williamsport","state_name":"Pennsylvania","lat":41.18215,"lng":-77.07728,"zip":"17702","miles_from_dt":29.47},{"city":"Karthaus","state_name":"Pennsylvania","lat":41.15641,"lng":-78.02422,"zip":"16845","miles_from_dt":29.57},{"city":"Thompsontown","state_name":"Pennsylvania","lat":40.58414,"lng":-77.2168,"zip":"17094","miles_from_dt":29.6},{"city":"New Berlin","state_name":"Pennsylvania","lat":40.88735,"lng":-76.97217,"zip":"17855","miles_from_dt":29.84}],"targetCityZipCode":"16852","targetCityState":"Pennsylvania"},"__N_SSG":true}