{"pageProps":{"stateName":"Pennsylvania","cityName":"penns-park","nearbyCities":[{"city":"Pineville","state_name":"Pennsylvania","lat":40.28923,"lng":-75.01009,"zip":"18946","miles_from_dt":0.89},{"city":"Wycombe","state_name":"Pennsylvania","lat":40.27276,"lng":-75.01105,"zip":"18980","miles_from_dt":1.08},{"city":"Rushland","state_name":"Pennsylvania","lat":40.26162,"lng":-75.02725,"zip":"18956","miles_from_dt":2.23},{"city":"Newtown","state_name":"Pennsylvania","lat":40.26349,"lng":-74.9483,"zip":"18940","miles_from_dt":2.82},{"city":"Furlong","state_name":"Pennsylvania","lat":40.2851,"lng":-75.05934,"zip":"18925","miles_from_dt":3.38},{"city":"Forest Grove","state_name":"Pennsylvania","lat":40.29883,"lng":-75.05717,"zip":"18922","miles_from_dt":3.45},{"city":"Richboro","state_name":"Pennsylvania","lat":40.2224,"lng":-75.00032,"zip":"18954","miles_from_dt":4.18},{"city":"Buckingham","state_name":"Pennsylvania","lat":40.32134,"lng":-75.05852,"zip":"18912","miles_from_dt":4.26},{"city":"Holicong","state_name":"Pennsylvania","lat":40.33594,"lng":-75.04855,"zip":"18928","miles_from_dt":4.62},{"city":"New Hope","state_name":"Pennsylvania","lat":40.35126,"lng":-74.99779,"zip":"18938","miles_from_dt":4.72},{"city":"Jamison","state_name":"Pennsylvania","lat":40.25674,"lng":-75.07885,"zip":"18929","miles_from_dt":4.76},{"city":"Lahaska","state_name":"Pennsylvania","lat":40.34779,"lng":-75.0315,"zip":"18931","miles_from_dt":4.87},{"city":"Mechanicsville","state_name":"Pennsylvania","lat":40.34663,"lng":-75.07211,"zip":"18934","miles_from_dt":5.98},{"city":"Warminster","state_name":"Pennsylvania","lat":40.21869,"lng":-75.07568,"zip":"18991","miles_from_dt":6.13},{"city":"Warminster","state_name":"Pennsylvania","lat":40.21675,"lng":-75.07321,"zip":"18974","miles_from_dt":6.14},{"city":"Washington Crossing","state_name":"Pennsylvania","lat":40.28655,"lng":-74.87865,"zip":"18977","miles_from_dt":6.17},{"city":"Southampton","state_name":"Pennsylvania","lat":40.1879,"lng":-75.00557,"zip":"18966","miles_from_dt":6.57},{"city":"Solebury","state_name":"Pennsylvania","lat":40.38068,"lng":-75.00825,"zip":"18963","miles_from_dt":6.79},{"city":"Carversville","state_name":"Pennsylvania","lat":40.37727,"lng":-75.0545,"zip":"18913","miles_from_dt":7.22},{"city":"Doylestown","state_name":"Pennsylvania","lat":40.35474,"lng":-75.09855,"zip":"18902","miles_from_dt":7.37},{"city":"Titusville","state_name":"New Jersey","lat":40.31453,"lng":-74.85946,"zip":"08560","miles_from_dt":7.51},{"city":"Lambertville","state_name":"New Jersey","lat":40.37288,"lng":-74.89747,"zip":"08530","miles_from_dt":8.08},{"city":"Warrington","state_name":"Pennsylvania","lat":40.24676,"lng":-75.14321,"zip":"18976","miles_from_dt":8.2},{"city":"Fort Washington","state_name":"Pennsylvania","lat":40.17607,"lng":-74.92482,"zip":"19048","miles_from_dt":8.26},{"city":"Langhorne","state_name":"Pennsylvania","lat":40.18207,"lng":-74.91062,"zip":"19047","miles_from_dt":8.27},{"city":"Doylestown","state_name":"Pennsylvania","lat":40.30529,"lng":-75.15026,"zip":"18901","miles_from_dt":8.33},{"city":"Fort Washington","state_name":"Pennsylvania","lat":40.17527,"lng":-74.91979,"zip":"19049","miles_from_dt":8.43},{"city":"Lumberville","state_name":"Pennsylvania","lat":40.40265,"lng":-75.042,"zip":"18933","miles_from_dt":8.63},{"city":"Danboro","state_name":"Pennsylvania","lat":40.355,"lng":-75.13268,"zip":"18916","miles_from_dt":8.8},{"city":"Feasterville Trevose","state_name":"Pennsylvania","lat":40.15475,"lng":-74.97918,"zip":"19053","miles_from_dt":8.88},{"city":"Trenton","state_name":"New Jersey","lat":40.26705,"lng":-74.82235,"zip":"08628","miles_from_dt":9.21},{"city":"Hatboro","state_name":"Pennsylvania","lat":40.17732,"lng":-75.10624,"zip":"19040","miles_from_dt":9.35},{"city":"Rosemont","state_name":"New Jersey","lat":40.42097,"lng":-74.9951,"zip":"08556","miles_from_dt":9.53},{"city":"Fountainville","state_name":"Pennsylvania","lat":40.3532,"lng":-75.16798,"zip":"18923","miles_from_dt":10.33},{"city":"Horsham","state_name":"Pennsylvania","lat":40.18901,"lng":-75.15253,"zip":"19044","miles_from_dt":10.53},{"city":"Bryn Athyn","state_name":"Pennsylvania","lat":40.13775,"lng":-75.06308,"zip":"19009","miles_from_dt":10.63},{"city":"Plumsteadville","state_name":"Pennsylvania","lat":40.38488,"lng":-75.14631,"zip":"18949","miles_from_dt":10.63},{"city":"Stockton","state_name":"New Jersey","lat":40.4387,"lng":-74.9716,"zip":"08559","miles_from_dt":10.83},{"city":"Levittown","state_name":"Pennsylvania","lat":40.15044,"lng":-74.88534,"zip":"19056","miles_from_dt":10.83},{"city":"Huntingdon Valley","state_name":"Pennsylvania","lat":40.13323,"lng":-75.06222,"zip":"19006","miles_from_dt":10.91},{"city":"Fairless Hills","state_name":"Pennsylvania","lat":40.1812,"lng":-74.83269,"zip":"19030","miles_from_dt":11.1},{"city":"Pennington","state_name":"New Jersey","lat":40.33026,"lng":-74.79422,"zip":"08534","miles_from_dt":11.12},{"city":"Trenton","state_name":"New Jersey","lat":40.24878,"lng":-74.78734,"zip":"08618","miles_from_dt":11.25},{"city":"Chalfont","state_name":"Pennsylvania","lat":40.28908,"lng":-75.21046,"zip":"18914","miles_from_dt":11.37},{"city":"Philadelphia","state_name":"Pennsylvania","lat":40.1176,"lng":-75.01451,"zip":"19019","miles_from_dt":11.44},{"city":"Willow Grove","state_name":"Pennsylvania","lat":40.1484,"lng":-75.12378,"zip":"19090","miles_from_dt":11.5},{"city":"Morrisville","state_name":"Pennsylvania","lat":40.19595,"lng":-74.80976,"zip":"19067","miles_from_dt":11.5},{"city":"Philadelphia","state_name":"Pennsylvania","lat":40.11655,"lng":-75.01399,"zip":"19116","miles_from_dt":11.51},{"city":"Sergeantsville","state_name":"New Jersey","lat":40.44541,"lng":-74.94305,"zip":"08557","miles_from_dt":11.55},{"city":"Levittown","state_name":"Pennsylvania","lat":40.155,"lng":-74.85441,"zip":"19058","miles_from_dt":11.55},{"city":"Pipersville","state_name":"Pennsylvania","lat":40.42677,"lng":-75.1138,"zip":"18947","miles_from_dt":11.73},{"city":"Point Pleasant","state_name":"Pennsylvania","lat":40.44709,"lng":-75.06544,"zip":"18950","miles_from_dt":11.92},{"city":"Levittown","state_name":"Pennsylvania","lat":40.17055,"lng":-74.82016,"zip":"19054","miles_from_dt":12.08},{"city":"Levittown","state_name":"Pennsylvania","lat":40.14013,"lng":-74.85718,"zip":"19057","miles_from_dt":12.26},{"city":"Levittown","state_name":"Pennsylvania","lat":40.14984,"lng":-74.83881,"zip":"19055","miles_from_dt":12.36},{"city":"Trenton","state_name":"New Jersey","lat":40.25531,"lng":-74.76222,"zip":"08638","miles_from_dt":12.47},{"city":"Dublin","state_name":"Pennsylvania","lat":40.37088,"lng":-75.202,"zip":"18917","miles_from_dt":12.49},{"city":"Trenton","state_name":"New Jersey","lat":40.22185,"lng":-74.76973,"zip":"08607","miles_from_dt":12.65},{"city":"Bensalem","state_name":"Pennsylvania","lat":40.10453,"lng":-74.93853,"zip":"19020","miles_from_dt":12.66},{"city":"Trenton","state_name":"New Jersey","lat":40.21954,"lng":-74.76969,"zip":"08666","miles_from_dt":12.71},{"city":"Trenton","state_name":"New Jersey","lat":40.21857,"lng":-74.76894,"zip":"08647","miles_from_dt":12.77},{"city":"Trenton","state_name":"New Jersey","lat":40.21719,"lng":-74.76963,"zip":"08645","miles_from_dt":12.77},{"city":"Abington","state_name":"Pennsylvania","lat":40.12624,"lng":-75.12652,"zip":"19001","miles_from_dt":12.84},{"city":"Trenton","state_name":"New Jersey","lat":40.21947,"lng":-74.76693,"zip":"08608","miles_from_dt":12.85},{"city":"Trenton","state_name":"New Jersey","lat":40.22051,"lng":-74.76526,"zip":"08603","miles_from_dt":12.9},{"city":"Trenton","state_name":"New Jersey","lat":40.22086,"lng":-74.76486,"zip":"08695","miles_from_dt":12.92},{"city":"Trenton","state_name":"New Jersey","lat":40.21927,"lng":-74.76518,"zip":"08605","miles_from_dt":12.94},{"city":"Trenton","state_name":"New Jersey","lat":40.2196,"lng":-74.76437,"zip":"08604","miles_from_dt":12.97},{"city":"Philadelphia","state_name":"Pennsylvania","lat":40.0951,"lng":-74.98159,"zip":"19154","miles_from_dt":12.97},{"city":"Dresher","state_name":"Pennsylvania","lat":40.14556,"lng":-75.1632,"zip":"19025","miles_from_dt":12.98},{"city":"Trenton","state_name":"New Jersey","lat":40.2199,"lng":-74.76374,"zip":"08601","miles_from_dt":12.99},{"city":"Montgomeryville","state_name":"Pennsylvania","lat":40.22993,"lng":-75.23154,"zip":"18936","miles_from_dt":13.01},{"city":"Trenton","state_name":"New Jersey","lat":40.21789,"lng":-74.76342,"zip":"08646","miles_from_dt":13.06},{"city":"Ambler","state_name":"Pennsylvania","lat":40.18386,"lng":-75.21104,"zip":"19002","miles_from_dt":13.29},{"city":"Philadelphia","state_name":"Pennsylvania","lat":40.09002,"lng":-74.98002,"zip":"19155","miles_from_dt":13.33},{"city":"Hilltown","state_name":"Pennsylvania","lat":40.31952,"lng":-75.24514,"zip":"18927","miles_from_dt":13.43},{"city":"Philadelphia","state_name":"Pennsylvania","lat":40.09094,"lng":-75.04595,"zip":"19115","miles_from_dt":13.51},{"city":"Blooming Glen","state_name":"Pennsylvania","lat":40.35987,"lng":-75.23369,"zip":"18911","miles_from_dt":13.66},{"city":"Trenton","state_name":"New Jersey","lat":40.2059,"lng":-74.75706,"zip":"08625","miles_from_dt":13.67},{"city":"Hopewell","state_name":"New Jersey","lat":40.39641,"lng":-74.78185,"zip":"08525","miles_from_dt":13.73},{"city":"North Wales","state_name":"Pennsylvania","lat":40.22303,"lng":-75.24365,"zip":"19454","miles_from_dt":13.76},{"city":"Bristol","state_name":"Pennsylvania","lat":40.11483,"lng":-74.85474,"zip":"19007","miles_from_dt":13.77},{"city":"Line Lexington","state_name":"Pennsylvania","lat":40.29457,"lng":-75.25581,"zip":"18932","miles_from_dt":13.78},{"city":"Colmar","state_name":"Pennsylvania","lat":40.27255,"lng":-75.25628,"zip":"18915","miles_from_dt":13.8},{"city":"Jenkintown","state_name":"Pennsylvania","lat":40.10133,"lng":-75.10558,"zip":"19046","miles_from_dt":13.81},{"city":"Ringoes","state_name":"New Jersey","lat":40.44425,"lng":-74.83907,"zip":"08551","miles_from_dt":13.86},{"city":"Bedminster","state_name":"Pennsylvania","lat":40.42639,"lng":-75.17937,"zip":"18910","miles_from_dt":13.87},{"city":"Trenton","state_name":"New Jersey","lat":40.22594,"lng":-74.74109,"zip":"08609","miles_from_dt":14.01},{"city":"Spring House","state_name":"Pennsylvania","lat":40.18447,"lng":-75.23583,"zip":"19477","miles_from_dt":14.41},{"city":"Croydon","state_name":"Pennsylvania","lat":40.08874,"lng":-74.89385,"zip":"19021","miles_from_dt":14.43},{"city":"Lawrence Township","state_name":"New Jersey","lat":40.28488,"lng":-74.72201,"zip":"08648","miles_from_dt":14.45},{"city":"Gwynedd","state_name":"Pennsylvania","lat":40.20253,"lng":-75.24842,"zip":"19436","miles_from_dt":14.48},{"city":"Trenton","state_name":"New Jersey","lat":40.22066,"lng":-74.73127,"zip":"08629","miles_from_dt":14.61},{"city":"Perkasie","state_name":"Pennsylvania","lat":40.39252,"lng":-75.23381,"zip":"18944","miles_from_dt":14.69},{"city":"Trenton","state_name":"New Jersey","lat":40.19107,"lng":-74.74299,"zip":"08611","miles_from_dt":14.77},{"city":"Philadelphia","state_name":"Pennsylvania","lat":40.06743,"lng":-75.00361,"zip":"19114","miles_from_dt":14.87},{"city":"Gwynedd Valley","state_name":"Pennsylvania","lat":40.18706,"lng":-75.25274,"zip":"19437","miles_from_dt":15.13},{"city":"Silverdale","state_name":"Pennsylvania","lat":40.34462,"lng":-75.27033,"zip":"18962","miles_from_dt":15.13},{"city":"Fort Washington","state_name":"Pennsylvania","lat":40.13353,"lng":-75.20953,"zip":"19034","miles_from_dt":15.31},{"city":"Erwinna","state_name":"Pennsylvania","lat":40.49264,"lng":-75.09067,"zip":"18920","miles_from_dt":15.32},{"city":"Florence","state_name":"New Jersey","lat":40.11541,"lng":-74.80357,"zip":"08518","miles_from_dt":15.38},{"city":"Philadelphia","state_name":"Pennsylvania","lat":40.06158,"lng":-75.04663,"zip":"19152","miles_from_dt":15.5},{"city":"Oreland","state_name":"Pennsylvania","lat":40.1136,"lng":-75.18852,"zip":"19075","miles_from_dt":15.52},{"city":"Glenside","state_name":"Pennsylvania","lat":40.10197,"lng":-75.17214,"zip":"19038","miles_from_dt":15.59},{"city":"Hatfield","state_name":"Pennsylvania","lat":40.285,"lng":-75.29102,"zip":"19440","miles_from_dt":15.62},{"city":"Philadelphia","state_name":"Pennsylvania","lat":40.06546,"lng":-75.0807,"zip":"19161","miles_from_dt":15.66},{"city":"North Wales","state_name":"Pennsylvania","lat":40.21106,"lng":-75.2779,"zip":"19455","miles_from_dt":15.74},{"city":"Ottsville","state_name":"Pennsylvania","lat":40.47167,"lng":-75.16261,"zip":"18942","miles_from_dt":15.74},{"city":"Wyncote","state_name":"Pennsylvania","lat":40.08588,"lng":-75.15137,"zip":"19095","miles_from_dt":15.9},{"city":"Philadelphia","state_name":"Pennsylvania","lat":40.06065,"lng":-75.08019,"zip":"19111","miles_from_dt":15.97},{"city":"Elkins Park","state_name":"Pennsylvania","lat":40.07347,"lng":-75.12453,"zip":"19027","miles_from_dt":15.98},{"city":"Frenchtown","state_name":"New Jersey","lat":40.51353,"lng":-75.02341,"zip":"08825","miles_from_dt":15.99},{"city":"Trenton","state_name":"New Jersey","lat":40.19377,"lng":-74.71565,"zip":"08610","miles_from_dt":16.02},{"city":"Trenton","state_name":"New Jersey","lat":40.2414,"lng":-74.69669,"zip":"08619","miles_from_dt":16.05},{"city":"Roebling","state_name":"New Jersey","lat":40.11556,"lng":-74.77966,"zip":"08554","miles_from_dt":16.23},{"city":"Beverly","state_name":"New Jersey","lat":40.05484,"lng":-74.91407,"zip":"08010","miles_from_dt":16.31},{"city":"Cheltenham","state_name":"Pennsylvania","lat":40.05966,"lng":-75.10586,"zip":"19012","miles_from_dt":16.47},{"city":"Lansdale","state_name":"Pennsylvania","lat":40.23068,"lng":-75.30369,"zip":"19446","miles_from_dt":16.69},{"city":"Philadelphia","state_name":"Pennsylvania","lat":40.03973,"lng":-75.01932,"zip":"19136","miles_from_dt":16.82},{"city":"Flourtown","state_name":"Pennsylvania","lat":40.1083,"lng":-75.21747,"zip":"19031","miles_from_dt":16.82},{"city":"West Point","state_name":"Pennsylvania","lat":40.20665,"lng":-75.2985,"zip":"19486","miles_from_dt":16.87},{"city":"Blue Bell","state_name":"Pennsylvania","lat":40.14862,"lng":-75.26616,"zip":"19424","miles_from_dt":17.05},{"city":"Burlington","state_name":"New Jersey","lat":40.06926,"lng":-74.83198,"zip":"08016","miles_from_dt":17.09},{"city":"Philadelphia","state_name":"Pennsylvania","lat":40.07251,"lng":-75.17165,"zip":"19150","miles_from_dt":17.25},{"city":"Blue Bell","state_name":"Pennsylvania","lat":40.15835,"lng":-75.27858,"zip":"19422","miles_from_dt":17.27},{"city":"Philadelphia","state_name":"Pennsylvania","lat":40.03781,"lng":-75.06544,"zip":"19149","miles_from_dt":17.31},{"city":"Blawenburg","state_name":"New Jersey","lat":40.40104,"lng":-74.70474,"zip":"08504","miles_from_dt":17.38},{"city":"Philadelphia","state_name":"Pennsylvania","lat":40.05516,"lng":-75.13728,"zip":"19126","miles_from_dt":17.41},{"city":"Riverside","state_name":"New Jersey","lat":40.02937,"lng":-74.94999,"zip":"08075","miles_from_dt":17.65},{"city":"Souderton","state_name":"Pennsylvania","lat":40.29759,"lng":-75.33327,"zip":"18964","miles_from_dt":17.88},{"city":"Philadelphia","state_name":"Pennsylvania","lat":40.05594,"lng":-75.15947,"zip":"19138","miles_from_dt":17.9},{"city":"Flemington","state_name":"New Jersey","lat":40.52281,"lng":-74.86576,"zip":"08822","miles_from_dt":17.91},{"city":"Skillman","state_name":"New Jersey","lat":40.41382,"lng":-74.70236,"zip":"08558","miles_from_dt":17.92},{"city":"Trenton","state_name":"New Jersey","lat":40.22512,"lng":-74.66081,"zip":"08690","miles_from_dt":18.13},{"city":"Sellersville","state_name":"Pennsylvania","lat":40.36376,"lng":-75.32366,"zip":"18960","miles_from_dt":18.21},{"city":"Philadelphia","state_name":"Pennsylvania","lat":40.02192,"lng":-75.04966,"zip":"19135","miles_from_dt":18.23},{"city":"Princeton","state_name":"New Jersey","lat":40.31117,"lng":-74.65163,"zip":"08543","miles_from_dt":18.27},{"city":"Bordentown","state_name":"New Jersey","lat":40.10413,"lng":-74.73959,"zip":"08505","miles_from_dt":18.31},{"city":"Princeton","state_name":"New Jersey","lat":40.34838,"lng":-74.65902,"zip":"08541","miles_from_dt":18.33},{"city":"Kulpsville","state_name":"Pennsylvania","lat":40.24412,"lng":-75.33915,"zip":"19443","miles_from_dt":18.36},{"city":"Princeton","state_name":"New Jersey","lat":40.35452,"lng":-74.66064,"zip":"08542","miles_from_dt":18.36},{"city":"Princeton","state_name":"New Jersey","lat":40.34641,"lng":-74.65787,"zip":"08544","miles_from_dt":18.36},{"city":"Philadelphia","state_name":"Pennsylvania","lat":40.03417,"lng":-75.11986,"zip":"19120","miles_from_dt":18.38},{"city":"Willingboro","state_name":"New Jersey","lat":40.02787,"lng":-74.88709,"zip":"08046","miles_from_dt":18.5},{"city":"Philadelphia","state_name":"Pennsylvania","lat":40.07233,"lng":-75.21247,"zip":"19118","miles_from_dt":18.52},{"city":"Upper Black Eddy","state_name":"Pennsylvania","lat":40.53395,"lng":-75.11997,"zip":"18972","miles_from_dt":18.53},{"city":"Philadelphia","state_name":"Pennsylvania","lat":40.03788,"lng":-75.14541,"zip":"19141","miles_from_dt":18.67},{"city":"Princeton","state_name":"New Jersey","lat":40.36423,"lng":-74.65661,"zip":"08540","miles_from_dt":18.75},{"city":"Riverton","state_name":"New Jersey","lat":40.01068,"lng":-75.01553,"zip":"08076","miles_from_dt":18.81},{"city":"Revere","state_name":"Pennsylvania","lat":40.52487,"lng":-75.16262,"zip":"18953","miles_from_dt":18.89},{"city":"Philadelphia","state_name":"Pennsylvania","lat":40.05303,"lng":-75.19223,"zip":"19119","miles_from_dt":18.97},{"city":"Philadelphia","state_name":"Pennsylvania","lat":40.01728,"lng":-75.09387,"zip":"19124","miles_from_dt":19.05},{"city":"Plymouth Meeting","state_name":"Pennsylvania","lat":40.11542,"lng":-75.28453,"zip":"19462","miles_from_dt":19.17},{"city":"Lafayette Hill","state_name":"Pennsylvania","lat":40.08686,"lng":-75.25427,"zip":"19444","miles_from_dt":19.25},{"city":"Mainland","state_name":"Pennsylvania","lat":40.26003,"lng":-75.36002,"zip":"19451","miles_from_dt":19.33},{"city":"Riverton","state_name":"New Jersey","lat":40.00193,"lng":-74.99515,"zip":"08077","miles_from_dt":19.38},{"city":"Ferndale","state_name":"Pennsylvania","lat":40.52946,"lng":-75.1738,"zip":"18921","miles_from_dt":19.45},{"city":"Palmyra","state_name":"New Jersey","lat":40.00234,"lng":-75.03589,"zip":"08065","miles_from_dt":19.47},{"city":"Three Bridges","state_name":"New Jersey","lat":40.52219,"lng":-74.79428,"zip":"08887","miles_from_dt":19.63},{"city":"Philadelphia","state_name":"Pennsylvania","lat":40.03278,"lng":-75.17523,"zip":"19144","miles_from_dt":19.7},{"city":"Quakertown","state_name":"New Jersey","lat":40.56607,"lng":-74.94355,"zip":"08868","miles_from_dt":19.73},{"city":"Philadelphia","state_name":"Pennsylvania","lat":40.03206,"lng":-75.17755,"zip":"19179","miles_from_dt":19.81},{"city":"Worcester","state_name":"Pennsylvania","lat":40.19673,"lng":-75.35401,"zip":"19490","miles_from_dt":19.87},{"city":"Princeton Junction","state_name":"New Jersey","lat":40.28125,"lng":-74.61926,"zip":"08550","miles_from_dt":19.88},{"city":"Trenton","state_name":"New Jersey","lat":40.16825,"lng":-74.64956,"zip":"08620","miles_from_dt":19.93},{"city":"Rancocas","state_name":"New Jersey","lat":40.00952,"lng":-74.86698,"zip":"08073","miles_from_dt":20.05},{"city":"Telford","state_name":"Pennsylvania","lat":40.32644,"lng":-75.37239,"zip":"18969","miles_from_dt":20.14},{"city":"Pittstown","state_name":"New Jersey","lat":40.57513,"lng":-74.96777,"zip":"08867","miles_from_dt":20.22},{"city":"Philadelphia","state_name":"Pennsylvania","lat":40.01224,"lng":-75.14512,"zip":"19140","miles_from_dt":20.28},{"city":"Philadelphia","state_name":"Pennsylvania","lat":40.05003,"lng":-75.23003,"zip":"19128","miles_from_dt":20.3},{"city":"Philadelphia","state_name":"Pennsylvania","lat":39.99455,"lng":-75.074,"zip":"19137","miles_from_dt":20.32},{"city":"Earlington","state_name":"Pennsylvania","lat":40.32391,"lng":-75.37711,"zip":"18918","miles_from_dt":20.36},{"city":"Rocky Hill","state_name":"New Jersey","lat":40.40011,"lng":-74.64051,"zip":"08553","miles_from_dt":20.41},{"city":"Philadelphia","state_name":"Pennsylvania","lat":40.01,"lng":-75.15001,"zip":"19160","miles_from_dt":20.53},{"city":"Kintnersville","state_name":"Pennsylvania","lat":40.52926,"lng":-75.2142,"zip":"18930","miles_from_dt":20.55},{"city":"Norristown","state_name":"Pennsylvania","lat":40.13042,"lng":-75.33143,"zip":"19401","miles_from_dt":20.65},{"city":"Cedars","state_name":"Pennsylvania","lat":40.212,"lng":-75.37831,"zip":"19423","miles_from_dt":20.83},{"city":"Harleysville","state_name":"Pennsylvania","lat":40.2783,"lng":-75.39044,"zip":"19441","miles_from_dt":20.88},{"city":"Tylersport","state_name":"Pennsylvania","lat":40.35009,"lng":-75.38443,"zip":"18971","miles_from_dt":21.06},{"city":"Philadelphia","state_name":"Pennsylvania","lat":39.98953,"lng":-75.10838,"zip":"19134","miles_from_dt":21.1},{"city":"Philadelphia","state_name":"Pennsylvania","lat":40.01338,"lng":-75.18454,"zip":"19129","miles_from_dt":21.12},{"city":"Moorestown","state_name":"New Jersey","lat":39.97948,"lng":-74.94105,"zip":"08057","miles_from_dt":21.13},{"city":"Harleysville","state_name":"Pennsylvania","lat":40.27018,"lng":-75.39554,"zip":"19438","miles_from_dt":21.16},{"city":"Belle Mead","state_name":"New Jersey","lat":40.44815,"lng":-74.65763,"zip":"08502","miles_from_dt":21.16},{"city":"Kingston","state_name":"New Jersey","lat":40.38791,"lng":-74.61744,"zip":"08528","miles_from_dt":21.23},{"city":"Conshohocken","state_name":"Pennsylvania","lat":40.08051,"lng":-75.30008,"zip":"19429","miles_from_dt":21.33},{"city":"Columbus","state_name":"New Jersey","lat":40.06516,"lng":-74.70905,"zip":"08022","miles_from_dt":21.34},{"city":"Fairview Village","state_name":"Pennsylvania","lat":40.12139,"lng":-75.34028,"zip":"19409","miles_from_dt":21.38},{"city":"Norristown","state_name":"Pennsylvania","lat":40.12022,"lng":-75.34019,"zip":"19404","miles_from_dt":21.42},{"city":"Philadelphia","state_name":"Pennsylvania","lat":40.02854,"lng":-75.22746,"zip":"19127","miles_from_dt":21.42},{"city":"Conshohocken","state_name":"Pennsylvania","lat":40.08011,"lng":-75.30317,"zip":"19428","miles_from_dt":21.47},{"city":"Philadelphia","state_name":"Pennsylvania","lat":39.99238,"lng":-75.14149,"zip":"19133","miles_from_dt":21.48},{"city":"Eagleville","state_name":"Pennsylvania","lat":40.12,"lng":-75.34219,"zip":"19415","miles_from_dt":21.51},{"city":"Robbinsville","state_name":"New Jersey","lat":40.20953,"lng":-74.59919,"zip":"08691","miles_from_dt":21.55},{"city":"Quakertown","state_name":"Pennsylvania","lat":40.45294,"lng":-75.33833,"zip":"18951","miles_from_dt":21.57},{"city":"Neshanic Station","state_name":"New Jersey","lat":40.52879,"lng":-74.74246,"zip":"08853","miles_from_dt":21.59},{"city":"Pennsauken","state_name":"New Jersey","lat":39.97243,"lng":-75.06021,"zip":"08110","miles_from_dt":21.69},{"city":"Mount Holly","state_name":"New Jersey","lat":40.00983,"lng":-74.79105,"zip":"08060","miles_from_dt":21.72},{"city":"Lederach","state_name":"Pennsylvania","lat":40.26193,"lng":-75.40575,"zip":"19450","miles_from_dt":21.73},{"city":"Stanton","state_name":"New Jersey","lat":40.57427,"lng":-74.83818,"zip":"08885","miles_from_dt":21.75},{"city":"Chesterfield","state_name":"New Jersey","lat":40.1163,"lng":-74.64568,"zip":"08515","miles_from_dt":21.78},{"city":"Richlandtown","state_name":"Pennsylvania","lat":40.48469,"lng":-75.3141,"zip":"18955","miles_from_dt":21.83},{"city":"Philadelphia","state_name":"Pennsylvania","lat":39.99649,"lng":-75.17102,"zip":"19132","miles_from_dt":21.84},{"city":"Trenton","state_name":"New Jersey","lat":40.13783,"lng":-74.62782,"zip":"08650","miles_from_dt":21.87},{"city":"Bridgeport","state_name":"Pennsylvania","lat":40.09949,"lng":-75.33497,"zip":"19405","miles_from_dt":21.97},{"city":"Plainsboro","state_name":"New Jersey","lat":40.33392,"lng":-74.58488,"zip":"08536","miles_from_dt":21.97},{"city":"Skippack","state_name":"Pennsylvania","lat":40.22427,"lng":-75.40507,"zip":"19474","miles_from_dt":22.03},{"city":"Windsor","state_name":"New Jersey","lat":40.24659,"lng":-74.58138,"zip":"08561","miles_from_dt":22.03},{"city":"Milford","state_name":"New Jersey","lat":40.59386,"lng":-75.09569,"zip":"08848","miles_from_dt":22.1},{"city":"Gladwyne","state_name":"Pennsylvania","lat":40.04851,"lng":-75.28126,"zip":"19035","miles_from_dt":22.14},{"city":"Trumbauersville","state_name":"Pennsylvania","lat":40.41212,"lng":-75.38129,"zip":"18970","miles_from_dt":22.24},{"city":"Philadelphia","state_name":"Pennsylvania","lat":39.97611,"lng":-75.12472,"zip":"19125","miles_from_dt":22.24},{"city":"Bala Cynwyd","state_name":"Pennsylvania","lat":40.01362,"lng":-75.22979,"zip":"19004","miles_from_dt":22.34},{"city":"Norristown","state_name":"Pennsylvania","lat":40.14898,"lng":-75.38034,"zip":"19403","miles_from_dt":22.36},{"city":"Philadelphia","state_name":"Pennsylvania","lat":39.97767,"lng":-75.14571,"zip":"19122","miles_from_dt":22.51},{"city":"Creamery","state_name":"Pennsylvania","lat":40.22035,"lng":-75.41455,"zip":"19430","miles_from_dt":22.57},{"city":"Narberth","state_name":"Pennsylvania","lat":40.02419,"lng":-75.25697,"zip":"19072","miles_from_dt":22.59},{"city":"Trenton","state_name":"New Jersey","lat":40.22019,"lng":-74.57602,"zip":"08606","miles_from_dt":22.59},{"city":"Trenton","state_name":"New Jersey","lat":40.21804,"lng":-74.57625,"zip":"08602","miles_from_dt":22.61},{"city":"Hillsborough","state_name":"New Jersey","lat":40.49858,"lng":-74.67274,"zip":"08844","miles_from_dt":22.61},{"city":"Little York","state_name":"New Jersey","lat":40.60764,"lng":-75.05804,"zip":"08834","miles_from_dt":22.65},{"city":"Hainesport","state_name":"New Jersey","lat":39.97669,"lng":-74.83708,"zip":"08036","miles_from_dt":22.73},{"city":"Maple Shade","state_name":"New Jersey","lat":39.952,"lng":-74.99502,"zip":"08052","miles_from_dt":22.83},{"city":"Philadelphia","state_name":"Pennsylvania","lat":39.98231,"lng":-75.17995,"zip":"19121","miles_from_dt":22.92},{"city":"Eagleville","state_name":"Pennsylvania","lat":40.16003,"lng":-75.40007,"zip":"19408","miles_from_dt":23.02},{"city":"Flagtown","state_name":"New Jersey","lat":40.52074,"lng":-74.68835,"zip":"08821","miles_from_dt":23.06},{"city":"Salfordville","state_name":"Pennsylvania","lat":40.29393,"lng":-75.43295,"zip":"18958","miles_from_dt":23.13},{"city":"Merchantville","state_name":"New Jersey","lat":39.95006,"lng":-75.05094,"zip":"08109","miles_from_dt":23.15},{"city":"Philadelphia","state_name":"Pennsylvania","lat":39.96399,"lng":-75.14568,"zip":"19123","miles_from_dt":23.39},{"city":"Camden","state_name":"New Jersey","lat":39.95174,"lng":-75.09107,"zip":"08105","miles_from_dt":23.4},{"city":"Riegelsville","state_name":"Pennsylvania","lat":40.56603,"lng":-75.24115,"zip":"18077","miles_from_dt":23.45},{"city":"Philadelphia","state_name":"Pennsylvania","lat":39.98865,"lng":-75.21835,"zip":"19131","miles_from_dt":23.48},{"city":"Merion Station","state_name":"Pennsylvania","lat":40.0022,"lng":-75.2489,"zip":"19066","miles_from_dt":23.56},{"city":"Mount Laurel","state_name":"New Jersey","lat":39.94835,"lng":-74.90472,"zip":"08054","miles_from_dt":23.57},{"city":"Durham","state_name":"Pennsylvania","lat":40.57631,"lng":-75.22419,"zip":"18039","miles_from_dt":23.57},{"city":"Jobstown","state_name":"New Jersey","lat":40.03852,"lng":-74.68263,"zip":"08041","miles_from_dt":23.63},{"city":"Milford Square","state_name":"Pennsylvania","lat":40.43444,"lng":-75.39714,"zip":"18935","miles_from_dt":23.64},{"city":"Philadelphia","state_name":"Pennsylvania","lat":39.96334,"lng":-75.15953,"zip":"19188","miles_from_dt":23.7},{"city":"Philadelphia","state_name":"Pennsylvania","lat":39.9676,"lng":-75.17495,"zip":"19130","miles_from_dt":23.74},{"city":"Readington","state_name":"New Jersey","lat":40.56649,"lng":-74.73994,"zip":"08870","miles_from_dt":23.76},{"city":"Camden","state_name":"New Jersey","lat":39.95203,"lng":-75.12134,"zip":"08102","miles_from_dt":23.78},{"city":"Green Lane","state_name":"Pennsylvania","lat":40.35321,"lng":-75.43824,"zip":"18054","miles_from_dt":23.89},{"city":"Philadelphia","state_name":"Pennsylvania","lat":39.95987,"lng":-75.16083,"zip":"19108","miles_from_dt":23.94},{"city":"Woxall","state_name":"Pennsylvania","lat":40.31151,"lng":-75.44922,"zip":"18979","miles_from_dt":24.06},{"city":"Philadelphia","state_name":"Pennsylvania","lat":39.95563,"lng":-75.15526,"zip":"19171","miles_from_dt":24.11},{"city":"Salford","state_name":"Pennsylvania","lat":40.29607,"lng":-75.45339,"zip":"18957","miles_from_dt":24.22},{"city":"Philadelphia","state_name":"Pennsylvania","lat":39.95145,"lng":-75.14702,"zip":"19181","miles_from_dt":24.23},{"city":"Collegeville","state_name":"Pennsylvania","lat":40.18972,"lng":-75.43734,"zip":"19426","miles_from_dt":24.24},{"city":"Cherry Hill","state_name":"New Jersey","lat":39.93142,"lng":-75.02515,"zip":"08002","miles_from_dt":24.3},{"city":"Philadelphia","state_name":"Pennsylvania","lat":39.951,"lng":-75.14975,"zip":"19177","miles_from_dt":24.31},{"city":"Philadelphia","state_name":"Pennsylvania","lat":39.95144,"lng":-75.15151,"zip":"19244","miles_from_dt":24.31},{"city":"King Of Prussia","state_name":"Pennsylvania","lat":40.09467,"lng":-75.38402,"zip":"19406","miles_from_dt":24.32},{"city":"Philadelphia","state_name":"Pennsylvania","lat":39.95307,"lng":-75.16103,"zip":"19099","miles_from_dt":24.38},{"city":"Philadelphia","state_name":"Pennsylvania","lat":39.95477,"lng":-75.16769,"zip":"19187","miles_from_dt":24.41},{"city":"Philadelphia","state_name":"Pennsylvania","lat":39.9518,"lng":-75.15864,"zip":"19107","miles_from_dt":24.42},{"city":"Philadelphia","state_name":"Pennsylvania","lat":39.95356,"lng":-75.16602,"zip":"19110","miles_from_dt":24.45},{"city":"Philadelphia","state_name":"Pennsylvania","lat":39.95473,"lng":-75.16986,"zip":"19173","miles_from_dt":24.45},{"city":"Philadelphia","state_name":"Pennsylvania","lat":39.95253,"lng":-75.1628,"zip":"19101","miles_from_dt":24.45},{"city":"Philadelphia","state_name":"Pennsylvania","lat":39.95193,"lng":-75.16046,"zip":"19105","miles_from_dt":24.45},{"city":"Philadelphia","state_name":"Pennsylvania","lat":39.94999,"lng":-75.15464,"zip":"19175","miles_from_dt":24.46},{"city":"Philadelphia","state_name":"Pennsylvania","lat":39.95301,"lng":-75.16544,"zip":"19102","miles_from_dt":24.47},{"city":"Annandale","state_name":"New Jersey","lat":40.62774,"lng":-74.88655,"zip":"08801","miles_from_dt":24.48},{"city":"Philadelphia","state_name":"Pennsylvania","lat":39.94589,"lng":-75.14224,"zip":"19106","miles_from_dt":24.51},{"city":"Philadelphia","state_name":"Pennsylvania","lat":39.95228,"lng":-75.16597,"zip":"19191","miles_from_dt":24.53},{"city":"Hightstown","state_name":"New Jersey","lat":40.25555,"lng":-74.53269,"zip":"08520","miles_from_dt":24.53},{"city":"Philadelphia","state_name":"Pennsylvania","lat":39.95126,"lng":-75.1631,"zip":"19255","miles_from_dt":24.54},{"city":"Spring Mount","state_name":"Pennsylvania","lat":40.28011,"lng":-75.46001,"zip":"19478","miles_from_dt":24.55},{"city":"Wynnewood","state_name":"Pennsylvania","lat":39.99813,"lng":-75.27388,"zip":"19096","miles_from_dt":24.56},{"city":"Springtown","state_name":"Pennsylvania","lat":40.56236,"lng":-75.28396,"zip":"18081","miles_from_dt":24.57},{"city":"Philadelphia","state_name":"Pennsylvania","lat":39.95,"lng":-75.1601,"zip":"19182","miles_from_dt":24.57},{"city":"Philadelphia","state_name":"Pennsylvania","lat":39.95744,"lng":-75.18426,"zip":"19196","miles_from_dt":24.58},{"city":"Camden","state_name":"New Jersey","lat":39.9409,"lng":-75.12616,"zip":"08101","miles_from_dt":24.59},{"city":"Philadelphia","state_name":"Pennsylvania","lat":39.95,"lng":-75.16219,"zip":"19195","miles_from_dt":24.6},{"city":"Philadelphia","state_name":"Pennsylvania","lat":39.95,"lng":-75.16219,"zip":"19190","miles_from_dt":24.6},{"city":"Philadelphia","state_name":"Pennsylvania","lat":39.95173,"lng":-75.16796,"zip":"19192","miles_from_dt":24.61},{"city":"Philadelphia","state_name":"Pennsylvania","lat":39.9557,"lng":-75.18101,"zip":"19162","miles_from_dt":24.62},{"city":"Philadelphia","state_name":"Pennsylvania","lat":39.95591,"lng":-75.18238,"zip":"19093","miles_from_dt":24.63},{"city":"Philadelphia","state_name":"Pennsylvania","lat":39.9516,"lng":-75.169,"zip":"19183","miles_from_dt":24.63},{"city":"Philadelphia","state_name":"Pennsylvania","lat":39.95303,"lng":-75.17386,"zip":"19103","miles_from_dt":24.64},{"city":"Philadelphia","state_name":"Pennsylvania","lat":39.9547,"lng":-75.17878,"zip":"19197","miles_from_dt":24.64},{"city":"Lumberton","state_name":"New Jersey","lat":39.95644,"lng":-74.80627,"zip":"08048","miles_from_dt":24.65},{"city":"Philadelphia","state_name":"Pennsylvania","lat":39.94958,"lng":-75.16387,"zip":"19109","miles_from_dt":24.66},{"city":"Philadelphia","state_name":"Pennsylvania","lat":39.95568,"lng":-75.18406,"zip":"19193","miles_from_dt":24.68},{"city":"Philadelphia","state_name":"Pennsylvania","lat":39.94534,"lng":-75.15108,"zip":"19172","miles_from_dt":24.7},{"city":"Sumneytown","state_name":"Pennsylvania","lat":40.33258,"lng":-75.45839,"zip":"18084","miles_from_dt":24.7},{"city":"Camden","state_name":"New Jersey","lat":39.93533,"lng":-75.11275,"zip":"08103","miles_from_dt":24.77},{"city":"Philadelphia","state_name":"Pennsylvania","lat":39.95891,"lng":-75.19836,"zip":"19104","miles_from_dt":24.8},{"city":"Philadelphia","state_name":"Pennsylvania","lat":39.95258,"lng":-75.18178,"zip":"19092","miles_from_dt":24.83},{"city":"Philadelphia","state_name":"Pennsylvania","lat":39.9532,"lng":-75.1839,"zip":"19184","miles_from_dt":24.84},{"city":"Valley Forge","state_name":"Pennsylvania","lat":40.10016,"lng":-75.40009,"zip":"19484","miles_from_dt":24.85},{"city":"Philadelphia","state_name":"Pennsylvania","lat":39.95309,"lng":-75.18496,"zip":"19178","miles_from_dt":24.87},{"city":"Philadelphia","state_name":"Pennsylvania","lat":39.95201,"lng":-75.18332,"zip":"19170","miles_from_dt":24.9},{"city":"Allentown","state_name":"New Jersey","lat":40.16022,"lng":-74.55237,"zip":"08501","miles_from_dt":24.91},{"city":"Monmouth Junction","state_name":"New Jersey","lat":40.38978,"lng":-74.54461,"zip":"08852","miles_from_dt":24.92},{"city":"Cranbury","state_name":"New Jersey","lat":40.32166,"lng":-74.52586,"zip":"08512","miles_from_dt":24.95},{"city":"Philadelphia","state_name":"Pennsylvania","lat":39.95,"lng":-75.18219,"zip":"19194","miles_from_dt":25},{"city":"Ardmore","state_name":"Pennsylvania","lat":40.00217,"lng":-75.29841,"zip":"19003","miles_from_dt":25.15},{"city":"Kendall Park","state_name":"New Jersey","lat":40.42058,"lng":-74.5538,"zip":"08824","miles_from_dt":25.17},{"city":"Bryn Mawr","state_name":"Pennsylvania","lat":40.02362,"lng":-75.3298,"zip":"19010","miles_from_dt":25.17},{"city":"Zionhill","state_name":"Pennsylvania","lat":40.48373,"lng":-75.39386,"zip":"18981","miles_from_dt":25.18},{"city":"Villanova","state_name":"Pennsylvania","lat":40.03759,"lng":-75.34969,"zip":"19085","miles_from_dt":25.26},{"city":"Philadelphia","state_name":"Pennsylvania","lat":39.97562,"lng":-75.25616,"zip":"19151","miles_from_dt":25.3},{"city":"Franklin Park","state_name":"New Jersey","lat":40.44218,"lng":-74.56318,"zip":"08823","miles_from_dt":25.32},{"city":"Schwenksville","state_name":"Pennsylvania","lat":40.25842,"lng":-75.47363,"zip":"19473","miles_from_dt":25.33},{"city":"Philadelphia","state_name":"Pennsylvania","lat":39.93645,"lng":-75.15468,"zip":"19147","miles_from_dt":25.34},{"city":"Philadelphia","state_name":"Pennsylvania","lat":39.96144,"lng":-75.22964,"zip":"19139","miles_from_dt":25.41},{"city":"Bloomsbury","state_name":"New Jersey","lat":40.64412,"lng":-75.09936,"zip":"08804","miles_from_dt":25.52},{"city":"Haverford","state_name":"Pennsylvania","lat":40.00663,"lng":-75.31747,"zip":"19041","miles_from_dt":25.57},{"city":"Clinton","state_name":"New Jersey","lat":40.64973,"lng":-74.92503,"zip":"08809","miles_from_dt":25.59},{"city":"Juliustown","state_name":"New Jersey","lat":40.01363,"lng":-74.662,"zip":"08042","miles_from_dt":25.62},{"city":"Whitehouse Station","state_name":"New Jersey","lat":40.60744,"lng":-74.75936,"zip":"08889","miles_from_dt":25.62},{"city":"Spinnerstown","state_name":"Pennsylvania","lat":40.43875,"lng":-75.4362,"zip":"18968","miles_from_dt":25.63},{"city":"Collingswood","state_name":"New Jersey","lat":39.91453,"lng":-75.06192,"zip":"08108","miles_from_dt":25.65},{"city":"Audubon","state_name":"Pennsylvania","lat":40.12856,"lng":-75.43766,"zip":"19407","miles_from_dt":25.7},{"city":"Philadelphia","state_name":"Pennsylvania","lat":39.93917,"lng":-75.18398,"zip":"19146","miles_from_dt":25.73},{"city":"Wrightstown","state_name":"New Jersey","lat":40.06812,"lng":-74.59401,"zip":"08562","miles_from_dt":25.9},{"city":"Birmingham","state_name":"New Jersey","lat":39.97504,"lng":-74.71371,"zip":"08011","miles_from_dt":25.95},{"city":"Coopersburg","state_name":"Pennsylvania","lat":40.50925,"lng":-75.38891,"zip":"18036","miles_from_dt":25.98},{"city":"Camden","state_name":"New Jersey","lat":39.91672,"lng":-75.11203,"zip":"08104","miles_from_dt":26},{"city":"Cherry Hill","state_name":"New Jersey","lat":39.90593,"lng":-74.99935,"zip":"08034","miles_from_dt":26.01},{"city":"Wayne","state_name":"Pennsylvania","lat":40.06172,"lng":-75.40004,"zip":"19087","miles_from_dt":26.29},{"city":"Oaklyn","state_name":"New Jersey","lat":39.90767,"lng":-75.08344,"zip":"08107","miles_from_dt":26.3},{"city":"Pennsburg","state_name":"Pennsylvania","lat":40.38378,"lng":-75.47702,"zip":"18073","miles_from_dt":26.37},{"city":"Red Hill","state_name":"Pennsylvania","lat":40.37382,"lng":-75.48154,"zip":"18076","miles_from_dt":26.43},{"city":"Philadelphia","state_name":"Pennsylvania","lat":39.94315,"lng":-75.22664,"zip":"19143","miles_from_dt":26.44},{"city":"Hellertown","state_name":"Pennsylvania","lat":40.58794,"lng":-75.29929,"zip":"18055","miles_from_dt":26.46},{"city":"Oaks","state_name":"Pennsylvania","lat":40.1367,"lng":-75.45962,"zip":"19456","miles_from_dt":26.55},{"city":"Hampton","state_name":"New Jersey","lat":40.66775,"lng":-74.97351,"zip":"08827","miles_from_dt":26.58},{"city":"Upper Darby","state_name":"Pennsylvania","lat":39.96043,"lng":-75.27032,"zip":"19082","miles_from_dt":26.59},{"city":"Somerville","state_name":"New Jersey","lat":40.58925,"lng":-74.68871,"zip":"08876","miles_from_dt":26.62},{"city":"Lebanon","state_name":"New Jersey","lat":40.645,"lng":-74.81989,"zip":"08833","miles_from_dt":26.65},{"city":"Philadelphia","state_name":"Pennsylvania","lat":39.91175,"lng":-75.1514,"zip":"19148","miles_from_dt":26.9},{"city":"Havertown","state_name":"Pennsylvania","lat":39.97715,"lng":-75.31192,"zip":"19083","miles_from_dt":26.94},{"city":"Haddonfield","state_name":"New Jersey","lat":39.89332,"lng":-75.03723,"zip":"08033","miles_from_dt":26.97},{"city":"Zieglerville","state_name":"Pennsylvania","lat":40.28817,"lng":-75.50623,"zip":"19492","miles_from_dt":26.99},{"city":"Dayton","state_name":"New Jersey","lat":40.37073,"lng":-74.49641,"zip":"08810","miles_from_dt":27.04},{"city":"High Bridge","state_name":"New Jersey","lat":40.66828,"lng":-74.89414,"zip":"08829","miles_from_dt":27.13},{"city":"Whitehouse","state_name":"New Jersey","lat":40.625,"lng":-74.74164,"zip":"08888","miles_from_dt":27.13},{"city":"Southeastern","state_name":"Pennsylvania","lat":40.0716,"lng":-75.42816,"zip":"19399","miles_from_dt":27.15},{"city":"Raritan","state_name":"New Jersey","lat":40.57316,"lng":-74.64305,"zip":"08869","miles_from_dt":27.32},{"city":"Asbury","state_name":"New Jersey","lat":40.6783,"lng":-75.02515,"zip":"08802","miles_from_dt":27.33},{"city":"Audubon","state_name":"New Jersey","lat":39.89119,"lng":-75.07388,"zip":"08106","miles_from_dt":27.34},{"city":"Philadelphia","state_name":"Pennsylvania","lat":39.91469,"lng":-75.19194,"zip":"19145","miles_from_dt":27.45},{"city":"Perkiomenville","state_name":"Pennsylvania","lat":40.31971,"lng":-75.51424,"zip":"18074","miles_from_dt":27.53},{"city":"Cherry Hill","state_name":"New Jersey","lat":39.88334,"lng":-74.97191,"zip":"08003","miles_from_dt":27.59},{"city":"Imlaystown","state_name":"New Jersey","lat":40.1649,"lng":-74.49606,"zip":"08526","miles_from_dt":27.63},{"city":"Lansdowne","state_name":"Pennsylvania","lat":39.93764,"lng":-75.26355,"zip":"19050","miles_from_dt":27.73},{"city":"Joint Base Mdl","state_name":"New Jersey","lat":40.02819,"lng":-74.58715,"zip":"08641","miles_from_dt":27.85},{"city":"Gloucester City","state_name":"New Jersey","lat":39.89023,"lng":-75.1178,"zip":"08030","miles_from_dt":27.85},{"city":"Philadelphia","state_name":"Pennsylvania","lat":39.92278,"lng":-75.23375,"zip":"19142","miles_from_dt":27.87},{"city":"Manville","state_name":"New Jersey","lat":40.54147,"lng":-74.58876,"zip":"08835","miles_from_dt":27.9},{"city":"Roosevelt","state_name":"New Jersey","lat":40.22116,"lng":-74.473,"zip":"08555","miles_from_dt":27.94},{"city":"Mount Ephraim","state_name":"New Jersey","lat":39.88462,"lng":-75.09309,"zip":"08059","miles_from_dt":27.96},{"city":"Southeastern","state_name":"Pennsylvania","lat":40.04122,"lng":-75.42075,"zip":"19398","miles_from_dt":28.02},{"city":"Easton","state_name":"Pennsylvania","lat":40.6497,"lng":-75.22376,"zip":"18042","miles_from_dt":28.03},{"city":"Devon","state_name":"Pennsylvania","lat":40.04208,"lng":-75.42331,"zip":"19333","miles_from_dt":28.09},{"city":"Haddon Heights","state_name":"New Jersey","lat":39.87914,"lng":-75.06435,"zip":"08035","miles_from_dt":28.09},{"city":"Valley Forge","state_name":"Pennsylvania","lat":40.10004,"lng":-75.47003,"zip":"19482","miles_from_dt":28.1},{"city":"Valley Forge","state_name":"Pennsylvania","lat":40.09729,"lng":-75.46849,"zip":"19496","miles_from_dt":28.12},{"city":"Pemberton","state_name":"New Jersey","lat":39.9617,"lng":-74.667,"zip":"08068","miles_from_dt":28.17},{"city":"Drexel Hill","state_name":"Pennsylvania","lat":39.95035,"lng":-75.304,"zip":"19026","miles_from_dt":28.17},{"city":"Limeport","state_name":"Pennsylvania","lat":40.50754,"lng":-75.44338,"zip":"18060","miles_from_dt":28.26},{"city":"Cream Ridge","state_name":"New Jersey","lat":40.13269,"lng":-74.49811,"zip":"08514","miles_from_dt":28.27},{"city":"Zarephath","state_name":"New Jersey","lat":40.53877,"lng":-74.57531,"zip":"08890","miles_from_dt":28.33},{"city":"Center Valley","state_name":"Pennsylvania","lat":40.54182,"lng":-75.41654,"zip":"18034","miles_from_dt":28.51},{"city":"Philadelphia","state_name":"Pennsylvania","lat":39.89154,"lng":-75.16942,"zip":"19185","miles_from_dt":28.53},{"city":"Mont Clare","state_name":"Pennsylvania","lat":40.13886,"lng":-75.50141,"zip":"19453","miles_from_dt":28.55},{"city":"Cookstown","state_name":"New Jersey","lat":40.04441,"lng":-74.55384,"zip":"08511","miles_from_dt":28.58},{"city":"Somerset","state_name":"New Jersey","lat":40.49865,"lng":-74.53284,"zip":"08873","miles_from_dt":28.59},{"city":"Philadelphia","state_name":"Pennsylvania","lat":39.88999,"lng":-75.16985,"zip":"19112","miles_from_dt":28.64},{"city":"Lawnside","state_name":"New Jersey","lat":39.86722,"lng":-75.02912,"zip":"08045","miles_from_dt":28.73},{"city":"Broomall","state_name":"Pennsylvania","lat":39.97425,"lng":-75.36107,"zip":"19008","miles_from_dt":28.78},{"city":"Royersford","state_name":"Pennsylvania","lat":40.20776,"lng":-75.53137,"zip":"19468","miles_from_dt":28.81},{"city":"Joint Base Mdl","state_name":"New Jersey","lat":40.0093,"lng":-74.58424,"zip":"08640","miles_from_dt":28.81},{"city":"Bethlehem","state_name":"Pennsylvania","lat":40.5887,"lng":-75.36786,"zip":"18015","miles_from_dt":28.83},{"city":"East Greenville","state_name":"Pennsylvania","lat":40.41742,"lng":-75.51306,"zip":"18041","miles_from_dt":28.86},{"city":"Stewartsville","state_name":"New Jersey","lat":40.69302,"lng":-75.10565,"zip":"08886","miles_from_dt":28.89},{"city":"Valley Forge","state_name":"Pennsylvania","lat":40.12053,"lng":-75.4995,"zip":"19481","miles_from_dt":28.92},{"city":"Barrington","state_name":"New Jersey","lat":39.86509,"lng":-75.05379,"zip":"08007","miles_from_dt":28.99},{"city":"Bellmawr","state_name":"New Jersey","lat":39.86876,"lng":-75.09225,"zip":"08099","miles_from_dt":29.03},{"city":"Darby","state_name":"Pennsylvania","lat":39.91724,"lng":-75.26708,"zip":"19023","miles_from_dt":29.04},{"city":"North Brunswick","state_name":"New Jersey","lat":40.44236,"lng":-74.48579,"zip":"08902","miles_from_dt":29.06},{"city":"Bridgewater","state_name":"New Jersey","lat":40.59241,"lng":-74.6202,"zip":"08807","miles_from_dt":29.11},{"city":"Bellmawr","state_name":"New Jersey","lat":39.86655,"lng":-75.09408,"zip":"08031","miles_from_dt":29.19},{"city":"Philadelphia","state_name":"Pennsylvania","lat":39.90264,"lng":-75.24032,"zip":"19176","miles_from_dt":29.27},{"city":"Clifton Heights","state_name":"Pennsylvania","lat":39.92312,"lng":-75.29834,"zip":"19018","miles_from_dt":29.56},{"city":"Marlton","state_name":"New Jersey","lat":39.86051,"lng":-74.89469,"zip":"08053","miles_from_dt":29.62},{"city":"Magnolia","state_name":"New Jersey","lat":39.85463,"lng":-75.03816,"zip":"08049","miles_from_dt":29.63},{"city":"Millstone Township","state_name":"New Jersey","lat":40.23506,"lng":-74.437,"zip":"08535","miles_from_dt":29.7},{"city":"Berwyn","state_name":"Pennsylvania","lat":40.0309,"lng":-75.45083,"zip":"19312","miles_from_dt":29.72},{"city":"Sharon Hill","state_name":"Pennsylvania","lat":39.90238,"lng":-75.26591,"zip":"19079","miles_from_dt":29.91}],"targetCityZipCode":"18943","targetCityState":"Pennsylvania"},"__N_SSG":true}