{"pageProps":{"stateName":"Pennsylvania","cityName":"pittsfield","nearbyCities":[{"city":"Garland","state_name":"Pennsylvania","lat":41.82606,"lng":-79.47311,"zip":"16416","miles_from_dt":3.44},{"city":"Spring Creek","state_name":"Pennsylvania","lat":41.85563,"lng":-79.49889,"zip":"16436","miles_from_dt":5.76},{"city":"Youngsville","state_name":"Pennsylvania","lat":41.86751,"lng":-79.3187,"zip":"16371","miles_from_dt":6.97},{"city":"Irvine","state_name":"Pennsylvania","lat":41.80642,"lng":-79.27684,"zip":"16329","miles_from_dt":7.28},{"city":"Tidioute","state_name":"Pennsylvania","lat":41.67583,"lng":-79.37285,"zip":"16351","miles_from_dt":8.78},{"city":"Grand Valley","state_name":"Pennsylvania","lat":41.69481,"lng":-79.54544,"zip":"16420","miles_from_dt":9.75},{"city":"Chandlers Valley","state_name":"Pennsylvania","lat":41.93218,"lng":-79.30324,"zip":"16312","miles_from_dt":10.94},{"city":"Columbus","state_name":"Pennsylvania","lat":41.938,"lng":-79.5335,"zip":"16405","miles_from_dt":11.33},{"city":"Bear Lake","state_name":"Pennsylvania","lat":41.96459,"lng":-79.48076,"zip":"16402","miles_from_dt":11.91},{"city":"Sugar Grove","state_name":"Pennsylvania","lat":41.96323,"lng":-79.3322,"zip":"16350","miles_from_dt":12.18},{"city":"Spartansburg","state_name":"Pennsylvania","lat":41.79442,"lng":-79.66765,"zip":"16434","miles_from_dt":12.92},{"city":"Endeavor","state_name":"Pennsylvania","lat":41.60567,"lng":-79.38428,"zip":"16322","miles_from_dt":13.43},{"city":"Warren","state_name":"Pennsylvania","lat":41.83943,"lng":-79.15324,"zip":"16365","miles_from_dt":13.93},{"city":"Warren","state_name":"Pennsylvania","lat":41.84644,"lng":-79.14642,"zip":"16367","miles_from_dt":14.38},{"city":"Warren","state_name":"Pennsylvania","lat":41.84876,"lng":-79.14668,"zip":"16368","miles_from_dt":14.4},{"city":"Warren","state_name":"Pennsylvania","lat":41.84749,"lng":-79.14589,"zip":"16369","miles_from_dt":14.42},{"city":"Warren","state_name":"Pennsylvania","lat":41.84396,"lng":-79.1411,"zip":"16366","miles_from_dt":14.61},{"city":"Niobe","state_name":"New York","lat":42.01142,"lng":-79.45041,"zip":"14758","miles_from_dt":14.78},{"city":"Corry","state_name":"Pennsylvania","lat":41.91743,"lng":-79.66374,"zip":"16407","miles_from_dt":15.12},{"city":"Clarendon","state_name":"Pennsylvania","lat":41.72294,"lng":-79.13884,"zip":"16313","miles_from_dt":15.32},{"city":"East Hickory","state_name":"Pennsylvania","lat":41.56835,"lng":-79.40084,"zip":"16321","miles_from_dt":15.92},{"city":"West Hickory","state_name":"Pennsylvania","lat":41.56586,"lng":-79.44796,"zip":"16370","miles_from_dt":16.14},{"city":"Pleasantville","state_name":"Pennsylvania","lat":41.56288,"lng":-79.54703,"zip":"16341","miles_from_dt":17.6},{"city":"Panama","state_name":"New York","lat":42.05344,"lng":-79.51583,"zip":"14767","miles_from_dt":18.3},{"city":"Elgin","state_name":"Pennsylvania","lat":41.9001,"lng":-79.74527,"zip":"16413","miles_from_dt":18.31},{"city":"Hydetown","state_name":"Pennsylvania","lat":41.651,"lng":-79.72716,"zip":"16328","miles_from_dt":18.98},{"city":"Titusville","state_name":"Pennsylvania","lat":41.61476,"lng":-79.70637,"zip":"16354","miles_from_dt":19.6},{"city":"Riceville","state_name":"Pennsylvania","lat":41.77923,"lng":-79.79955,"zip":"16432","miles_from_dt":19.78},{"city":"Tiona","state_name":"Pennsylvania","lat":41.76615,"lng":-79.03644,"zip":"16352","miles_from_dt":19.81},{"city":"Centerville","state_name":"Pennsylvania","lat":41.72483,"lng":-79.79018,"zip":"16404","miles_from_dt":19.92},{"city":"Lakewood","state_name":"New York","lat":42.07939,"lng":-79.32752,"zip":"14750","miles_from_dt":19.92},{"city":"Ashville","state_name":"New York","lat":42.08957,"lng":-79.42306,"zip":"14710","miles_from_dt":20.08},{"city":"Russell","state_name":"Pennsylvania","lat":41.95085,"lng":-79.07548,"zip":"16345","miles_from_dt":20.53},{"city":"Sheffield","state_name":"Pennsylvania","lat":41.64671,"lng":-79.06481,"zip":"16347","miles_from_dt":21.03},{"city":"Tionesta","state_name":"Pennsylvania","lat":41.49359,"lng":-79.38839,"zip":"16353","miles_from_dt":21.11},{"city":"Jamestown","state_name":"New York","lat":42.08091,"lng":-79.25502,"zip":"14701","miles_from_dt":21.2},{"city":"Clymer","state_name":"New York","lat":42.05272,"lng":-79.67031,"zip":"14724","miles_from_dt":21.85},{"city":"Celoron","state_name":"New York","lat":42.10857,"lng":-79.27997,"zip":"14720","miles_from_dt":22.53},{"city":"Jamestown","state_name":"New York","lat":42.0966,"lng":-79.23498,"zip":"14702","miles_from_dt":22.61},{"city":"Greenhurst","state_name":"New York","lat":42.11934,"lng":-79.30878,"zip":"14742","miles_from_dt":22.83},{"city":"Union City","state_name":"Pennsylvania","lat":41.89084,"lng":-79.84709,"zip":"16438","miles_from_dt":23.07},{"city":"Stow","state_name":"New York","lat":42.15572,"lng":-79.40337,"zip":"14785","miles_from_dt":24.66},{"city":"Frewsburg","state_name":"New York","lat":42.04539,"lng":-79.05926,"zip":"14738","miles_from_dt":25.12},{"city":"Ludlow","state_name":"Pennsylvania","lat":41.74922,"lng":-78.9323,"zip":"16333","miles_from_dt":25.3},{"city":"Marienville","state_name":"Pennsylvania","lat":41.49507,"lng":-79.1297,"zip":"16239","miles_from_dt":25.71},{"city":"Townville","state_name":"Pennsylvania","lat":41.68167,"lng":-79.89028,"zip":"16360","miles_from_dt":25.74},{"city":"Oil City","state_name":"Pennsylvania","lat":41.45596,"lng":-79.64946,"zip":"16301","miles_from_dt":26.52},{"city":"Rouseville","state_name":"Pennsylvania","lat":41.47045,"lng":-79.684,"zip":"16344","miles_from_dt":26.52},{"city":"Bemus Point","state_name":"New York","lat":42.18163,"lng":-79.36812,"zip":"14712","miles_from_dt":26.56},{"city":"Wattsburg","state_name":"Pennsylvania","lat":42.04094,"lng":-79.82631,"zip":"16442","miles_from_dt":26.9},{"city":"Sherman","state_name":"New York","lat":42.16402,"lng":-79.604,"zip":"14781","miles_from_dt":26.98},{"city":"Falconer","state_name":"New York","lat":42.14996,"lng":-79.17499,"zip":"14733","miles_from_dt":27.27},{"city":"Crown","state_name":"Pennsylvania","lat":41.41817,"lng":-79.26659,"zip":"16220","miles_from_dt":27.4},{"city":"Maple Springs","state_name":"New York","lat":42.19708,"lng":-79.42373,"zip":"14756","miles_from_dt":27.5},{"city":"Vowinckel","state_name":"Pennsylvania","lat":41.41102,"lng":-79.23092,"zip":"16260","miles_from_dt":28.44},{"city":"Chautauqua","state_name":"New York","lat":42.20961,"lng":-79.46882,"zip":"14722","miles_from_dt":28.49},{"city":"Tylersburg","state_name":"Pennsylvania","lat":41.38597,"lng":-79.3422,"zip":"16361","miles_from_dt":28.75},{"city":"Findley Lake","state_name":"New York","lat":42.13715,"lng":-79.74644,"zip":"14736","miles_from_dt":28.86},{"city":"Mill Village","state_name":"Pennsylvania","lat":41.87466,"lng":-79.97132,"zip":"16427","miles_from_dt":29.06},{"city":"Cooperstown","state_name":"Pennsylvania","lat":41.53232,"lng":-79.85258,"zip":"16317","miles_from_dt":29.06},{"city":"Kennedy","state_name":"New York","lat":42.15346,"lng":-79.09061,"zip":"14747","miles_from_dt":29.72},{"city":"Fryburg","state_name":"Pennsylvania","lat":41.36733,"lng":-79.43182,"zip":"16326","miles_from_dt":29.78}],"targetCityZipCode":"16340","targetCityState":"Pennsylvania"},"__N_SSG":true}