{"pageProps":{"stateName":"Pennsylvania","cityName":"poyntelle","nearbyCities":[{"city":"Orson","state_name":"Pennsylvania","lat":41.81459,"lng":-75.44997,"zip":"18449","miles_from_dt":1.22},{"city":"Lakewood","state_name":"Pennsylvania","lat":41.82674,"lng":-75.34735,"zip":"18439","miles_from_dt":4.16},{"city":"Thompson","state_name":"Pennsylvania","lat":41.83654,"lng":-75.51811,"zip":"18465","miles_from_dt":4.83},{"city":"Preston Park","state_name":"Pennsylvania","lat":41.88467,"lng":-75.35541,"zip":"18455","miles_from_dt":5.82},{"city":"Starrucca","state_name":"Pennsylvania","lat":41.9049,"lng":-75.42988,"zip":"18462","miles_from_dt":5.89},{"city":"Herrick Center","state_name":"Pennsylvania","lat":41.7428,"lng":-75.47779,"zip":"18430","miles_from_dt":5.91},{"city":"Pleasant Mount","state_name":"Pennsylvania","lat":41.74971,"lng":-75.361,"zip":"18453","miles_from_dt":5.92},{"city":"Lake Como","state_name":"Pennsylvania","lat":41.86859,"lng":-75.30345,"zip":"18437","miles_from_dt":7.23},{"city":"Union Dale","state_name":"Pennsylvania","lat":41.732,"lng":-75.53502,"zip":"18470","miles_from_dt":8.22},{"city":"Jackson","state_name":"Pennsylvania","lat":41.82276,"lng":-75.599,"zip":"18825","miles_from_dt":8.87},{"city":"Starlight","state_name":"Pennsylvania","lat":41.92774,"lng":-75.32434,"zip":"18461","miles_from_dt":9.16},{"city":"South Gibson","state_name":"Pennsylvania","lat":41.75594,"lng":-75.61652,"zip":"18842","miles_from_dt":10.72},{"city":"Susquehanna","state_name":"Pennsylvania","lat":41.93539,"lng":-75.56893,"zip":"18847","miles_from_dt":10.83},{"city":"Forest City","state_name":"Pennsylvania","lat":41.66337,"lng":-75.4691,"zip":"18421","miles_from_dt":11},{"city":"Equinunk","state_name":"Pennsylvania","lat":41.80705,"lng":-75.20122,"zip":"18417","miles_from_dt":11.71},{"city":"Gibson","state_name":"Pennsylvania","lat":41.7779,"lng":-75.65029,"zip":"18820","miles_from_dt":11.87},{"city":"Lanesboro","state_name":"Pennsylvania","lat":41.95642,"lng":-75.58703,"zip":"18827","miles_from_dt":12.53},{"city":"Clifford","state_name":"Pennsylvania","lat":41.64767,"lng":-75.53258,"zip":"18413","miles_from_dt":13.06},{"city":"Harford","state_name":"Pennsylvania","lat":41.77415,"lng":-75.69168,"zip":"18823","miles_from_dt":14.01},{"city":"Hancock","state_name":"New York","lat":41.99037,"lng":-75.26764,"zip":"13783","miles_from_dt":14.37},{"city":"Prompton","state_name":"Pennsylvania","lat":41.61843,"lng":-75.3404,"zip":"18456","miles_from_dt":14.59},{"city":"New Milford","state_name":"Pennsylvania","lat":41.84185,"lng":-75.71189,"zip":"18834","miles_from_dt":14.77},{"city":"Lenoxville","state_name":"Pennsylvania","lat":41.65833,"lng":-75.62565,"zip":"18441","miles_from_dt":15.13},{"city":"Carbondale","state_name":"Pennsylvania","lat":41.59971,"lng":-75.53026,"zip":"18407","miles_from_dt":16.08},{"city":"Waymart","state_name":"Pennsylvania","lat":41.58738,"lng":-75.40002,"zip":"18472","miles_from_dt":16.09},{"city":"Honesdale","state_name":"Pennsylvania","lat":41.62214,"lng":-75.25531,"zip":"18431","miles_from_dt":16.27},{"city":"Fishs Eddy","state_name":"New York","lat":41.96192,"lng":-75.17283,"zip":"13774","miles_from_dt":16.39},{"city":"Tyler Hill","state_name":"Pennsylvania","lat":41.70352,"lng":-75.14597,"zip":"18469","miles_from_dt":16.6},{"city":"Damascus","state_name":"Pennsylvania","lat":41.74821,"lng":-75.11315,"zip":"18415","miles_from_dt":16.96},{"city":"Kingsley","state_name":"Pennsylvania","lat":41.7495,"lng":-75.74276,"zip":"18826","miles_from_dt":17},{"city":"Long Eddy","state_name":"New York","lat":41.90063,"lng":-75.10559,"zip":"12760","miles_from_dt":17.51},{"city":"Hankins","state_name":"New York","lat":41.84368,"lng":-75.07816,"zip":"12741","miles_from_dt":18.1},{"city":"Deposit","state_name":"New York","lat":42.09387,"lng":-75.43625,"zip":"13754","miles_from_dt":18.93},{"city":"Jermyn","state_name":"Pennsylvania","lat":41.57107,"lng":-75.58452,"zip":"18433","miles_from_dt":18.98},{"city":"Great Bend","state_name":"Pennsylvania","lat":41.98588,"lng":-75.73466,"zip":"18821","miles_from_dt":19.56},{"city":"Milanville","state_name":"Pennsylvania","lat":41.66262,"lng":-75.11059,"zip":"18443","miles_from_dt":19.63},{"city":"Windsor","state_name":"New York","lat":42.06282,"lng":-75.62879,"zip":"13865","miles_from_dt":19.74},{"city":"Hop Bottom","state_name":"Pennsylvania","lat":41.70422,"lng":-75.786,"zip":"18824","miles_from_dt":20.17},{"city":"Brooklyn","state_name":"Pennsylvania","lat":41.75061,"lng":-75.80696,"zip":"18813","miles_from_dt":20.18},{"city":"Fleetville","state_name":"Pennsylvania","lat":41.60333,"lng":-75.70589,"zip":"18420","miles_from_dt":20.75},{"city":"Hortonville","state_name":"New York","lat":41.78503,"lng":-75.02633,"zip":"12745","miles_from_dt":20.84},{"city":"Callicoon","state_name":"New York","lat":41.77809,"lng":-75.02751,"zip":"12723","miles_from_dt":20.84},{"city":"Nicholson","state_name":"Pennsylvania","lat":41.64513,"lng":-75.76044,"zip":"18446","miles_from_dt":21.01},{"city":"Fremont Center","state_name":"New York","lat":41.85327,"lng":-75.01917,"zip":"12736","miles_from_dt":21.19},{"city":"Hallstead","state_name":"Pennsylvania","lat":41.9482,"lng":-75.80116,"zip":"18822","miles_from_dt":21.22},{"city":"East Branch","state_name":"New York","lat":42.01025,"lng":-75.10394,"zip":"13756","miles_from_dt":21.24},{"city":"South Canaan","state_name":"Pennsylvania","lat":41.50476,"lng":-75.41241,"zip":"18459","miles_from_dt":21.74},{"city":"Obernburg","state_name":"New York","lat":41.83504,"lng":-75.00284,"zip":"12767","miles_from_dt":21.94},{"city":"Archbald","state_name":"Pennsylvania","lat":41.50495,"lng":-75.53529,"zip":"18403","miles_from_dt":22.42},{"city":"Ouaquaga","state_name":"New York","lat":42.10517,"lng":-75.63701,"zip":"13826","miles_from_dt":22.47},{"city":"Beach Lake","state_name":"Pennsylvania","lat":41.59792,"lng":-75.09509,"zip":"18405","miles_from_dt":23.01},{"city":"White Mills","state_name":"Pennsylvania","lat":41.52828,"lng":-75.20821,"zip":"18473","miles_from_dt":23.08},{"city":"North Branch","state_name":"New York","lat":41.81408,"lng":-74.97923,"zip":"12766","miles_from_dt":23.14},{"city":"Corbettsville","state_name":"New York","lat":42.01887,"lng":-75.79096,"zip":"13749","miles_from_dt":23.25},{"city":"Olyphant","state_name":"Pennsylvania","lat":41.5132,"lng":-75.61684,"zip":"18447","miles_from_dt":23.31},{"city":"South Montrose","state_name":"Pennsylvania","lat":41.80446,"lng":-75.89416,"zip":"18843","miles_from_dt":24.13},{"city":"Kirkwood","state_name":"New York","lat":42.05844,"lng":-75.77419,"zip":"13795","miles_from_dt":24.31},{"city":"Waverly","state_name":"Pennsylvania","lat":41.5291,"lng":-75.69807,"zip":"18471","miles_from_dt":24.46},{"city":"Lake Huntington","state_name":"New York","lat":41.68278,"lng":-74.9905,"zip":"12752","miles_from_dt":24.47},{"city":"Kenoza Lake","state_name":"New York","lat":41.73595,"lng":-74.96382,"zip":"12750","miles_from_dt":24.63},{"city":"Peckville","state_name":"Pennsylvania","lat":41.48387,"lng":-75.58951,"zip":"18452","miles_from_dt":24.65},{"city":"Nineveh","state_name":"New York","lat":42.16808,"lng":-75.54266,"zip":"13813","miles_from_dt":24.77},{"city":"Conklin","state_name":"New York","lat":42.03428,"lng":-75.81727,"zip":"13748","miles_from_dt":24.97},{"city":"La Plume","state_name":"Pennsylvania","lat":41.55931,"lng":-75.76505,"zip":"18440","miles_from_dt":25.06},{"city":"Cochecton","state_name":"New York","lat":41.69269,"lng":-74.96902,"zip":"12726","miles_from_dt":25.25},{"city":"Dalton","state_name":"Pennsylvania","lat":41.53893,"lng":-75.7427,"zip":"18414","miles_from_dt":25.33},{"city":"Factoryville","state_name":"Pennsylvania","lat":41.57858,"lng":-75.7994,"zip":"18419","miles_from_dt":25.44},{"city":"Callicoon Center","state_name":"New York","lat":41.85195,"lng":-74.93535,"zip":"12724","miles_from_dt":25.49},{"city":"Dimock","state_name":"Pennsylvania","lat":41.73977,"lng":-75.90966,"zip":"18816","miles_from_dt":25.52},{"city":"Jessup","state_name":"Pennsylvania","lat":41.46014,"lng":-75.54823,"zip":"18434","miles_from_dt":25.59},{"city":"Lake Ariel","state_name":"Pennsylvania","lat":41.43867,"lng":-75.3959,"zip":"18436","miles_from_dt":26.34},{"city":"Jeffersonville","state_name":"New York","lat":41.77604,"lng":-74.91845,"zip":"12748","miles_from_dt":26.45},{"city":"Olyphant","state_name":"Pennsylvania","lat":41.45199,"lng":-75.58021,"zip":"18448","miles_from_dt":26.58},{"city":"Springville","state_name":"Pennsylvania","lat":41.69247,"lng":-75.91351,"zip":"18844","miles_from_dt":26.61},{"city":"Montrose","state_name":"Pennsylvania","lat":41.82861,"lng":-75.9437,"zip":"18801","miles_from_dt":26.66},{"city":"Cochecton","state_name":"New York","lat":41.64061,"lng":-74.96813,"zip":"12727","miles_from_dt":26.76},{"city":"Scranton","state_name":"Pennsylvania","lat":41.46207,"lng":-75.63062,"zip":"18519","miles_from_dt":26.83},{"city":"Masonville","state_name":"New York","lat":42.20708,"lng":-75.37562,"zip":"13804","miles_from_dt":26.87},{"city":"Downsville","state_name":"New York","lat":42.05976,"lng":-75.01524,"zip":"13755","miles_from_dt":26.94},{"city":"Chinchilla","state_name":"Pennsylvania","lat":41.48207,"lng":-75.68976,"zip":"18410","miles_from_dt":26.97},{"city":"Roscoe","state_name":"New York","lat":41.96486,"lng":-74.93197,"zip":"12776","miles_from_dt":27.44},{"city":"Walton","state_name":"New York","lat":42.16666,"lng":-75.16633,"zip":"13856","miles_from_dt":27.46},{"city":"Narrowsburg","state_name":"New York","lat":41.59639,"lng":-74.98515,"zip":"12764","miles_from_dt":27.57},{"city":"Trout Creek","state_name":"New York","lat":42.20443,"lng":-75.27777,"zip":"13847","miles_from_dt":27.65},{"city":"Scranton","state_name":"Pennsylvania","lat":41.45503,"lng":-75.65827,"zip":"18508","miles_from_dt":27.86},{"city":"Youngsville","state_name":"New York","lat":41.81126,"lng":-74.88692,"zip":"12791","miles_from_dt":27.91},{"city":"Lakeville","state_name":"Pennsylvania","lat":41.43591,"lng":-75.24499,"zip":"18438","miles_from_dt":28.11},{"city":"Scranton","state_name":"Pennsylvania","lat":41.44954,"lng":-75.66412,"zip":"18515","miles_from_dt":28.33},{"city":"Scranton","state_name":"Pennsylvania","lat":41.42648,"lng":-75.5912,"zip":"18512","miles_from_dt":28.43},{"city":"Binghamton","state_name":"New York","lat":42.04749,"lng":-75.89573,"zip":"13903","miles_from_dt":28.81},{"city":"Afton","state_name":"New York","lat":42.23201,"lng":-75.53127,"zip":"13730","miles_from_dt":28.96},{"city":"Scranton","state_name":"Pennsylvania","lat":41.42109,"lng":-75.60282,"zip":"18577","miles_from_dt":28.97},{"city":"Scranton","state_name":"Pennsylvania","lat":41.43062,"lng":-75.64321,"zip":"18509","miles_from_dt":29.08},{"city":"Harpursville","state_name":"New York","lat":42.20606,"lng":-75.66334,"zip":"13787","miles_from_dt":29.31},{"city":"Binghamton","state_name":"New York","lat":42.13072,"lng":-75.81587,"zip":"13904","miles_from_dt":29.35},{"city":"Hamlin","state_name":"Pennsylvania","lat":41.39751,"lng":-75.35019,"zip":"18427","miles_from_dt":29.4},{"city":"Bethel","state_name":"New York","lat":41.65794,"lng":-74.90029,"zip":"12720","miles_from_dt":29.44},{"city":"Brackney","state_name":"Pennsylvania","lat":41.97203,"lng":-75.96822,"zip":"18812","miles_from_dt":29.81},{"city":"Clarks Summit","state_name":"Pennsylvania","lat":41.45655,"lng":-75.74295,"zip":"18411","miles_from_dt":29.91}],"targetCityZipCode":"18454","targetCityState":"Pennsylvania"},"__N_SSG":true}