{"pageProps":{"stateName":"Pennsylvania","cityName":"quecreek","nearbyCities":[{"city":"Sipesville","state_name":"Pennsylvania","lat":40.09379,"lng":-79.0907,"zip":"15561","miles_from_dt":0.56},{"city":"Acosta","state_name":"Pennsylvania","lat":40.10626,"lng":-79.06017,"zip":"15520","miles_from_dt":1.27},{"city":"Gray","state_name":"Pennsylvania","lat":40.13254,"lng":-79.09656,"zip":"15544","miles_from_dt":2.54},{"city":"Jenners","state_name":"Pennsylvania","lat":40.13717,"lng":-79.04758,"zip":"15546","miles_from_dt":3.26},{"city":"Jennerstown","state_name":"Pennsylvania","lat":40.1629,"lng":-79.07019,"zip":"15547","miles_from_dt":4.55},{"city":"Somerset","state_name":"Pennsylvania","lat":40.03582,"lng":-79.13024,"zip":"15501","miles_from_dt":4.99},{"city":"Listie","state_name":"Pennsylvania","lat":40.02929,"lng":-79.01269,"zip":"15549","miles_from_dt":5.95},{"city":"Boswell","state_name":"Pennsylvania","lat":40.18537,"lng":-79.0794,"zip":"15531","miles_from_dt":6.06},{"city":"Friedens","state_name":"Pennsylvania","lat":40.04905,"lng":-78.98076,"zip":"15541","miles_from_dt":6.29},{"city":"Kantner","state_name":"Pennsylvania","lat":40.10445,"lng":-78.93981,"zip":"15548","miles_from_dt":7.51},{"city":"Stoystown","state_name":"Pennsylvania","lat":40.0962,"lng":-78.93618,"zip":"15563","miles_from_dt":7.69},{"city":"Laughlintown","state_name":"Pennsylvania","lat":40.19739,"lng":-79.18141,"zip":"15655","miles_from_dt":8.69},{"city":"Rector","state_name":"Pennsylvania","lat":40.15048,"lng":-79.23113,"zip":"15677","miles_from_dt":8.73},{"city":"Hollsopple","state_name":"Pennsylvania","lat":40.20112,"lng":-78.96755,"zip":"15935","miles_from_dt":9.34},{"city":"Somerset","state_name":"Pennsylvania","lat":39.96435,"lng":-79.04009,"zip":"15510","miles_from_dt":9.45},{"city":"Jerome","state_name":"Pennsylvania","lat":40.21463,"lng":-78.98105,"zip":"15937","miles_from_dt":9.66},{"city":"Hidden Valley","state_name":"Pennsylvania","lat":40.03641,"lng":-79.25176,"zip":"15502","miles_from_dt":9.97},{"city":"Hooversville","state_name":"Pennsylvania","lat":40.16221,"lng":-78.89584,"zip":"15936","miles_from_dt":10.79},{"city":"Shanksville","state_name":"Pennsylvania","lat":40.01687,"lng":-78.90664,"zip":"15560","miles_from_dt":10.81},{"city":"Seanor","state_name":"Pennsylvania","lat":40.21113,"lng":-78.89049,"zip":"15953","miles_from_dt":12.78},{"city":"Stahlstown","state_name":"Pennsylvania","lat":40.13149,"lng":-79.31977,"zip":"15687","miles_from_dt":12.85},{"city":"Davidsville","state_name":"Pennsylvania","lat":40.23943,"lng":-78.91591,"zip":"15928","miles_from_dt":13.13},{"city":"Ligonier","state_name":"Pennsylvania","lat":40.25467,"lng":-79.22217,"zip":"15658","miles_from_dt":13.15},{"city":"Champion","state_name":"Pennsylvania","lat":40.0356,"lng":-79.31724,"zip":"15622","miles_from_dt":13.22},{"city":"Rockwood","state_name":"Pennsylvania","lat":39.92757,"lng":-79.20945,"zip":"15557","miles_from_dt":13.56},{"city":"Berlin","state_name":"Pennsylvania","lat":39.94531,"lng":-78.91253,"zip":"15530","miles_from_dt":13.8},{"city":"Jones Mills","state_name":"Pennsylvania","lat":40.09517,"lng":-79.34448,"zip":"15646","miles_from_dt":13.94},{"city":"Central City","state_name":"Pennsylvania","lat":40.04783,"lng":-78.81934,"zip":"15926","miles_from_dt":14.3},{"city":"Johnstown","state_name":"Pennsylvania","lat":40.29423,"lng":-78.98035,"zip":"15905","miles_from_dt":14.58},{"city":"Tire Hill","state_name":"Pennsylvania","lat":40.26919,"lng":-78.91523,"zip":"15959","miles_from_dt":14.75},{"city":"Donegal","state_name":"Pennsylvania","lat":40.10009,"lng":-79.37008,"zip":"15628","miles_from_dt":15.3},{"city":"Garrett","state_name":"Pennsylvania","lat":39.86742,"lng":-79.07851,"zip":"15542","miles_from_dt":15.88},{"city":"Melcroft","state_name":"Pennsylvania","lat":40.06136,"lng":-79.38113,"zip":"15462","miles_from_dt":16.09},{"city":"Cairnbrook","state_name":"Pennsylvania","lat":40.10684,"lng":-78.77527,"zip":"15924","miles_from_dt":16.23},{"city":"Indian Head","state_name":"Pennsylvania","lat":40.03172,"lng":-79.39433,"zip":"15446","miles_from_dt":17.2},{"city":"Markleton","state_name":"Pennsylvania","lat":39.88413,"lng":-79.26761,"zip":"15551","miles_from_dt":17.74},{"city":"Acme","state_name":"Pennsylvania","lat":40.13699,"lng":-79.41613,"zip":"15610","miles_from_dt":17.94},{"city":"Johnstown","state_name":"Pennsylvania","lat":40.33,"lng":-78.92001,"zip":"15907","miles_from_dt":18.16},{"city":"Johnstown","state_name":"Pennsylvania","lat":40.32845,"lng":-78.9146,"zip":"15901","miles_from_dt":18.21},{"city":"New Baltimore","state_name":"Pennsylvania","lat":39.98452,"lng":-78.77052,"zip":"15553","miles_from_dt":18.23},{"city":"New Florence","state_name":"Pennsylvania","lat":40.36295,"lng":-79.0816,"zip":"15944","miles_from_dt":18.31},{"city":"Bolivar","state_name":"Pennsylvania","lat":40.35518,"lng":-79.16447,"zip":"15923","miles_from_dt":18.31},{"city":"Windber","state_name":"Pennsylvania","lat":40.21676,"lng":-78.77234,"zip":"15963","miles_from_dt":18.31},{"city":"Johnstown","state_name":"Pennsylvania","lat":40.30833,"lng":-78.85929,"zip":"15915","miles_from_dt":18.69},{"city":"Johnstown","state_name":"Pennsylvania","lat":40.32,"lng":-78.87911,"zip":"15902","miles_from_dt":18.71},{"city":"Normalville","state_name":"Pennsylvania","lat":40.01366,"lng":-79.41861,"zip":"15469","miles_from_dt":18.8},{"city":"Johnstown","state_name":"Pennsylvania","lat":40.3056,"lng":-78.84382,"zip":"15904","miles_from_dt":19.08},{"city":"Youngstown","state_name":"Pennsylvania","lat":40.2798,"lng":-79.36587,"zip":"15696","miles_from_dt":19.62},{"city":"Elton","state_name":"Pennsylvania","lat":40.28107,"lng":-78.79589,"zip":"15934","miles_from_dt":19.71},{"city":"White","state_name":"Pennsylvania","lat":40.06782,"lng":-79.45327,"zip":"15490","miles_from_dt":19.82},{"city":"Whitney","state_name":"Pennsylvania","lat":40.24939,"lng":-79.40592,"zip":"15693","miles_from_dt":20.12},{"city":"Hostetter","state_name":"Pennsylvania","lat":40.26466,"lng":-79.4017,"zip":"15638","miles_from_dt":20.5},{"city":"Latrobe","state_name":"Pennsylvania","lat":40.27527,"lng":-79.39213,"zip":"15650","miles_from_dt":20.51},{"city":"Bradenville","state_name":"Pennsylvania","lat":40.32336,"lng":-79.33882,"zip":"15620","miles_from_dt":20.69},{"city":"Fairhope","state_name":"Pennsylvania","lat":39.86644,"lng":-78.83233,"zip":"15538","miles_from_dt":20.71},{"city":"Johnstown","state_name":"Pennsylvania","lat":40.37806,"lng":-78.93356,"zip":"15906","miles_from_dt":20.87},{"city":"Derry","state_name":"Pennsylvania","lat":40.35064,"lng":-79.30667,"zip":"15627","miles_from_dt":21.14},{"city":"Parkhill","state_name":"Pennsylvania","lat":40.35909,"lng":-78.86867,"zip":"15945","miles_from_dt":21.26},{"city":"Schellsburg","state_name":"Pennsylvania","lat":40.05914,"lng":-78.68241,"zip":"15559","miles_from_dt":21.31},{"city":"Loyalhanna","state_name":"Pennsylvania","lat":40.32192,"lng":-79.36007,"zip":"15661","miles_from_dt":21.38},{"city":"Robinson","state_name":"Pennsylvania","lat":40.4055,"lng":-79.13442,"zip":"15949","miles_from_dt":21.43},{"city":"Meyersdale","state_name":"Pennsylvania","lat":39.79629,"lng":-78.98232,"zip":"15552","miles_from_dt":21.44},{"city":"Salix","state_name":"Pennsylvania","lat":40.30348,"lng":-78.77614,"zip":"15952","miles_from_dt":21.51},{"city":"Torrance","state_name":"Pennsylvania","lat":40.40008,"lng":-79.21846,"zip":"15779","miles_from_dt":22.09},{"city":"New Derry","state_name":"Pennsylvania","lat":40.36038,"lng":-79.32146,"zip":"15671","miles_from_dt":22.14},{"city":"Mill Run","state_name":"Pennsylvania","lat":39.92463,"lng":-79.43695,"zip":"15464","miles_from_dt":22.32},{"city":"Pleasant Unity","state_name":"Pennsylvania","lat":40.24303,"lng":-79.45913,"zip":"15676","miles_from_dt":22.37},{"city":"Fort Hill","state_name":"Pennsylvania","lat":39.79549,"lng":-79.23712,"zip":"15540","miles_from_dt":22.42},{"city":"Seward","state_name":"Pennsylvania","lat":40.41837,"lng":-79.00051,"zip":"15954","miles_from_dt":22.54},{"city":"Calumet","state_name":"Pennsylvania","lat":40.2112,"lng":-79.48581,"zip":"15621","miles_from_dt":22.8},{"city":"Saint Michael","state_name":"Pennsylvania","lat":40.3307,"lng":-78.77209,"zip":"15951","miles_from_dt":22.94},{"city":"Boynton","state_name":"Pennsylvania","lat":39.76232,"lng":-79.06084,"zip":"15532","miles_from_dt":23.16},{"city":"Norvelt","state_name":"Pennsylvania","lat":40.20672,"lng":-79.49636,"zip":"15674","miles_from_dt":23.23},{"city":"Mount Pleasant","state_name":"Pennsylvania","lat":40.15858,"lng":-79.51398,"zip":"15666","miles_from_dt":23.3},{"city":"South Fork","state_name":"Pennsylvania","lat":40.35022,"lng":-78.78819,"zip":"15956","miles_from_dt":23.33},{"city":"West Salisbury","state_name":"Pennsylvania","lat":39.75907,"lng":-79.11552,"zip":"15565","miles_from_dt":23.43},{"city":"United","state_name":"Pennsylvania","lat":40.2253,"lng":-79.49164,"zip":"15689","miles_from_dt":23.44},{"city":"Confluence","state_name":"Pennsylvania","lat":39.829,"lng":-79.35377,"zip":"15424","miles_from_dt":23.51},{"city":"Dunlo","state_name":"Pennsylvania","lat":40.29468,"lng":-78.71732,"zip":"15930","miles_from_dt":23.58},{"city":"Ursina","state_name":"Pennsylvania","lat":39.81517,"lng":-79.33362,"zip":"15485","miles_from_dt":23.65},{"city":"Salisbury","state_name":"Pennsylvania","lat":39.7494,"lng":-79.09755,"zip":"15558","miles_from_dt":24.04},{"city":"Johnstown","state_name":"Pennsylvania","lat":40.40783,"lng":-78.87047,"zip":"15909","miles_from_dt":24.13},{"city":"Manns Choice","state_name":"Pennsylvania","lat":39.99025,"lng":-78.64493,"zip":"15550","miles_from_dt":24.3},{"city":"Southwest","state_name":"Pennsylvania","lat":40.14955,"lng":-79.54155,"zip":"15685","miles_from_dt":24.64},{"city":"Springs","state_name":"Pennsylvania","lat":39.74165,"lng":-79.1219,"zip":"15562","miles_from_dt":24.65},{"city":"Buffalo Mills","state_name":"Pennsylvania","lat":39.89712,"lng":-78.69589,"zip":"15534","miles_from_dt":24.69},{"city":"New Paris","state_name":"Pennsylvania","lat":40.12525,"lng":-78.61575,"zip":"15554","miles_from_dt":24.74},{"city":"Alum Bank","state_name":"Pennsylvania","lat":40.19972,"lng":-78.63176,"zip":"15521","miles_from_dt":24.82},{"city":"Sidman","state_name":"Pennsylvania","lat":40.30878,"lng":-78.69285,"zip":"15955","miles_from_dt":25.19},{"city":"Beaverdale","state_name":"Pennsylvania","lat":40.31642,"lng":-78.69786,"zip":"15921","miles_from_dt":25.29},{"city":"Connellsville","state_name":"Pennsylvania","lat":40.02702,"lng":-79.55411,"zip":"15425","miles_from_dt":25.53},{"city":"Armagh","state_name":"Pennsylvania","lat":40.46705,"lng":-79.05006,"zip":"15920","miles_from_dt":25.55},{"city":"Mineral Point","state_name":"Pennsylvania","lat":40.40584,"lng":-78.81215,"zip":"15942","miles_from_dt":25.59},{"city":"Fishertown","state_name":"Pennsylvania","lat":40.12835,"lng":-78.59341,"zip":"15539","miles_from_dt":25.93},{"city":"Blairsville","state_name":"Pennsylvania","lat":40.45354,"lng":-79.23896,"zip":"15717","miles_from_dt":25.93},{"city":"Vintondale","state_name":"Pennsylvania","lat":40.46187,"lng":-78.9382,"zip":"15961","miles_from_dt":26.25},{"city":"Black Lick","state_name":"Pennsylvania","lat":40.47025,"lng":-79.19031,"zip":"15716","miles_from_dt":26.35},{"city":"Dilltown","state_name":"Pennsylvania","lat":40.47683,"lng":-79.0042,"zip":"15929","miles_from_dt":26.48},{"city":"Armbrust","state_name":"Pennsylvania","lat":40.23502,"lng":-79.55093,"zip":"15616","miles_from_dt":26.6},{"city":"Everson","state_name":"Pennsylvania","lat":40.08968,"lng":-79.58527,"zip":"15631","miles_from_dt":26.71},{"city":"Bovard","state_name":"Pennsylvania","lat":40.32051,"lng":-79.49719,"zip":"15619","miles_from_dt":26.84},{"city":"Luxor","state_name":"Pennsylvania","lat":40.33892,"lng":-79.47972,"zip":"15662","miles_from_dt":26.86},{"city":"Josephine","state_name":"Pennsylvania","lat":40.48377,"lng":-79.18256,"zip":"15750","miles_from_dt":27.18},{"city":"Tarrs","state_name":"Pennsylvania","lat":40.1734,"lng":-79.58602,"zip":"15688","miles_from_dt":27.23},{"city":"Summerhill","state_name":"Pennsylvania","lat":40.3891,"lng":-78.73284,"zip":"15958","miles_from_dt":27.28},{"city":"Hyndman","state_name":"Pennsylvania","lat":39.77943,"lng":-78.776,"zip":"15545","miles_from_dt":27.29},{"city":"Alverton","state_name":"Pennsylvania","lat":40.13793,"lng":-79.59938,"zip":"15612","miles_from_dt":27.58},{"city":"Crabtree","state_name":"Pennsylvania","lat":40.36638,"lng":-79.47124,"zip":"15624","miles_from_dt":27.73},{"city":"Scottdale","state_name":"Pennsylvania","lat":40.10926,"lng":-79.60492,"zip":"15683","miles_from_dt":27.75},{"city":"Addison","state_name":"Pennsylvania","lat":39.74724,"lng":-79.34344,"zip":"15411","miles_from_dt":27.89},{"city":"Wilmore","state_name":"Pennsylvania","lat":40.38942,"lng":-78.71644,"zip":"15962","miles_from_dt":27.89},{"city":"Greensburg","state_name":"Pennsylvania","lat":40.30169,"lng":-79.53809,"zip":"15606","miles_from_dt":27.97},{"city":"Hannastown","state_name":"Pennsylvania","lat":40.34891,"lng":-79.49877,"zip":"15635","miles_from_dt":28.07},{"city":"Youngwood","state_name":"Pennsylvania","lat":40.24054,"lng":-79.5803,"zip":"15697","miles_from_dt":28.19},{"city":"Hunker","state_name":"Pennsylvania","lat":40.20927,"lng":-79.59379,"zip":"15639","miles_from_dt":28.2},{"city":"Wellersburg","state_name":"Pennsylvania","lat":39.72967,"lng":-78.84542,"zip":"15564","miles_from_dt":28.31},{"city":"New Alexandria","state_name":"Pennsylvania","lat":40.40783,"lng":-79.4321,"zip":"15670","miles_from_dt":28.32},{"city":"Greensburg","state_name":"Pennsylvania","lat":40.31397,"lng":-79.53643,"zip":"15601","miles_from_dt":28.33},{"city":"Coral","state_name":"Pennsylvania","lat":40.50383,"lng":-79.1767,"zip":"15731","miles_from_dt":28.48},{"city":"Dunbar","state_name":"Pennsylvania","lat":39.94066,"lng":-79.58075,"zip":"15431","miles_from_dt":28.62},{"city":"Greensburg","state_name":"Pennsylvania","lat":40.34828,"lng":-79.5188,"zip":"15605","miles_from_dt":28.89},{"city":"Nanty Glo","state_name":"Pennsylvania","lat":40.47437,"lng":-78.83513,"zip":"15943","miles_from_dt":29.07},{"city":"Ohiopyle","state_name":"Pennsylvania","lat":39.85321,"lng":-79.53078,"zip":"15470","miles_from_dt":29.21},{"city":"Forbes Road","state_name":"Pennsylvania","lat":40.35941,"lng":-79.51699,"zip":"15633","miles_from_dt":29.28},{"city":"Homer City","state_name":"Pennsylvania","lat":40.52489,"lng":-79.087,"zip":"15748","miles_from_dt":29.48},{"city":"Mount Savage","state_name":"Maryland","lat":39.6991,"lng":-78.86513,"zip":"21545","miles_from_dt":29.8},{"city":"Bedford","state_name":"Pennsylvania","lat":39.94931,"lng":-78.55173,"zip":"15522","miles_from_dt":29.9},{"city":"Imler","state_name":"Pennsylvania","lat":40.24898,"lng":-78.55092,"zip":"16655","miles_from_dt":29.95}],"targetCityZipCode":"15555","targetCityState":"Pennsylvania"},"__N_SSG":true}