{"pageProps":{"stateName":"Pennsylvania","cityName":"saint-johns","nearbyCities":[{"city":"Drums","state_name":"Pennsylvania","lat":41.03569,"lng":-76.00097,"zip":"18222","miles_from_dt":0.61},{"city":"Milnesville","state_name":"Pennsylvania","lat":40.98962,"lng":-75.98154,"zip":"18239","miles_from_dt":2.97},{"city":"Lattimer Mines","state_name":"Pennsylvania","lat":40.99259,"lng":-75.96468,"zip":"18234","miles_from_dt":3.3},{"city":"Conyngham","state_name":"Pennsylvania","lat":40.99105,"lng":-76.05824,"zip":"18219","miles_from_dt":3.71},{"city":"Harleigh","state_name":"Pennsylvania","lat":40.98137,"lng":-75.97111,"zip":"18225","miles_from_dt":3.73},{"city":"Sybertsville","state_name":"Pennsylvania","lat":41.00234,"lng":-76.08054,"zip":"18251","miles_from_dt":4.24},{"city":"Ebervale","state_name":"Pennsylvania","lat":40.98221,"lng":-75.95011,"zip":"18223","miles_from_dt":4.34},{"city":"Drifton","state_name":"Pennsylvania","lat":41.00152,"lng":-75.919,"zip":"18221","miles_from_dt":4.95},{"city":"Wapwallopen","state_name":"Pennsylvania","lat":41.10195,"lng":-76.06196,"zip":"18660","miles_from_dt":5.85},{"city":"Hazleton","state_name":"Pennsylvania","lat":40.94874,"lng":-76.0483,"zip":"18202","miles_from_dt":5.89},{"city":"Hazleton","state_name":"Pennsylvania","lat":40.95198,"lng":-75.95395,"zip":"18201","miles_from_dt":5.94},{"city":"Freeland","state_name":"Pennsylvania","lat":41.02499,"lng":-75.88728,"zip":"18224","miles_from_dt":6.25},{"city":"Sugarloaf","state_name":"Pennsylvania","lat":40.98457,"lng":-76.1206,"zip":"18249","miles_from_dt":6.66},{"city":"Beaver Meadows","state_name":"Pennsylvania","lat":40.94212,"lng":-75.90517,"zip":"18216","miles_from_dt":7.97},{"city":"Tresckow","state_name":"Pennsylvania","lat":40.91594,"lng":-75.96563,"zip":"18254","miles_from_dt":8.04},{"city":"Junedale","state_name":"Pennsylvania","lat":40.9201,"lng":-75.93077,"zip":"18230","miles_from_dt":8.45},{"city":"Mountain Top","state_name":"Pennsylvania","lat":41.13325,"lng":-75.9228,"zip":"18707","miles_from_dt":8.48},{"city":"Kelayres","state_name":"Pennsylvania","lat":40.90068,"lng":-76.00446,"zip":"18231","miles_from_dt":8.79},{"city":"Beach Haven","state_name":"Pennsylvania","lat":41.06766,"lng":-76.17644,"zip":"18601","miles_from_dt":9.27},{"city":"Weston","state_name":"Pennsylvania","lat":40.94044,"lng":-76.14752,"zip":"18256","miles_from_dt":9.52},{"city":"Mcadoo","state_name":"Pennsylvania","lat":40.88591,"lng":-76.02582,"zip":"18237","miles_from_dt":9.86},{"city":"Sheppton","state_name":"Pennsylvania","lat":40.90089,"lng":-76.09448,"zip":"18248","miles_from_dt":9.9},{"city":"Nuremberg","state_name":"Pennsylvania","lat":40.94439,"lng":-76.16492,"zip":"18241","miles_from_dt":10.08},{"city":"Oneida","state_name":"Pennsylvania","lat":40.90606,"lng":-76.12349,"zip":"18242","miles_from_dt":10.4},{"city":"Nescopeck","state_name":"Pennsylvania","lat":41.02961,"lng":-76.20598,"zip":"18635","miles_from_dt":10.41},{"city":"Glen Lyon","state_name":"Pennsylvania","lat":41.17149,"lng":-76.07707,"zip":"18617","miles_from_dt":10.55},{"city":"Rock Glen","state_name":"Pennsylvania","lat":40.95743,"lng":-76.195,"zip":"18246","miles_from_dt":10.98},{"city":"Nanticoke","state_name":"Pennsylvania","lat":41.18984,"lng":-76.0218,"zip":"18634","miles_from_dt":11.19},{"city":"Weatherly","state_name":"Pennsylvania","lat":40.93308,"lng":-75.82996,"zip":"18255","miles_from_dt":11.34},{"city":"Quakake","state_name":"Pennsylvania","lat":40.8528,"lng":-76.03011,"zip":"18245","miles_from_dt":12.16},{"city":"Berwick","state_name":"Pennsylvania","lat":41.08506,"lng":-76.24591,"zip":"18603","miles_from_dt":13.09},{"city":"Wilkes Barre","state_name":"Pennsylvania","lat":41.20432,"lng":-75.91231,"zip":"18706","miles_from_dt":13.12},{"city":"Delano","state_name":"Pennsylvania","lat":40.83958,"lng":-76.07509,"zip":"18220","miles_from_dt":13.49},{"city":"White Haven","state_name":"Pennsylvania","lat":41.08435,"lng":-75.75666,"zip":"18661","miles_from_dt":13.63},{"city":"Nesquehoning","state_name":"Pennsylvania","lat":40.86279,"lng":-75.84727,"zip":"18240","miles_from_dt":14.14},{"city":"Zion Grove","state_name":"Pennsylvania","lat":40.91935,"lng":-76.23729,"zip":"17985","miles_from_dt":14.2},{"city":"Shickshinny","state_name":"Pennsylvania","lat":41.18327,"lng":-76.19619,"zip":"18655","miles_from_dt":14.57},{"city":"Lansford","state_name":"Pennsylvania","lat":40.83515,"lng":-75.87939,"zip":"18232","miles_from_dt":14.89},{"city":"Coaldale","state_name":"Pennsylvania","lat":40.81974,"lng":-75.91611,"zip":"18218","miles_from_dt":15.14},{"city":"Plymouth","state_name":"Pennsylvania","lat":41.24748,"lng":-75.962,"zip":"18651","miles_from_dt":15.32},{"city":"Wilkes Barre","state_name":"Pennsylvania","lat":41.23731,"lng":-75.90851,"zip":"18765","miles_from_dt":15.32},{"city":"Mifflinville","state_name":"Pennsylvania","lat":41.03079,"lng":-76.30233,"zip":"18631","miles_from_dt":15.44},{"city":"Wilkes Barre","state_name":"Pennsylvania","lat":41.23739,"lng":-75.89719,"zip":"18762","miles_from_dt":15.53},{"city":"Ringtown","state_name":"Pennsylvania","lat":40.86047,"lng":-76.20945,"zip":"17967","miles_from_dt":15.69},{"city":"Mahanoy City","state_name":"Pennsylvania","lat":40.82485,"lng":-76.14223,"zip":"17948","miles_from_dt":15.71},{"city":"Barnesville","state_name":"Pennsylvania","lat":40.80667,"lng":-76.08093,"zip":"18214","miles_from_dt":15.77},{"city":"Wilkes Barre","state_name":"Pennsylvania","lat":41.24001,"lng":-75.89002,"zip":"18703","miles_from_dt":15.84},{"city":"Wilkes Barre","state_name":"Pennsylvania","lat":41.24435,"lng":-75.88995,"zip":"18766","miles_from_dt":16.12},{"city":"Wilkes Barre","state_name":"Pennsylvania","lat":41.2433,"lng":-75.88523,"zip":"18701","miles_from_dt":16.15},{"city":"Hunlock Creek","state_name":"Pennsylvania","lat":41.25441,"lng":-76.09129,"zip":"18621","miles_from_dt":16.22},{"city":"Wilkes Barre","state_name":"Pennsylvania","lat":41.24568,"lng":-75.8838,"zip":"18773","miles_from_dt":16.33},{"city":"Summit Hill","state_name":"Pennsylvania","lat":40.81744,"lng":-75.86145,"zip":"18250","miles_from_dt":16.41},{"city":"Wilkes Barre","state_name":"Pennsylvania","lat":41.24941,"lng":-75.884,"zip":"18711","miles_from_dt":16.56},{"city":"Wilkes Barre","state_name":"Pennsylvania","lat":41.25003,"lng":-75.88002,"zip":"18710","miles_from_dt":16.68},{"city":"Wilkes Barre","state_name":"Pennsylvania","lat":41.24995,"lng":-75.87598,"zip":"18767","miles_from_dt":16.76},{"city":"Wilkes Barre","state_name":"Pennsylvania","lat":41.25387,"lng":-75.87117,"zip":"18769","miles_from_dt":17.11},{"city":"Bear Creek","state_name":"Pennsylvania","lat":41.18749,"lng":-75.75526,"zip":"18602","miles_from_dt":17.13},{"city":"Wilkes Barre","state_name":"Pennsylvania","lat":41.21828,"lng":-75.7946,"zip":"18764","miles_from_dt":17.17},{"city":"Tamaqua","state_name":"Pennsylvania","lat":40.77857,"lng":-75.97893,"zip":"18252","miles_from_dt":17.28},{"city":"Wilkes Barre","state_name":"Pennsylvania","lat":41.21406,"lng":-75.76925,"zip":"18702","miles_from_dt":17.84},{"city":"Shenandoah","state_name":"Pennsylvania","lat":40.8204,"lng":-76.21131,"zip":"17976","miles_from_dt":17.89},{"city":"Tuscarora","state_name":"Pennsylvania","lat":40.76798,"lng":-76.03827,"zip":"17982","miles_from_dt":18.03},{"city":"Kingston","state_name":"Pennsylvania","lat":41.27676,"lng":-75.89474,"zip":"18704","miles_from_dt":18.13},{"city":"Jim Thorpe","state_name":"Pennsylvania","lat":40.93245,"lng":-75.68247,"zip":"18229","miles_from_dt":18.2},{"city":"Huntington Mills","state_name":"Pennsylvania","lat":41.20228,"lng":-76.27348,"zip":"18622","miles_from_dt":18.39},{"city":"Mary D","state_name":"Pennsylvania","lat":40.76434,"lng":-76.05997,"zip":"17952","miles_from_dt":18.41},{"city":"Luzerne","state_name":"Pennsylvania","lat":41.28635,"lng":-75.89674,"zip":"18709","miles_from_dt":18.72},{"city":"Shavertown","state_name":"Pennsylvania","lat":41.297,"lng":-75.95927,"zip":"18708","miles_from_dt":18.72},{"city":"Wilkes Barre","state_name":"Pennsylvania","lat":41.27156,"lng":-75.84241,"zip":"18705","miles_from_dt":18.86},{"city":"Brockton","state_name":"Pennsylvania","lat":40.75609,"lng":-76.07047,"zip":"17925","miles_from_dt":19.06},{"city":"Gilberton","state_name":"Pennsylvania","lat":40.79786,"lng":-76.21205,"zip":"17934","miles_from_dt":19.18},{"city":"Stillwater","state_name":"Pennsylvania","lat":41.1721,"lng":-76.32364,"zip":"17878","miles_from_dt":19.29},{"city":"Cambra","state_name":"Pennsylvania","lat":41.19675,"lng":-76.30463,"zip":"18611","miles_from_dt":19.41},{"city":"Lost Creek","state_name":"Pennsylvania","lat":40.8123,"lng":-76.2449,"zip":"17946","miles_from_dt":19.42},{"city":"Lehman","state_name":"Pennsylvania","lat":41.31559,"lng":-76.02235,"zip":"18627","miles_from_dt":19.85},{"city":"Middleport","state_name":"Pennsylvania","lat":40.74728,"lng":-76.09969,"zip":"17953","miles_from_dt":19.98},{"city":"Mahanoy Plane","state_name":"Pennsylvania","lat":40.79624,"lng":-76.23547,"zip":"17949","miles_from_dt":19.98},{"city":"Frackville","state_name":"Pennsylvania","lat":40.78378,"lng":-76.21638,"zip":"17931","miles_from_dt":20.11},{"city":"Lake Harmony","state_name":"Pennsylvania","lat":41.05529,"lng":-75.62088,"zip":"18624","miles_from_dt":20.25},{"city":"Frackville","state_name":"Pennsylvania","lat":40.78269,"lng":-76.23214,"zip":"17932","miles_from_dt":20.64},{"city":"New Philadelphia","state_name":"Pennsylvania","lat":40.74224,"lng":-76.15141,"zip":"17959","miles_from_dt":21.13},{"city":"Lehighton","state_name":"Pennsylvania","lat":40.83603,"lng":-75.692,"zip":"18235","miles_from_dt":21.15},{"city":"Orangeville","state_name":"Pennsylvania","lat":41.11821,"lng":-76.39498,"zip":"17859","miles_from_dt":21.2},{"city":"Girardville","state_name":"Pennsylvania","lat":40.79417,"lng":-76.28,"zip":"17935","miles_from_dt":21.57},{"city":"Albrightsville","state_name":"Pennsylvania","lat":41.00057,"lng":-75.59146,"zip":"18210","miles_from_dt":21.8},{"city":"Andreas","state_name":"Pennsylvania","lat":40.74315,"lng":-75.82314,"zip":"18211","miles_from_dt":21.89},{"city":"Wyoming","state_name":"Pennsylvania","lat":41.33192,"lng":-75.87753,"zip":"18644","miles_from_dt":22.02},{"city":"Bloomsburg","state_name":"Pennsylvania","lat":41.02216,"lng":-76.43061,"zip":"17815","miles_from_dt":22.15},{"city":"Dallas","state_name":"Pennsylvania","lat":41.35025,"lng":-75.98207,"zip":"18612","miles_from_dt":22.27},{"city":"Aristes","state_name":"Pennsylvania","lat":40.81328,"lng":-76.32989,"zip":"17920","miles_from_dt":22.49},{"city":"Shawanese","state_name":"Pennsylvania","lat":41.35344,"lng":-76.05141,"zip":"18654","miles_from_dt":22.57},{"city":"Parryville","state_name":"Pennsylvania","lat":40.82361,"lng":-75.66879,"zip":"18244","miles_from_dt":22.63},{"city":"Catawissa","state_name":"Pennsylvania","lat":40.9011,"lng":-76.40783,"zip":"17820","miles_from_dt":22.73},{"city":"Cumbola","state_name":"Pennsylvania","lat":40.70867,"lng":-76.11529,"zip":"17930","miles_from_dt":22.76},{"city":"New Ringgold","state_name":"Pennsylvania","lat":40.69932,"lng":-75.94656,"zip":"17960","miles_from_dt":22.91},{"city":"Sweet Valley","state_name":"Pennsylvania","lat":41.32703,"lng":-76.20442,"zip":"18656","miles_from_dt":23.06},{"city":"Ashfield","state_name":"Pennsylvania","lat":40.77292,"lng":-75.71883,"zip":"18212","miles_from_dt":23.19},{"city":"Pittston","state_name":"Pennsylvania","lat":41.29724,"lng":-75.74024,"zip":"18640","miles_from_dt":23.2},{"city":"Saint Clair","state_name":"Pennsylvania","lat":40.72072,"lng":-76.19056,"zip":"17970","miles_from_dt":23.29},{"city":"Bowmanstown","state_name":"Pennsylvania","lat":40.80408,"lng":-75.66336,"zip":"18030","miles_from_dt":23.71},{"city":"Wilburton","state_name":"Pennsylvania","lat":40.81931,"lng":-76.37306,"zip":"17888","miles_from_dt":23.98},{"city":"Port Carbon","state_name":"Pennsylvania","lat":40.69919,"lng":-76.16536,"zip":"17965","miles_from_dt":24.17},{"city":"Harveys Lake","state_name":"Pennsylvania","lat":41.37883,"lng":-76.0313,"zip":"18618","miles_from_dt":24.24},{"city":"Blakeslee","state_name":"Pennsylvania","lat":41.05959,"lng":-75.53226,"zip":"18610","miles_from_dt":24.89},{"city":"Pittston","state_name":"Pennsylvania","lat":41.36456,"lng":-75.8344,"zip":"18643","miles_from_dt":24.9},{"city":"Numidia","state_name":"Pennsylvania","lat":40.84238,"lng":-76.42314,"zip":"17858","miles_from_dt":25.27},{"city":"Benton","state_name":"Pennsylvania","lat":41.26885,"lng":-76.3751,"zip":"17814","miles_from_dt":25.39},{"city":"Duryea","state_name":"Pennsylvania","lat":41.35359,"lng":-75.77681,"zip":"18642","miles_from_dt":25.46},{"city":"Locustdale","state_name":"Pennsylvania","lat":40.78458,"lng":-76.37523,"zip":"17945","miles_from_dt":25.58},{"city":"Pittston","state_name":"Pennsylvania","lat":41.33644,"lng":-75.73007,"zip":"18641","miles_from_dt":25.71},{"city":"Seltzer","state_name":"Pennsylvania","lat":40.69592,"lng":-76.23606,"zip":"17974","miles_from_dt":25.88},{"city":"Gordon","state_name":"Pennsylvania","lat":40.75048,"lng":-76.33997,"zip":"17936","miles_from_dt":25.91},{"city":"Pocono Lake","state_name":"Pennsylvania","lat":41.15116,"lng":-75.53664,"zip":"18347","miles_from_dt":25.98},{"city":"Palmerton","state_name":"Pennsylvania","lat":40.83098,"lng":-75.57843,"zip":"18071","miles_from_dt":26.23},{"city":"Ashland","state_name":"Pennsylvania","lat":40.75422,"lng":-76.35732,"zip":"17921","miles_from_dt":26.34},{"city":"Aquashicola","state_name":"Pennsylvania","lat":40.81135,"lng":-75.59158,"zip":"18012","miles_from_dt":26.39},{"city":"Orwigsburg","state_name":"Pennsylvania","lat":40.64713,"lng":-76.05988,"zip":"17961","miles_from_dt":26.44},{"city":"Germansville","state_name":"Pennsylvania","lat":40.71802,"lng":-75.70999,"zip":"18053","miles_from_dt":26.45},{"city":"Pottsville","state_name":"Pennsylvania","lat":40.69364,"lng":-76.25526,"zip":"17901","miles_from_dt":26.5},{"city":"Minersville","state_name":"Pennsylvania","lat":40.69047,"lng":-76.25985,"zip":"17954","miles_from_dt":26.81},{"city":"Lavelle","state_name":"Pennsylvania","lat":40.76161,"lng":-76.37949,"zip":"17943","miles_from_dt":26.81},{"city":"Slatedale","state_name":"Pennsylvania","lat":40.74415,"lng":-75.65754,"zip":"18079","miles_from_dt":26.81},{"city":"Noxen","state_name":"Pennsylvania","lat":41.41215,"lng":-76.08859,"zip":"18636","miles_from_dt":26.84},{"city":"Ransom","state_name":"Pennsylvania","lat":41.39399,"lng":-75.82461,"zip":"18653","miles_from_dt":26.98},{"city":"Mar Lin","state_name":"Pennsylvania","lat":40.67919,"lng":-76.24425,"zip":"17951","miles_from_dt":27.1},{"city":"Mount Carmel","state_name":"Pennsylvania","lat":40.80255,"lng":-76.433,"zip":"17851","miles_from_dt":27.2},{"city":"Old Forge","state_name":"Pennsylvania","lat":41.37495,"lng":-75.73963,"zip":"18518","miles_from_dt":27.69},{"city":"Millville","state_name":"Pennsylvania","lat":41.14647,"lng":-76.51681,"zip":"17846","miles_from_dt":27.85},{"city":"Marion Heights","state_name":"Pennsylvania","lat":40.80554,"lng":-76.45499,"zip":"17832","miles_from_dt":28.04},{"city":"Pocono Lake Preserve","state_name":"Pennsylvania","lat":41.10688,"lng":-75.47923,"zip":"18348","miles_from_dt":28.09},{"city":"Slatington","state_name":"Pennsylvania","lat":40.73618,"lng":-75.63227,"zip":"18080","miles_from_dt":28.12},{"city":"Kempton","state_name":"Pennsylvania","lat":40.63387,"lng":-75.86158,"zip":"19529","miles_from_dt":28.25},{"city":"Moosic","state_name":"Pennsylvania","lat":41.35541,"lng":-75.68016,"zip":"18507","miles_from_dt":28.29},{"city":"Elysburg","state_name":"Pennsylvania","lat":40.85652,"lng":-76.49848,"zip":"17824","miles_from_dt":28.32},{"city":"Locust Gap","state_name":"Pennsylvania","lat":40.77537,"lng":-76.43291,"zip":"17840","miles_from_dt":28.32},{"city":"Kresgeville","state_name":"Pennsylvania","lat":40.89833,"lng":-75.49104,"zip":"18333","miles_from_dt":28.43},{"city":"Kunkletown","state_name":"Pennsylvania","lat":40.8922,"lng":-75.49094,"zip":"18058","miles_from_dt":28.57},{"city":"New Tripoli","state_name":"Pennsylvania","lat":40.6635,"lng":-75.74492,"zip":"18066","miles_from_dt":28.66},{"city":"Cressona","state_name":"Pennsylvania","lat":40.63104,"lng":-76.19273,"zip":"17929","miles_from_dt":29.08},{"city":"Scranton","state_name":"Pennsylvania","lat":41.36996,"lng":-75.68022,"zip":"18502","miles_from_dt":29.09},{"city":"Scranton","state_name":"Pennsylvania","lat":41.37,"lng":-75.68003,"zip":"18501","miles_from_dt":29.1},{"city":"Effort","state_name":"Pennsylvania","lat":40.96505,"lng":-75.45285,"zip":"18330","miles_from_dt":29.29},{"city":"Gouldsboro","state_name":"Pennsylvania","lat":41.24267,"lng":-75.52234,"zip":"18424","miles_from_dt":29.3},{"city":"Pocono Pines","state_name":"Pennsylvania","lat":41.11339,"lng":-75.45633,"zip":"18350","miles_from_dt":29.35},{"city":"Llewellyn","state_name":"Pennsylvania","lat":40.6605,"lng":-76.28903,"zip":"17944","miles_from_dt":29.36},{"city":"Kulpmont","state_name":"Pennsylvania","lat":40.77982,"lng":-76.46701,"zip":"17834","miles_from_dt":29.56},{"city":"Taylor","state_name":"Pennsylvania","lat":41.39524,"lng":-75.71461,"zip":"18517","miles_from_dt":29.56},{"city":"Long Pond","state_name":"Pennsylvania","lat":41.07208,"lng":-75.44298,"zip":"18334","miles_from_dt":29.61},{"city":"Walnutport","state_name":"Pennsylvania","lat":40.76578,"lng":-75.5576,"zip":"18088","miles_from_dt":29.68},{"city":"Scranton","state_name":"Pennsylvania","lat":41.37228,"lng":-75.6578,"zip":"18540","miles_from_dt":29.92}],"targetCityZipCode":"18247","targetCityState":"Pennsylvania"},"__N_SSG":true}