{"pageProps":{"stateName":"Pennsylvania","cityName":"taylorstown","nearbyCities":[{"city":"Claysville","state_name":"Pennsylvania","lat":40.10845,"lng":-80.40926,"zip":"15323","miles_from_dt":3.49},{"city":"West Middletown","state_name":"Pennsylvania","lat":40.2432,"lng":-80.42519,"zip":"15379","miles_from_dt":6.4},{"city":"West Alexander","state_name":"Pennsylvania","lat":40.10493,"lng":-80.48744,"zip":"15376","miles_from_dt":6.43},{"city":"Washington","state_name":"Pennsylvania","lat":40.16411,"lng":-80.25304,"zip":"15301","miles_from_dt":7.04},{"city":"Avella","state_name":"Pennsylvania","lat":40.25404,"lng":-80.43757,"zip":"15312","miles_from_dt":7.33},{"city":"Bethany","state_name":"West Virginia","lat":40.18646,"lng":-80.55024,"zip":"26032","miles_from_dt":8.98},{"city":"Valley Grove","state_name":"West Virginia","lat":40.10465,"lng":-80.54649,"zip":"26060","miles_from_dt":9.22},{"city":"Meadow Lands","state_name":"Pennsylvania","lat":40.21807,"lng":-80.22469,"zip":"15347","miles_from_dt":9.54},{"city":"Hickory","state_name":"Pennsylvania","lat":40.28654,"lng":-80.32258,"zip":"15340","miles_from_dt":9.62},{"city":"Westland","state_name":"Pennsylvania","lat":40.27771,"lng":-80.27433,"zip":"15378","miles_from_dt":10.27},{"city":"Prosperity","state_name":"Pennsylvania","lat":40.02813,"lng":-80.27205,"zip":"15329","miles_from_dt":10.65},{"city":"Houston","state_name":"Pennsylvania","lat":40.24533,"lng":-80.22061,"zip":"15342","miles_from_dt":10.69},{"city":"West Liberty","state_name":"West Virginia","lat":40.16889,"lng":-80.59813,"zip":"26074","miles_from_dt":11.29},{"city":"Strabane","state_name":"Pennsylvania","lat":40.25159,"lng":-80.19761,"zip":"15363","miles_from_dt":11.94},{"city":"Wellsburg","state_name":"West Virginia","lat":40.25008,"lng":-80.58037,"zip":"26070","miles_from_dt":12.2},{"city":"Triadelphia","state_name":"West Virginia","lat":40.07156,"lng":-80.59379,"zip":"26059","miles_from_dt":12.47},{"city":"West Finley","state_name":"Pennsylvania","lat":39.97973,"lng":-80.45083,"zip":"15377","miles_from_dt":12.62},{"city":"Atlasburg","state_name":"Pennsylvania","lat":40.34216,"lng":-80.38289,"zip":"15004","miles_from_dt":12.87},{"city":"Amity","state_name":"Pennsylvania","lat":40.04608,"lng":-80.18592,"zip":"15311","miles_from_dt":13},{"city":"Muse","state_name":"Pennsylvania","lat":40.29377,"lng":-80.20056,"zip":"15350","miles_from_dt":13.66},{"city":"Southview","state_name":"Pennsylvania","lat":40.33277,"lng":-80.2623,"zip":"15361","miles_from_dt":13.85},{"city":"Nineveh","state_name":"Pennsylvania","lat":39.96223,"lng":-80.31107,"zip":"15353","miles_from_dt":13.92},{"city":"Windsor Heights","state_name":"West Virginia","lat":40.19748,"lng":-80.64567,"zip":"26075","miles_from_dt":14.07},{"city":"Slovan","state_name":"Pennsylvania","lat":40.35949,"lng":-80.38501,"zip":"15078","miles_from_dt":14.07},{"city":"Canonsburg","state_name":"Pennsylvania","lat":40.27105,"lng":-80.16535,"zip":"15317","miles_from_dt":14.11},{"city":"Graysville","state_name":"Pennsylvania","lat":39.9505,"lng":-80.37521,"zip":"15337","miles_from_dt":14.16},{"city":"Langeloth","state_name":"Pennsylvania","lat":40.36353,"lng":-80.4008,"zip":"15054","miles_from_dt":14.37},{"city":"Dallas","state_name":"West Virginia","lat":39.98406,"lng":-80.54339,"zip":"26036","miles_from_dt":14.5},{"city":"Short Creek","state_name":"West Virginia","lat":40.18622,"lng":-80.66453,"zip":"26058","miles_from_dt":14.92},{"city":"Beech Bottom","state_name":"West Virginia","lat":40.21662,"lng":-80.65965,"zip":"26030","miles_from_dt":15.11},{"city":"Brilliant","state_name":"Ohio","lat":40.27048,"lng":-80.63154,"zip":"43913","miles_from_dt":15.24},{"city":"Wheeling","state_name":"West Virginia","lat":40.0693,"lng":-80.6508,"zip":"26003","miles_from_dt":15.27},{"city":"Sycamore","state_name":"Pennsylvania","lat":39.94557,"lng":-80.2849,"zip":"15364","miles_from_dt":15.44},{"city":"Eighty Four","state_name":"Pennsylvania","lat":40.18227,"lng":-80.09492,"zip":"15330","miles_from_dt":15.49},{"city":"Cecil","state_name":"Pennsylvania","lat":40.32167,"lng":-80.18716,"zip":"15321","miles_from_dt":15.53},{"city":"Joffre","state_name":"Pennsylvania","lat":40.38056,"lng":-80.35975,"zip":"15053","miles_from_dt":15.58},{"city":"McDonald","state_name":"Pennsylvania","lat":40.35571,"lng":-80.24713,"zip":"15057","miles_from_dt":15.62},{"city":"Hendersonville","state_name":"Pennsylvania","lat":40.29892,"lng":-80.1547,"zip":"15339","miles_from_dt":15.71},{"city":"Colliers","state_name":"West Virginia","lat":40.3482,"lng":-80.55522,"zip":"26035","miles_from_dt":16.03},{"city":"Midway","state_name":"Pennsylvania","lat":40.37695,"lng":-80.29113,"zip":"15060","miles_from_dt":16.06},{"city":"Follansbee","state_name":"West Virginia","lat":40.3344,"lng":-80.58494,"zip":"26037","miles_from_dt":16.23},{"city":"Tiltonsville","state_name":"Ohio","lat":40.17155,"lng":-80.69698,"zip":"43963","miles_from_dt":16.53},{"city":"Burgettstown","state_name":"Pennsylvania","lat":40.39373,"lng":-80.43583,"zip":"15021","miles_from_dt":16.64},{"city":"Scenery Hill","state_name":"Pennsylvania","lat":40.08846,"lng":-80.08144,"zip":"15360","miles_from_dt":16.76},{"city":"Yorkville","state_name":"Ohio","lat":40.15811,"lng":-80.71301,"zip":"43971","miles_from_dt":17.34},{"city":"Lawrence","state_name":"Pennsylvania","lat":40.30642,"lng":-80.12296,"zip":"15055","miles_from_dt":17.35},{"city":"Cokeburg","state_name":"Pennsylvania","lat":40.10074,"lng":-80.0654,"zip":"15324","miles_from_dt":17.37},{"city":"Marianna","state_name":"Pennsylvania","lat":40.02173,"lng":-80.10743,"zip":"15345","miles_from_dt":17.39},{"city":"Bulger","state_name":"Pennsylvania","lat":40.40805,"lng":-80.33053,"zip":"15019","miles_from_dt":17.66},{"city":"Cuddy","state_name":"Pennsylvania","lat":40.34802,"lng":-80.16235,"zip":"15031","miles_from_dt":17.76},{"city":"Sturgeon","state_name":"Pennsylvania","lat":40.38031,"lng":-80.21061,"zip":"15082","miles_from_dt":18.05},{"city":"Mingo Junction","state_name":"Ohio","lat":40.30138,"lng":-80.67199,"zip":"43938","miles_from_dt":18.18},{"city":"Morgan","state_name":"Pennsylvania","lat":40.35538,"lng":-80.14849,"zip":"15064","miles_from_dt":18.62},{"city":"Bridgeville","state_name":"Pennsylvania","lat":40.34348,"lng":-80.12865,"zip":"15017","miles_from_dt":18.77},{"city":"Rayland","state_name":"Ohio","lat":40.2242,"lng":-80.73269,"zip":"43943","miles_from_dt":18.97},{"city":"Venetia","state_name":"Pennsylvania","lat":40.26321,"lng":-80.05474,"zip":"15367","miles_from_dt":19},{"city":"Bentleyville","state_name":"Pennsylvania","lat":40.14555,"lng":-80.01775,"zip":"15314","miles_from_dt":19.48},{"city":"Ellsworth","state_name":"Pennsylvania","lat":40.10754,"lng":-80.02214,"zip":"15331","miles_from_dt":19.53},{"city":"Martins Ferry","state_name":"Ohio","lat":40.1247,"lng":-80.75225,"zip":"43935","miles_from_dt":19.54},{"city":"Colerain","state_name":"Ohio","lat":40.07001,"lng":-80.74028,"zip":"43916","miles_from_dt":19.7},{"city":"Beallsville","state_name":"Pennsylvania","lat":40.06318,"lng":-80.02937,"zip":"15313","miles_from_dt":19.91},{"city":"Wind Ridge","state_name":"Pennsylvania","lat":39.8725,"lng":-80.4692,"zip":"15380","miles_from_dt":20.03},{"city":"Rogersville","state_name":"Pennsylvania","lat":39.87667,"lng":-80.27555,"zip":"15359","miles_from_dt":20.11},{"city":"Pittsburgh","state_name":"Pennsylvania","lat":40.33293,"lng":-80.08291,"zip":"15241","miles_from_dt":20.14},{"city":"Weirton","state_name":"West Virginia","lat":40.42189,"lng":-80.56123,"zip":"26062","miles_from_dt":20.58},{"city":"Benwood","state_name":"West Virginia","lat":40.00236,"lng":-80.71985,"zip":"26031","miles_from_dt":20.64},{"city":"Oakdale","state_name":"Pennsylvania","lat":40.41486,"lng":-80.18981,"zip":"15071","miles_from_dt":20.66},{"city":"Presto","state_name":"Pennsylvania","lat":40.38474,"lng":-80.12231,"zip":"15142","miles_from_dt":21.06},{"city":"Richeyville","state_name":"Pennsylvania","lat":40.055,"lng":-80.00309,"zip":"15358","miles_from_dt":21.42},{"city":"Fredericktown","state_name":"Pennsylvania","lat":40.02693,"lng":-80.01429,"zip":"15333","miles_from_dt":21.58},{"city":"Imperial","state_name":"Pennsylvania","lat":40.46019,"lng":-80.28727,"zip":"15126","miles_from_dt":21.64},{"city":"Bethel Park","state_name":"Pennsylvania","lat":40.32125,"lng":-80.03707,"zip":"15102","miles_from_dt":21.68},{"city":"Finleyville","state_name":"Pennsylvania","lat":40.24226,"lng":-79.99134,"zip":"15332","miles_from_dt":21.69},{"city":"Clarksville","state_name":"Pennsylvania","lat":39.97655,"lng":-80.0488,"zip":"15322","miles_from_dt":21.71},{"city":"Van Voorhis","state_name":"Pennsylvania","lat":40.1598,"lng":-79.974,"zip":"15366","miles_from_dt":21.79},{"city":"Mcmechen","state_name":"West Virginia","lat":39.98389,"lng":-80.73104,"zip":"26040","miles_from_dt":21.82},{"city":"Steubenville","state_name":"Ohio","lat":40.35815,"lng":-80.70548,"zip":"43953","miles_from_dt":21.94},{"city":"Mount Pleasant","state_name":"Ohio","lat":40.16723,"lng":-80.79993,"zip":"43939","miles_from_dt":21.95},{"city":"Gastonville","state_name":"Pennsylvania","lat":40.25621,"lng":-79.98983,"zip":"15336","miles_from_dt":22.05},{"city":"Bridgeport","state_name":"Ohio","lat":40.08708,"lng":-80.79255,"zip":"43912","miles_from_dt":22.07},{"city":"Lansing","state_name":"Ohio","lat":40.0752,"lng":-80.79123,"zip":"43934","miles_from_dt":22.2},{"city":"Steubenville","state_name":"Ohio","lat":40.39763,"lng":-80.66278,"zip":"43952","miles_from_dt":22.22},{"city":"Smithfield","state_name":"Ohio","lat":40.26847,"lng":-80.78002,"zip":"43948","miles_from_dt":22.27},{"city":"Waynesburg","state_name":"Pennsylvania","lat":39.8734,"lng":-80.17991,"zip":"15370","miles_from_dt":22.32},{"city":"Pittsburgh","state_name":"Pennsylvania","lat":40.37474,"lng":-80.07305,"zip":"15243","miles_from_dt":22.39},{"city":"Mather","state_name":"Pennsylvania","lat":39.93545,"lng":-80.07536,"zip":"15346","miles_from_dt":22.39},{"city":"Glen Dale","state_name":"West Virginia","lat":39.96329,"lng":-80.72595,"zip":"26038","miles_from_dt":22.4},{"city":"Dillonvale","state_name":"Ohio","lat":40.22396,"lng":-80.80546,"zip":"43917","miles_from_dt":22.72},{"city":"South Park","state_name":"Pennsylvania","lat":40.29348,"lng":-79.99515,"zip":"15129","miles_from_dt":22.73},{"city":"New Eagle","state_name":"Pennsylvania","lat":40.20823,"lng":-79.96106,"zip":"15067","miles_from_dt":22.75},{"city":"Carnegie","state_name":"Pennsylvania","lat":40.40882,"lng":-80.10863,"zip":"15106","miles_from_dt":22.79},{"city":"Daisytown","state_name":"Pennsylvania","lat":40.06742,"lng":-79.97065,"zip":"15427","miles_from_dt":22.8},{"city":"Holbrook","state_name":"Pennsylvania","lat":39.82381,"lng":-80.34728,"zip":"15341","miles_from_dt":22.98},{"city":"Pittsburgh","state_name":"Pennsylvania","lat":40.45246,"lng":-80.18405,"zip":"15275","miles_from_dt":23.08},{"city":"Vestaburg","state_name":"Pennsylvania","lat":40.0145,"lng":-79.9892,"zip":"15368","miles_from_dt":23.15},{"city":"Pittsburgh","state_name":"Pennsylvania","lat":40.37075,"lng":-80.04395,"zip":"15228","miles_from_dt":23.37},{"city":"Blaine","state_name":"Ohio","lat":40.06774,"lng":-80.81552,"zip":"43909","miles_from_dt":23.57},{"city":"Piney Fork","state_name":"Ohio","lat":40.25258,"lng":-80.81345,"zip":"43941","miles_from_dt":23.61},{"city":"Millsboro","state_name":"Pennsylvania","lat":39.98748,"lng":-79.99624,"zip":"15348","miles_from_dt":23.67},{"city":"Bunola","state_name":"Pennsylvania","lat":40.2283,"lng":-79.9479,"zip":"15020","miles_from_dt":23.69},{"city":"Charleroi","state_name":"Pennsylvania","lat":40.13329,"lng":-79.93661,"zip":"15022","miles_from_dt":23.82},{"city":"Jefferson","state_name":"Pennsylvania","lat":39.92289,"lng":-80.05068,"zip":"15344","miles_from_dt":23.94},{"city":"La Belle","state_name":"Pennsylvania","lat":40.00289,"lng":-79.97616,"zip":"15450","miles_from_dt":24.12},{"city":"Bellaire","state_name":"Ohio","lat":40.0132,"lng":-80.80118,"zip":"43906","miles_from_dt":24.12},{"city":"Barton","state_name":"Ohio","lat":40.11159,"lng":-80.8408,"zip":"43905","miles_from_dt":24.3},{"city":"Pittsburgh","state_name":"Pennsylvania","lat":40.36808,"lng":-80.01782,"zip":"15234","miles_from_dt":24.34},{"city":"Pittsburgh","state_name":"Pennsylvania","lat":40.4381,"lng":-80.10552,"zip":"15205","miles_from_dt":24.47},{"city":"Clinton","state_name":"Pennsylvania","lat":40.51043,"lng":-80.35662,"zip":"15026","miles_from_dt":24.53},{"city":"Monongahela","state_name":"Pennsylvania","lat":40.19487,"lng":-79.92228,"zip":"15063","miles_from_dt":24.66},{"city":"Moundsville","state_name":"West Virginia","lat":39.89764,"lng":-80.7107,"zip":"26041","miles_from_dt":24.79},{"city":"Coal Center","state_name":"Pennsylvania","lat":40.08804,"lng":-79.92538,"zip":"15423","miles_from_dt":24.81},{"city":"Cameron","state_name":"West Virginia","lat":39.8284,"lng":-80.57985,"zip":"26033","miles_from_dt":24.82},{"city":"Pittsburgh","state_name":"Pennsylvania","lat":40.43803,"lng":-80.09376,"zip":"15276","miles_from_dt":24.84},{"city":"Pittsburgh","state_name":"Pennsylvania","lat":40.44139,"lng":-80.0978,"zip":"15277","miles_from_dt":24.89},{"city":"Neffs","state_name":"Ohio","lat":40.02863,"lng":-80.82541,"zip":"43940","miles_from_dt":24.9},{"city":"Pittsburgh","state_name":"Pennsylvania","lat":40.40268,"lng":-80.0348,"zip":"15216","miles_from_dt":25.18},{"city":"Pittsburgh","state_name":"Pennsylvania","lat":40.40395,"lng":-80.03485,"zip":"15270","miles_from_dt":25.24},{"city":"Elrama","state_name":"Pennsylvania","lat":40.2499,"lng":-79.92379,"zip":"15038","miles_from_dt":25.28},{"city":"Pittsburgh","state_name":"Pennsylvania","lat":40.34756,"lng":-79.97652,"zip":"15236","miles_from_dt":25.35},{"city":"Pittsburgh","state_name":"Pennsylvania","lat":40.41875,"lng":-80.04894,"zip":"15220","miles_from_dt":25.41},{"city":"Pittsburgh","state_name":"Pennsylvania","lat":40.42,"lng":-80.05002,"zip":"15244","miles_from_dt":25.43},{"city":"Pittsburgh","state_name":"Pennsylvania","lat":40.42,"lng":-80.05002,"zip":"15242","miles_from_dt":25.43},{"city":"Shadyside","state_name":"Ohio","lat":39.95448,"lng":-80.78755,"zip":"43947","miles_from_dt":25.44},{"city":"Aleppo","state_name":"Pennsylvania","lat":39.79255,"lng":-80.48108,"zip":"15310","miles_from_dt":25.56},{"city":"Pittsburgh","state_name":"Pennsylvania","lat":40.42209,"lng":-80.04637,"zip":"15283","miles_from_dt":25.67},{"city":"Pittsburgh","state_name":"Pennsylvania","lat":40.39527,"lng":-80.01374,"zip":"15226","miles_from_dt":25.68},{"city":"Coraopolis","state_name":"Pennsylvania","lat":40.50006,"lng":-80.20031,"zip":"15108","miles_from_dt":25.7},{"city":"Denbo","state_name":"Pennsylvania","lat":40.00678,"lng":-79.94021,"zip":"15429","miles_from_dt":25.74},{"city":"Adena","state_name":"Ohio","lat":40.21691,"lng":-80.86637,"zip":"43901","miles_from_dt":25.8},{"city":"East Millsboro","state_name":"Pennsylvania","lat":39.97413,"lng":-79.95799,"zip":"15433","miles_from_dt":25.89},{"city":"Pittsburgh","state_name":"Pennsylvania","lat":40.50277,"lng":-80.18917,"zip":"15231","miles_from_dt":26.1},{"city":"Maynard","state_name":"Ohio","lat":40.1309,"lng":-80.87904,"zip":"43937","miles_from_dt":26.19},{"city":"Rices Landing","state_name":"Pennsylvania","lat":39.93721,"lng":-79.98153,"zip":"15357","miles_from_dt":26.19},{"city":"McKees Rocks","state_name":"Pennsylvania","lat":40.46872,"lng":-80.10233,"zip":"15136","miles_from_dt":26.27},{"city":"Clairton","state_name":"Pennsylvania","lat":40.29887,"lng":-79.9213,"zip":"15025","miles_from_dt":26.46},{"city":"Crucible","state_name":"Pennsylvania","lat":39.94893,"lng":-79.96331,"zip":"15325","miles_from_dt":26.54},{"city":"Harrisville","state_name":"Ohio","lat":40.18205,"lng":-80.88728,"zip":"43974","miles_from_dt":26.62},{"city":"Monessen","state_name":"Pennsylvania","lat":40.15184,"lng":-79.88277,"zip":"15062","miles_from_dt":26.62},{"city":"Pittsburgh","state_name":"Pennsylvania","lat":40.375,"lng":-79.97077,"zip":"15227","miles_from_dt":26.64},{"city":"Newell","state_name":"Pennsylvania","lat":40.07562,"lng":-79.89199,"zip":"15466","miles_from_dt":26.72},{"city":"Brownsville","state_name":"Pennsylvania","lat":40.01466,"lng":-79.91464,"zip":"15417","miles_from_dt":26.78},{"city":"California","state_name":"Pennsylvania","lat":40.05861,"lng":-79.89408,"zip":"15419","miles_from_dt":26.88},{"city":"Pittsburgh","state_name":"Pennsylvania","lat":40.45597,"lng":-80.06051,"zip":"15204","miles_from_dt":26.91},{"city":"New Manchester","state_name":"West Virginia","lat":40.5211,"lng":-80.57022,"zip":"26056","miles_from_dt":27.04},{"city":"West Elizabeth","state_name":"Pennsylvania","lat":40.27159,"lng":-79.89607,"zip":"15088","miles_from_dt":27.1},{"city":"Hiller","state_name":"Pennsylvania","lat":40.0134,"lng":-79.90836,"zip":"15444","miles_from_dt":27.12},{"city":"Pittsburgh","state_name":"Pennsylvania","lat":40.4302,"lng":-80.01533,"zip":"15211","miles_from_dt":27.23},{"city":"Elco","state_name":"Pennsylvania","lat":40.08013,"lng":-79.88037,"zip":"15434","miles_from_dt":27.26},{"city":"West Mifflin","state_name":"Pennsylvania","lat":40.34817,"lng":-79.93471,"zip":"15123","miles_from_dt":27.28},{"city":"Toronto","state_name":"Ohio","lat":40.48695,"lng":-80.66928,"zip":"43964","miles_from_dt":27.33},{"city":"Pittsburgh","state_name":"Pennsylvania","lat":40.40679,"lng":-79.98411,"zip":"15210","miles_from_dt":27.39},{"city":"Bloomingdale","state_name":"Ohio","lat":40.37039,"lng":-80.8214,"zip":"43910","miles_from_dt":27.39},{"city":"Empire","state_name":"Ohio","lat":40.51068,"lng":-80.62252,"zip":"43926","miles_from_dt":27.51},{"city":"Donora","state_name":"Pennsylvania","lat":40.18011,"lng":-79.86501,"zip":"15033","miles_from_dt":27.6},{"city":"New Freeport","state_name":"Pennsylvania","lat":39.75418,"lng":-80.40253,"zip":"15352","miles_from_dt":27.71},{"city":"Brave","state_name":"Pennsylvania","lat":39.76514,"lng":-80.26185,"zip":"15316","miles_from_dt":27.73},{"city":"Glen Easton","state_name":"West Virginia","lat":39.81641,"lng":-80.66969,"zip":"26039","miles_from_dt":27.84},{"city":"Pittsburgh","state_name":"Pennsylvania","lat":40.43767,"lng":-80.00472,"zip":"15295","miles_from_dt":27.99},{"city":"Richmond","state_name":"Ohio","lat":40.43623,"lng":-80.76853,"zip":"43944","miles_from_dt":28.01},{"city":"New Cumberland","state_name":"West Virginia","lat":40.53223,"lng":-80.5837,"zip":"26047","miles_from_dt":28.01},{"city":"Dunlevy","state_name":"Pennsylvania","lat":40.11301,"lng":-79.85913,"zip":"15432","miles_from_dt":28.03},{"city":"Pittsburgh","state_name":"Pennsylvania","lat":40.45985,"lng":-80.03387,"zip":"15233","miles_from_dt":28.03},{"city":"Pricedale","state_name":"Pennsylvania","lat":40.13922,"lng":-79.85605,"zip":"15072","miles_from_dt":28.05},{"city":"Pittsburgh","state_name":"Pennsylvania","lat":40.45873,"lng":-80.03122,"zip":"15286","miles_from_dt":28.06},{"city":"Isabella","state_name":"Pennsylvania","lat":39.9445,"lng":-79.93257,"zip":"15447","miles_from_dt":28.09},{"city":"Glencoe","state_name":"Ohio","lat":40.01088,"lng":-80.88172,"zip":"43928","miles_from_dt":28.13},{"city":"Georgetown","state_name":"Pennsylvania","lat":40.55585,"lng":-80.48994,"zip":"15043","miles_from_dt":28.16},{"city":"Pittsburgh","state_name":"Pennsylvania","lat":40.46551,"lng":-80.0383,"zip":"15279","miles_from_dt":28.17},{"city":"Hookstown","state_name":"Pennsylvania","lat":40.5617,"lng":-80.44038,"zip":"15050","miles_from_dt":28.17},{"city":"Pittsburgh","state_name":"Pennsylvania","lat":40.44185,"lng":-80.00502,"zip":"15272","miles_from_dt":28.18},{"city":"Pittsburgh","state_name":"Pennsylvania","lat":40.50636,"lng":-80.1116,"zip":"15225","miles_from_dt":28.19},{"city":"Roscoe","state_name":"Pennsylvania","lat":40.07856,"lng":-79.86243,"zip":"15477","miles_from_dt":28.21},{"city":"Pittsburgh","state_name":"Pennsylvania","lat":40.45589,"lng":-80.02196,"zip":"15255","miles_from_dt":28.25},{"city":"Pittsburgh","state_name":"Pennsylvania","lat":40.46742,"lng":-80.03747,"zip":"15267","miles_from_dt":28.3},{"city":"Pittsburgh","state_name":"Pennsylvania","lat":40.46742,"lng":-80.03747,"zip":"15268","miles_from_dt":28.3},{"city":"Carmichaels","state_name":"Pennsylvania","lat":39.87386,"lng":-79.99768,"zip":"15320","miles_from_dt":28.31},{"city":"Pittsburgh","state_name":"Pennsylvania","lat":40.44002,"lng":-79.99865,"zip":"15281","miles_from_dt":28.33},{"city":"Pittsburgh","state_name":"Pennsylvania","lat":40.44097,"lng":-79.99827,"zip":"15252","miles_from_dt":28.39},{"city":"Pittsburgh","state_name":"Pennsylvania","lat":40.44238,"lng":-79.99994,"zip":"15265","miles_from_dt":28.39},{"city":"Pittsburgh","state_name":"Pennsylvania","lat":40.44109,"lng":-79.99828,"zip":"15254","miles_from_dt":28.4},{"city":"Pittsburgh","state_name":"Pennsylvania","lat":40.4414,"lng":-79.99816,"zip":"15259","miles_from_dt":28.42},{"city":"Pittsburgh","state_name":"Pennsylvania","lat":40.45735,"lng":-80.01932,"zip":"15290","miles_from_dt":28.42},{"city":"Pittsburgh","state_name":"Pennsylvania","lat":40.43962,"lng":-79.99517,"zip":"15262","miles_from_dt":28.44},{"city":"Pittsburgh","state_name":"Pennsylvania","lat":40.44155,"lng":-79.99779,"zip":"15257","miles_from_dt":28.44},{"city":"Pittsburgh","state_name":"Pennsylvania","lat":40.43602,"lng":-79.99042,"zip":"15282","miles_from_dt":28.46},{"city":"Stratton","state_name":"Ohio","lat":40.52343,"lng":-80.63025,"zip":"43961","miles_from_dt":28.48},{"city":"Webster","state_name":"Pennsylvania","lat":40.19504,"lng":-79.84948,"zip":"15087","miles_from_dt":28.5},{"city":"Allenport","state_name":"Pennsylvania","lat":40.09496,"lng":-79.85218,"zip":"15412","miles_from_dt":28.55},{"city":"Pittsburgh","state_name":"Pennsylvania","lat":40.4421,"lng":-79.99519,"zip":"15230","miles_from_dt":28.56},{"city":"Pittsburgh","state_name":"Pennsylvania","lat":40.4257,"lng":-79.97491,"zip":"15203","miles_from_dt":28.6},{"city":"Saint Clairsville","state_name":"Ohio","lat":40.09164,"lng":-80.92193,"zip":"43950","miles_from_dt":28.75},{"city":"Stockdale","state_name":"Pennsylvania","lat":40.08352,"lng":-79.85036,"zip":"15483","miles_from_dt":28.78},{"city":"Crescent","state_name":"Pennsylvania","lat":40.55618,"lng":-80.22868,"zip":"15046","miles_from_dt":28.85},{"city":"Glassport","state_name":"Pennsylvania","lat":40.32613,"lng":-79.88614,"zip":"15045","miles_from_dt":28.9},{"city":"Spraggs","state_name":"Pennsylvania","lat":39.75821,"lng":-80.21301,"zip":"15362","miles_from_dt":28.91},{"city":"West Mifflin","state_name":"Pennsylvania","lat":40.35976,"lng":-79.90628,"zip":"15122","miles_from_dt":28.98},{"city":"Merrittstown","state_name":"Pennsylvania","lat":39.9629,"lng":-79.89916,"zip":"15463","miles_from_dt":29.01},{"city":"Pittsburgh","state_name":"Pennsylvania","lat":40.44304,"lng":-79.98443,"zip":"15219","miles_from_dt":29.02},{"city":"Pittsburgh","state_name":"Pennsylvania","lat":40.44998,"lng":-79.9912,"zip":"15222","miles_from_dt":29.09},{"city":"Fairpoint","state_name":"Ohio","lat":40.12334,"lng":-80.9335,"zip":"43927","miles_from_dt":29.1},{"city":"Elizabeth","state_name":"Pennsylvania","lat":40.25649,"lng":-79.85017,"zip":"15037","miles_from_dt":29.16},{"city":"Pittsburgh","state_name":"Pennsylvania","lat":40.39813,"lng":-79.9334,"zip":"15207","miles_from_dt":29.17},{"city":"Fayette City","state_name":"Pennsylvania","lat":40.07485,"lng":-79.84431,"zip":"15438","miles_from_dt":29.2},{"city":"Pittsburgh","state_name":"Pennsylvania","lat":40.50566,"lng":-80.06902,"zip":"15202","miles_from_dt":29.37},{"city":"Pittsburgh","state_name":"Pennsylvania","lat":40.51194,"lng":-80.07968,"zip":"15278","miles_from_dt":29.41},{"city":"Dravosburg","state_name":"Pennsylvania","lat":40.35083,"lng":-79.89067,"zip":"15034","miles_from_dt":29.42},{"city":"Pittsburgh","state_name":"Pennsylvania","lat":40.47106,"lng":-80.00844,"zip":"15212","miles_from_dt":29.5},{"city":"Leetsdale","state_name":"Pennsylvania","lat":40.56512,"lng":-80.21407,"zip":"15056","miles_from_dt":29.67},{"city":"Allison","state_name":"Pennsylvania","lat":39.98493,"lng":-79.87141,"zip":"15413","miles_from_dt":29.69},{"city":"Pittsburgh","state_name":"Pennsylvania","lat":40.43991,"lng":-79.96021,"zip":"15253","miles_from_dt":29.82},{"city":"Pittsburgh","state_name":"Pennsylvania","lat":40.44102,"lng":-79.96037,"zip":"15261","miles_from_dt":29.87},{"city":"South Heights","state_name":"Pennsylvania","lat":40.57471,"lng":-80.23614,"zip":"15081","miles_from_dt":29.97}],"targetCityZipCode":"15365","targetCityState":"Pennsylvania"},"__N_SSG":true}