{"pageProps":{"stateName":"Pennsylvania","cityName":"thompsontown","nearbyCities":[{"city":"Millerstown","state_name":"Pennsylvania","lat":40.55153,"lng":-77.16813,"zip":"17062","miles_from_dt":3.41},{"city":"McAlisterville","state_name":"Pennsylvania","lat":40.65172,"lng":-77.25948,"zip":"17049","miles_from_dt":5.17},{"city":"Cocolamus","state_name":"Pennsylvania","lat":40.6596,"lng":-77.19358,"zip":"17014","miles_from_dt":5.35},{"city":"Oakland Mills","state_name":"Pennsylvania","lat":40.62084,"lng":-77.30758,"zip":"17076","miles_from_dt":5.4},{"city":"Mexico","state_name":"Pennsylvania","lat":40.53349,"lng":-77.35585,"zip":"17056","miles_from_dt":8.11},{"city":"Newport","state_name":"Pennsylvania","lat":40.47983,"lng":-77.14456,"zip":"17074","miles_from_dt":8.14},{"city":"Mifflintown","state_name":"Pennsylvania","lat":40.59241,"lng":-77.38165,"zip":"17059","miles_from_dt":8.69},{"city":"Richfield","state_name":"Pennsylvania","lat":40.69067,"lng":-77.12502,"zip":"17086","miles_from_dt":8.79},{"city":"Beaver Springs","state_name":"Pennsylvania","lat":40.73626,"lng":-77.23641,"zip":"17812","miles_from_dt":10.55},{"city":"Liverpool","state_name":"Pennsylvania","lat":40.58841,"lng":-77.00389,"zip":"17045","miles_from_dt":11.2},{"city":"McClure","state_name":"Pennsylvania","lat":40.72455,"lng":-77.35888,"zip":"17841","miles_from_dt":12.23},{"city":"New Bloomfield","state_name":"Pennsylvania","lat":40.40685,"lng":-77.17795,"zip":"17068","miles_from_dt":12.4},{"city":"Beaver Springs","state_name":"Pennsylvania","lat":40.76172,"lng":-77.25674,"zip":"17843","miles_from_dt":12.43},{"city":"Port Royal","state_name":"Pennsylvania","lat":40.49762,"lng":-77.42579,"zip":"17082","miles_from_dt":12.52},{"city":"Elliottsburg","state_name":"Pennsylvania","lat":40.40992,"lng":-77.30854,"zip":"17024","miles_from_dt":12.96},{"city":"Mount Pleasant Mills","state_name":"Pennsylvania","lat":40.69212,"lng":-77.01254,"zip":"17853","miles_from_dt":13.07},{"city":"Beavertown","state_name":"Pennsylvania","lat":40.78505,"lng":-77.1772,"zip":"17813","miles_from_dt":14.02},{"city":"Paxtonville","state_name":"Pennsylvania","lat":40.77361,"lng":-77.0788,"zip":"17861","miles_from_dt":14.95},{"city":"Duncannon","state_name":"Pennsylvania","lat":40.41014,"lng":-77.04367,"zip":"17020","miles_from_dt":15.08},{"city":"Troxelville","state_name":"Pennsylvania","lat":40.80301,"lng":-77.20565,"zip":"17882","miles_from_dt":15.11},{"city":"Ickesburg","state_name":"Pennsylvania","lat":40.43329,"lng":-77.42872,"zip":"17037","miles_from_dt":15.26},{"city":"New Buffalo","state_name":"Pennsylvania","lat":40.45722,"lng":-76.97921,"zip":"17069","miles_from_dt":15.27},{"city":"Millersburg","state_name":"Pennsylvania","lat":40.56542,"lng":-76.90046,"zip":"17061","miles_from_dt":16.69},{"city":"Dalmatia","state_name":"Pennsylvania","lat":40.6275,"lng":-76.89854,"zip":"17017","miles_from_dt":17},{"city":"Shermans Dale","state_name":"Pennsylvania","lat":40.32953,"lng":-77.18302,"zip":"17090","miles_from_dt":17.66},{"city":"Middleburg","state_name":"Pennsylvania","lat":40.80389,"lng":-77.04329,"zip":"17842","miles_from_dt":17.69},{"city":"Freeburg","state_name":"Pennsylvania","lat":40.75482,"lng":-76.96133,"zip":"17827","miles_from_dt":17.86},{"city":"Loysville","state_name":"Pennsylvania","lat":40.37098,"lng":-77.41426,"zip":"17047","miles_from_dt":18.02},{"city":"Port Trevorton","state_name":"Pennsylvania","lat":40.70294,"lng":-76.90687,"zip":"17864","miles_from_dt":18.24},{"city":"Milroy","state_name":"Pennsylvania","lat":40.76274,"lng":-77.47343,"zip":"17063","miles_from_dt":18.27},{"city":"Mifflin","state_name":"Pennsylvania","lat":40.50111,"lng":-77.54792,"zip":"17058","miles_from_dt":18.35},{"city":"Burnham","state_name":"Pennsylvania","lat":40.6359,"lng":-77.56609,"zip":"17009","miles_from_dt":18.71},{"city":"Yeagertown","state_name":"Pennsylvania","lat":40.64535,"lng":-77.57639,"zip":"17099","miles_from_dt":19.37},{"city":"Landisburg","state_name":"Pennsylvania","lat":40.31558,"lng":-77.32571,"zip":"17040","miles_from_dt":19.4},{"city":"Lewistown","state_name":"Pennsylvania","lat":40.58236,"lng":-77.59013,"zip":"17044","miles_from_dt":19.64},{"city":"Kreamer","state_name":"Pennsylvania","lat":40.80255,"lng":-76.96631,"zip":"17833","miles_from_dt":20.01},{"city":"Weikert","state_name":"Pennsylvania","lat":40.87042,"lng":-77.28941,"zip":"17885","miles_from_dt":20.12},{"city":"Marysville","state_name":"Pennsylvania","lat":40.3255,"lng":-77.03256,"zip":"17053","miles_from_dt":20.32},{"city":"Millmont","state_name":"Pennsylvania","lat":40.88308,"lng":-77.21628,"zip":"17845","miles_from_dt":20.63},{"city":"Laurelton","state_name":"Pennsylvania","lat":40.88365,"lng":-77.19795,"zip":"17835","miles_from_dt":20.69},{"city":"Penns Creek","state_name":"Pennsylvania","lat":40.86069,"lng":-77.05661,"zip":"17862","miles_from_dt":20.85},{"city":"Elizabethville","state_name":"Pennsylvania","lat":40.5813,"lng":-76.81169,"zip":"17023","miles_from_dt":21.31},{"city":"Berrysburg","state_name":"Pennsylvania","lat":40.60304,"lng":-76.81065,"zip":"17005","miles_from_dt":21.4},{"city":"Granville","state_name":"Pennsylvania","lat":40.55416,"lng":-77.62196,"zip":"17029","miles_from_dt":21.42},{"city":"Coburn","state_name":"Pennsylvania","lat":40.84711,"lng":-77.4347,"zip":"16832","miles_from_dt":21.45},{"city":"Dauphin","state_name":"Pennsylvania","lat":40.40246,"lng":-76.88117,"zip":"17018","miles_from_dt":21.67},{"city":"Swengel","state_name":"Pennsylvania","lat":40.89109,"lng":-77.12383,"zip":"17880","miles_from_dt":21.74},{"city":"Halifax","state_name":"Pennsylvania","lat":40.49448,"lng":-76.81788,"zip":"17032","miles_from_dt":21.89},{"city":"Hartleton","state_name":"Pennsylvania","lat":40.90057,"lng":-77.15546,"zip":"17829","miles_from_dt":22.07},{"city":"Honey Grove","state_name":"Pennsylvania","lat":40.41638,"lng":-77.57443,"zip":"17035","miles_from_dt":22.11},{"city":"Pillow","state_name":"Pennsylvania","lat":40.64057,"lng":-76.80299,"zip":"17080","miles_from_dt":22.11},{"city":"Reedsville","state_name":"Pennsylvania","lat":40.68705,"lng":-77.62692,"zip":"17084","miles_from_dt":22.7},{"city":"Woodward","state_name":"Pennsylvania","lat":40.90707,"lng":-77.33841,"zip":"16882","miles_from_dt":23.18},{"city":"Selinsgrove","state_name":"Pennsylvania","lat":40.80992,"lng":-76.8897,"zip":"17870","miles_from_dt":23.19},{"city":"Herndon","state_name":"Pennsylvania","lat":40.68791,"lng":-76.79449,"zip":"17830","miles_from_dt":23.33},{"city":"Enola","state_name":"Pennsylvania","lat":40.29506,"lng":-76.97731,"zip":"17025","miles_from_dt":23.61},{"city":"Carlisle","state_name":"Pennsylvania","lat":40.241,"lng":-77.19286,"zip":"17013","miles_from_dt":23.71},{"city":"Summerdale","state_name":"Pennsylvania","lat":40.30998,"lng":-76.92817,"zip":"17093","miles_from_dt":24.28},{"city":"New Berlin","state_name":"Pennsylvania","lat":40.88735,"lng":-76.97217,"zip":"17855","miles_from_dt":24.55},{"city":"Aaronsburg","state_name":"Pennsylvania","lat":40.91995,"lng":-77.38702,"zip":"16820","miles_from_dt":24.83},{"city":"Gratz","state_name":"Pennsylvania","lat":40.60833,"lng":-76.74417,"zip":"17030","miles_from_dt":24.91},{"city":"Mechanicsburg","state_name":"Pennsylvania","lat":40.24907,"lng":-77.03005,"zip":"17050","miles_from_dt":25.13},{"city":"New Kingstown","state_name":"Pennsylvania","lat":40.23385,"lng":-77.08178,"zip":"17072","miles_from_dt":25.2},{"city":"Millheim","state_name":"Pennsylvania","lat":40.89697,"lng":-77.47228,"zip":"16854","miles_from_dt":25.41},{"city":"Harrisburg","state_name":"Pennsylvania","lat":40.31776,"lng":-76.88354,"zip":"17110","miles_from_dt":25.42},{"city":"Lykens","state_name":"Pennsylvania","lat":40.60554,"lng":-76.72669,"zip":"17048","miles_from_dt":25.82},{"city":"Spring Mills","state_name":"Pennsylvania","lat":40.84536,"lng":-77.56882,"zip":"16875","miles_from_dt":25.82},{"city":"Winfield","state_name":"Pennsylvania","lat":40.88228,"lng":-76.9143,"zip":"17889","miles_from_dt":25.99},{"city":"Hummels Wharf","state_name":"Pennsylvania","lat":40.83432,"lng":-76.83664,"zip":"17831","miles_from_dt":26.39},{"city":"Plainfield","state_name":"Pennsylvania","lat":40.20121,"lng":-77.28322,"zip":"17081","miles_from_dt":26.65},{"city":"Mifflinburg","state_name":"Pennsylvania","lat":40.95904,"lng":-77.08747,"zip":"17844","miles_from_dt":26.74},{"city":"Harrisburg","state_name":"Pennsylvania","lat":40.29648,"lng":-76.87461,"zip":"17107","miles_from_dt":26.82},{"city":"Harrisburg","state_name":"Pennsylvania","lat":40.29406,"lng":-76.87783,"zip":"17106","miles_from_dt":26.83},{"city":"Blain","state_name":"Pennsylvania","lat":40.28495,"lng":-77.54364,"zip":"17006","miles_from_dt":26.89},{"city":"Belleville","state_name":"Pennsylvania","lat":40.59966,"lng":-77.73278,"zip":"17004","miles_from_dt":27.16},{"city":"Harrisburg","state_name":"Pennsylvania","lat":40.27119,"lng":-76.89686,"zip":"17102","miles_from_dt":27.4},{"city":"Camp Hill","state_name":"Pennsylvania","lat":40.25388,"lng":-76.92733,"zip":"17089","miles_from_dt":27.43},{"city":"Rebersburg","state_name":"Pennsylvania","lat":40.96715,"lng":-77.35939,"zip":"16872","miles_from_dt":27.47},{"city":"Dornsife","state_name":"Pennsylvania","lat":40.72099,"lng":-76.72541,"zip":"17823","miles_from_dt":27.5},{"city":"Harrisburg","state_name":"Pennsylvania","lat":40.37497,"lng":-76.77163,"zip":"17112","miles_from_dt":27.54},{"city":"Mattawana","state_name":"Pennsylvania","lat":40.49746,"lng":-77.72764,"zip":"17054","miles_from_dt":27.55},{"city":"Harrisburg","state_name":"Pennsylvania","lat":40.27314,"lng":-76.88885,"zip":"17130","miles_from_dt":27.56},{"city":"Carlisle","state_name":"Pennsylvania","lat":40.18392,"lng":-77.23234,"zip":"17015","miles_from_dt":27.63},{"city":"New Germantown","state_name":"Pennsylvania","lat":40.30061,"lng":-77.58928,"zip":"17071","miles_from_dt":27.72},{"city":"Shamokin Dam","state_name":"Pennsylvania","lat":40.85571,"lng":-76.82319,"zip":"17876","miles_from_dt":27.9},{"city":"Harrisburg","state_name":"Pennsylvania","lat":40.26844,"lng":-76.88326,"zip":"17121","miles_from_dt":28},{"city":"Harrisburg","state_name":"Pennsylvania","lat":40.26601,"lng":-76.88167,"zip":"17124","miles_from_dt":28.18},{"city":"Harrisburg","state_name":"Pennsylvania","lat":40.26511,"lng":-76.88281,"zip":"17120","miles_from_dt":28.19},{"city":"Harrisburg","state_name":"Pennsylvania","lat":40.26617,"lng":-76.88091,"zip":"17125","miles_from_dt":28.2},{"city":"Harrisburg","state_name":"Pennsylvania","lat":40.26596,"lng":-76.88045,"zip":"17123","miles_from_dt":28.22},{"city":"Harrisburg","state_name":"Pennsylvania","lat":40.26393,"lng":-76.8834,"zip":"17128","miles_from_dt":28.24},{"city":"Harrisburg","state_name":"Pennsylvania","lat":40.26319,"lng":-76.88269,"zip":"17129","miles_from_dt":28.3},{"city":"Harrisburg","state_name":"Pennsylvania","lat":40.27499,"lng":-76.86326,"zip":"17103","miles_from_dt":28.33},{"city":"Harrisburg","state_name":"Pennsylvania","lat":40.26329,"lng":-76.8816,"zip":"17122","miles_from_dt":28.33},{"city":"Harrisburg","state_name":"Pennsylvania","lat":40.2595,"lng":-76.88705,"zip":"17101","miles_from_dt":28.36},{"city":"Wiconisco","state_name":"Pennsylvania","lat":40.57414,"lng":-76.67704,"zip":"17097","miles_from_dt":28.41},{"city":"Harrisburg","state_name":"Pennsylvania","lat":40.26109,"lng":-76.88275,"zip":"17108","miles_from_dt":28.41},{"city":"Camp Hill","state_name":"Pennsylvania","lat":40.24001,"lng":-76.92002,"zip":"17001","miles_from_dt":28.44},{"city":"Camp Hill","state_name":"Pennsylvania","lat":40.23508,"lng":-76.92931,"zip":"17011","miles_from_dt":28.46},{"city":"Harrisburg","state_name":"Pennsylvania","lat":40.26177,"lng":-76.8799,"zip":"17126","miles_from_dt":28.47},{"city":"Harrisburg","state_name":"Pennsylvania","lat":40.26328,"lng":-76.87698,"zip":"17127","miles_from_dt":28.48},{"city":"Harrisburg","state_name":"Pennsylvania","lat":40.26258,"lng":-76.87617,"zip":"17105","miles_from_dt":28.55},{"city":"Lemoyne","state_name":"Pennsylvania","lat":40.24679,"lng":-76.90033,"zip":"17043","miles_from_dt":28.64},{"city":"East Waterford","state_name":"Pennsylvania","lat":40.33758,"lng":-77.66093,"zip":"17021","miles_from_dt":28.94},{"city":"Harrisburg","state_name":"Pennsylvania","lat":40.28986,"lng":-76.82414,"zip":"17109","miles_from_dt":29},{"city":"Rebuck","state_name":"Pennsylvania","lat":40.71464,"lng":-76.69025,"zip":"17867","miles_from_dt":29.1},{"city":"Centre Hall","state_name":"Pennsylvania","lat":40.80704,"lng":-77.69097,"zip":"16828","miles_from_dt":29.27},{"city":"Harrisburg","state_name":"Pennsylvania","lat":40.29036,"lng":-76.81259,"zip":"17177","miles_from_dt":29.41},{"city":"Madisonburg","state_name":"Pennsylvania","lat":40.93639,"lng":-77.5386,"zip":"16852","miles_from_dt":29.6},{"city":"Newville","state_name":"Pennsylvania","lat":40.17793,"lng":-77.40326,"zip":"17241","miles_from_dt":29.7},{"city":"Sunbury","state_name":"Pennsylvania","lat":40.83669,"lng":-76.75762,"zip":"17801","miles_from_dt":29.75},{"city":"Spring Glen","state_name":"Pennsylvania","lat":40.6165,"lng":-76.65219,"zip":"17978","miles_from_dt":29.78}],"targetCityZipCode":"17094","targetCityState":"Pennsylvania"},"__N_SSG":true}