{"pageProps":{"stateName":"California","cityName":"ferndale","nearbyCities":[{"city":"Fortuna","state_name":"California","lat":40.56671,"lng":-124.12651,"zip":"95540","miles_from_dt":8.27},{"city":"Rio Dell","state_name":"California","lat":40.45808,"lng":-124.1072,"zip":"95562","miles_from_dt":9.09},{"city":"Hydesville","state_name":"California","lat":40.56952,"lng":-124.07751,"zip":"95547","miles_from_dt":10.69},{"city":"Loleta","state_name":"California","lat":40.66977,"lng":-124.21961,"zip":"95551","miles_from_dt":11.24},{"city":"Petrolia","state_name":"California","lat":40.32673,"lng":-124.24017,"zip":"95558","miles_from_dt":12.76},{"city":"Scotia","state_name":"California","lat":40.45723,"lng":-124.01099,"zip":"95565","miles_from_dt":13.91},{"city":"Fields Landing","state_name":"California","lat":40.745,"lng":-124.21472,"zip":"95537","miles_from_dt":16.39},{"city":"Eureka","state_name":"California","lat":40.72406,"lng":-124.09178,"zip":"95503","miles_from_dt":17.33},{"city":"Carlotta","state_name":"California","lat":40.4936,"lng":-123.92393,"zip":"95528","miles_from_dt":18.03},{"city":"Eureka","state_name":"California","lat":40.78602,"lng":-124.19216,"zip":"95502","miles_from_dt":19.38},{"city":"Samoa","state_name":"California","lat":40.79023,"lng":-124.20312,"zip":"95564","miles_from_dt":19.57},{"city":"Honeydew","state_name":"California","lat":40.26159,"lng":-124.08599,"zip":"95545","miles_from_dt":19.62},{"city":"Weott","state_name":"California","lat":40.36495,"lng":-123.94157,"zip":"95571","miles_from_dt":19.82},{"city":"Cutten","state_name":"California","lat":40.79324,"lng":-124.15814,"zip":"95534","miles_from_dt":20.3},{"city":"Eureka","state_name":"California","lat":40.80435,"lng":-124.14034,"zip":"95501","miles_from_dt":21.3},{"city":"Kneeland","state_name":"California","lat":40.65838,"lng":-123.89485,"zip":"95549","miles_from_dt":22},{"city":"Redcrest","state_name":"California","lat":40.36078,"lng":-123.85818,"zip":"95569","miles_from_dt":23.83},{"city":"Bayside","state_name":"California","lat":40.82346,"lng":-124.05271,"zip":"95524","miles_from_dt":24.3},{"city":"Arcata","state_name":"California","lat":40.84586,"lng":-124.04745,"zip":"95521","miles_from_dt":25.81},{"city":"Arcata","state_name":"California","lat":40.86611,"lng":-124.08079,"zip":"95518","miles_from_dt":26.37},{"city":"Miranda","state_name":"California","lat":40.22981,"lng":-123.87133,"zip":"95553","miles_from_dt":28.43},{"city":"Korbel","state_name":"California","lat":40.77695,"lng":-123.82951,"zip":"95550","miles_from_dt":29.37}],"targetCityZipCode":"95536","targetCityState":"California"},"__N_SSG":true}