{"pageProps":{"stateName":"California","cityName":"livingston","nearbyCities":[{"city":"Delhi","state_name":"California","lat":37.42243,"lng":-120.7733,"zip":"95315","miles_from_dt":5.37},{"city":"Atwater","state_name":"California","lat":37.30634,"lng":-120.65119,"zip":"95301","miles_from_dt":5.96},{"city":"Stevinson","state_name":"California","lat":37.31636,"lng":-120.85683,"zip":"95374","miles_from_dt":6.46},{"city":"Cressey","state_name":"California","lat":37.42107,"lng":-120.65295,"zip":"95312","miles_from_dt":7.21},{"city":"Merced","state_name":"California","lat":37.37775,"lng":-120.61376,"zip":"95344","miles_from_dt":7.58},{"city":"Hilmar","state_name":"California","lat":37.39452,"lng":-120.89605,"zip":"95324","miles_from_dt":8.86},{"city":"Ballico","state_name":"California","lat":37.4714,"lng":-120.67744,"zip":"95303","miles_from_dt":9.34},{"city":"Winton","state_name":"California","lat":37.42171,"lng":-120.59715,"zip":"95388","miles_from_dt":9.67},{"city":"Turlock","state_name":"California","lat":37.47226,"lng":-120.86978,"zip":"95380","miles_from_dt":10.96},{"city":"Turlock","state_name":"California","lat":37.4964,"lng":-120.85868,"zip":"95381","miles_from_dt":11.98},{"city":"Turlock","state_name":"California","lat":37.52831,"lng":-120.85214,"zip":"95382","miles_from_dt":13.76},{"city":"Denair","state_name":"California","lat":37.54613,"lng":-120.69212,"zip":"95316","miles_from_dt":14.01},{"city":"Merced","state_name":"California","lat":37.41525,"lng":-120.4979,"zip":"95348","miles_from_dt":14.44},{"city":"Merced","state_name":"California","lat":37.2937,"lng":-120.48784,"zip":"95343","miles_from_dt":14.71},{"city":"Merced","state_name":"California","lat":37.23037,"lng":-120.50715,"zip":"95341","miles_from_dt":15.46},{"city":"Newman","state_name":"California","lat":37.32918,"lng":-121.03827,"zip":"95360","miles_from_dt":16.13},{"city":"Keyes","state_name":"California","lat":37.55797,"lng":-120.90932,"zip":"95328","miles_from_dt":17.06},{"city":"Crows Landing","state_name":"California","lat":37.43511,"lng":-121.03769,"zip":"95313","miles_from_dt":17.14},{"city":"Hughson","state_name":"California","lat":37.58998,"lng":-120.8531,"zip":"95326","miles_from_dt":17.72},{"city":"Hickman","state_name":"California","lat":37.60881,"lng":-120.68464,"zip":"95323","miles_from_dt":18.33},{"city":"Ceres","state_name":"California","lat":37.55582,"lng":-120.95385,"zip":"95307","miles_from_dt":18.35},{"city":"Santa Rita Park","state_name":"California","lat":37.10867,"lng":-120.59745,"zip":"93661","miles_from_dt":18.4},{"city":"Merced","state_name":"California","lat":37.34128,"lng":-120.40658,"zip":"95340","miles_from_dt":18.71},{"city":"Gustine","state_name":"California","lat":37.17622,"lng":-121.01861,"zip":"95322","miles_from_dt":19.1},{"city":"El Nido","state_name":"California","lat":37.12947,"lng":-120.5074,"zip":"95317","miles_from_dt":19.99},{"city":"Empire","state_name":"California","lat":37.6309,"lng":-120.87728,"zip":"95319","miles_from_dt":20.82},{"city":"Dos Palos","state_name":"California","lat":37.0448,"lng":-120.6223,"zip":"93620","miles_from_dt":21.97},{"city":"Snelling","state_name":"California","lat":37.52435,"lng":-120.41301,"zip":"95369","miles_from_dt":22.01},{"city":"Planada","state_name":"California","lat":37.3012,"lng":-120.33152,"zip":"95365","miles_from_dt":23.06},{"city":"Modesto","state_name":"California","lat":37.63849,"lng":-120.96428,"zip":"95354","miles_from_dt":23.37},{"city":"Waterford","state_name":"California","lat":37.67391,"lng":-120.63045,"zip":"95386","miles_from_dt":23.39},{"city":"Modesto","state_name":"California","lat":37.66985,"lng":-120.87924,"zip":"95357","miles_from_dt":23.4},{"city":"Modesto","state_name":"California","lat":37.6236,"lng":-120.99828,"zip":"95351","miles_from_dt":23.54},{"city":"Los Banos","state_name":"California","lat":37.016,"lng":-120.88294,"zip":"93635","miles_from_dt":24.08},{"city":"Modesto","state_name":"California","lat":37.66541,"lng":-120.94414,"zip":"95353","miles_from_dt":24.47},{"city":"Modesto","state_name":"California","lat":37.6727,"lng":-120.94717,"zip":"95355","miles_from_dt":24.99},{"city":"Modesto","state_name":"California","lat":37.66077,"lng":-120.99343,"zip":"95397","miles_from_dt":25.52},{"city":"Modesto","state_name":"California","lat":37.66337,"lng":-120.99458,"zip":"95352","miles_from_dt":25.7},{"city":"Modesto","state_name":"California","lat":37.67175,"lng":-121.00732,"zip":"95350","miles_from_dt":26.56},{"city":"Modesto","state_name":"California","lat":37.61578,"lng":-121.10059,"zip":"95358","miles_from_dt":26.86},{"city":"South Dos Palos","state_name":"California","lat":36.96334,"lng":-120.65034,"zip":"93665","miles_from_dt":27.02},{"city":"Le Grand","state_name":"California","lat":37.2447,"lng":-120.24277,"zip":"95333","miles_from_dt":28.63},{"city":"Riverbank","state_name":"California","lat":37.73089,"lng":-120.94669,"zip":"95367","miles_from_dt":28.64},{"city":"Patterson","state_name":"California","lat":37.37251,"lng":-121.27192,"zip":"95363","miles_from_dt":28.99},{"city":"La Grange","state_name":"California","lat":37.67726,"lng":-120.41363,"zip":"95329","miles_from_dt":29.17},{"city":"Hornitos","state_name":"California","lat":37.48058,"lng":-120.24208,"zip":"95325","miles_from_dt":29.21},{"city":"Modesto","state_name":"California","lat":37.71945,"lng":-121.02786,"zip":"95356","miles_from_dt":29.95}],"targetCityZipCode":"95334","targetCityState":"California"},"__N_SSG":true}