{"pageProps":{"stateName":"California","cityName":"orleans","nearbyCities":[{"city":"Hoopa","state_name":"California","lat":41.18777,"lng":-123.74535,"zip":"95546","miles_from_dt":11.9},{"city":"Somes Bar","state_name":"California","lat":41.48454,"lng":-123.48543,"zip":"95568","miles_from_dt":12.94},{"city":"Orick","state_name":"California","lat":41.29519,"lng":-123.97774,"zip":"95555","miles_from_dt":20.2},{"city":"Forks Of Salmon","state_name":"California","lat":41.17262,"lng":-123.18029,"zip":"96031","miles_from_dt":23.5},{"city":"Happy Camp","state_name":"California","lat":41.66376,"lng":-123.37711,"zip":"96039","miles_from_dt":26.53},{"city":"Etna","state_name":"California","lat":41.36558,"lng":-123.07799,"zip":"96027","miles_from_dt":26.88},{"city":"Burnt Ranch","state_name":"California","lat":40.93593,"lng":-123.41966,"zip":"95527","miles_from_dt":27.6},{"city":"Blue Lake","state_name":"California","lat":40.94845,"lng":-123.82629,"zip":"95525","miles_from_dt":28.09},{"city":"Trinidad","state_name":"California","lat":41.11375,"lng":-124.08037,"zip":"95570","miles_from_dt":29.04},{"city":"Willow Creek","state_name":"California","lat":40.89567,"lng":-123.65873,"zip":"95573","miles_from_dt":29.12}],"targetCityZipCode":"95556","targetCityState":"California"},"__N_SSG":true}