{"pageProps":{"stateName":"Maine","cityName":"bridgewater","nearbyCities":[{"city":"Monticello","state_name":"Maine","lat":46.32354,"lng":-67.90928,"zip":"04760","miles_from_dt":6.94},{"city":"Blaine","state_name":"Maine","lat":46.48479,"lng":-67.91955,"zip":"04734","miles_from_dt":8.88},{"city":"Westfield","state_name":"Maine","lat":46.55166,"lng":-67.97685,"zip":"04787","miles_from_dt":12.06},{"city":"Mars Hill","state_name":"Maine","lat":46.55426,"lng":-67.84732,"zip":"04758","miles_from_dt":14.78},{"city":"Oxbow","state_name":"Maine","lat":46.36843,"lng":-68.34229,"zip":"04764","miles_from_dt":15.02},{"city":"Mapleton","state_name":"Maine","lat":46.6141,"lng":-68.18278,"zip":"04757","miles_from_dt":17.72},{"city":"New Limerick","state_name":"Maine","lat":46.11857,"lng":-67.97183,"zip":"04761","miles_from_dt":18.31},{"city":"Houlton","state_name":"Maine","lat":46.12574,"lng":-67.91471,"zip":"04730","miles_from_dt":18.44},{"city":"Smyrna Mills","state_name":"Maine","lat":46.1677,"lng":-68.26924,"zip":"04780","miles_from_dt":18.69},{"city":"Easton","state_name":"Maine","lat":46.64325,"lng":-67.85487,"zip":"04740","miles_from_dt":19.94},{"city":"Oakfield","state_name":"Maine","lat":46.08068,"lng":-68.10371,"zip":"04763","miles_from_dt":21.03},{"city":"Presque Isle","state_name":"Maine","lat":46.68676,"lng":-67.98737,"zip":"04769","miles_from_dt":21.23},{"city":"Ashland","state_name":"Maine","lat":46.56679,"lng":-68.49326,"zip":"04732","miles_from_dt":25.63},{"city":"Sheridan","state_name":"Maine","lat":46.65689,"lng":-68.4053,"zip":"04775","miles_from_dt":26.2},{"city":"Crouseville","state_name":"Maine","lat":46.75854,"lng":-68.09583,"zip":"04738","miles_from_dt":26.29},{"city":"Fort Fairfield","state_name":"Maine","lat":46.77766,"lng":-67.85526,"zip":"04742","miles_from_dt":28.63},{"city":"Washburn","state_name":"Maine","lat":46.79207,"lng":-68.17878,"zip":"04786","miles_from_dt":29.3}],"targetCityZipCode":"04735","targetCityState":"Maine"},"__N_SSG":true}