{"pageProps":{"stateName":"South-carolina","cityName":"abbeville","nearbyCities":[{"city":"Due West","state_name":"South Carolina","lat":34.31402,"lng":-82.4205,"zip":"29639","miles_from_dt":9.16},{"city":"Calhoun Falls","state_name":"South Carolina","lat":34.09253,"lng":-82.55821,"zip":"29628","miles_from_dt":9.65},{"city":"Lowndesville","state_name":"South Carolina","lat":34.21167,"lng":-82.64535,"zip":"29659","miles_from_dt":12.62},{"city":"Hodges","state_name":"South Carolina","lat":34.28745,"lng":-82.24521,"zip":"29695","miles_from_dt":12.77},{"city":"Donalds","state_name":"South Carolina","lat":34.36087,"lng":-82.3346,"zip":"29638","miles_from_dt":13.48},{"city":"Iva","state_name":"South Carolina","lat":34.267,"lng":-82.64032,"zip":"29655","miles_from_dt":13.51},{"city":"Mount Carmel","state_name":"South Carolina","lat":33.99797,"lng":-82.52749,"zip":"29840","miles_from_dt":13.86},{"city":"Hodges","state_name":"South Carolina","lat":34.30028,"lng":-82.23173,"zip":"29653","miles_from_dt":13.91},{"city":"Bradley","state_name":"South Carolina","lat":34.04764,"lng":-82.22632,"zip":"29819","miles_from_dt":14.79},{"city":"Greenwood","state_name":"South Carolina","lat":34.18915,"lng":-82.15613,"zip":"29648","miles_from_dt":15.58},{"city":"Greenwood","state_name":"South Carolina","lat":34.18975,"lng":-82.15384,"zip":"29647","miles_from_dt":15.72},{"city":"Greenwood","state_name":"South Carolina","lat":34.13995,"lng":-82.15032,"zip":"29646","miles_from_dt":16.17},{"city":"Greenwood","state_name":"South Carolina","lat":34.24354,"lng":-82.13825,"zip":"29649","miles_from_dt":17.14},{"city":"Troy","state_name":"South Carolina","lat":33.99616,"lng":-82.18304,"zip":"29848","miles_from_dt":18.98},{"city":"McCormick","state_name":"South Carolina","lat":33.91779,"lng":-82.29559,"zip":"29835","miles_from_dt":19.69},{"city":"Honea Path","state_name":"South Carolina","lat":34.46621,"lng":-82.36354,"zip":"29654","miles_from_dt":19.98},{"city":"McCormick","state_name":"South Carolina","lat":33.92801,"lng":-82.25064,"zip":"29899","miles_from_dt":20.21},{"city":"Ware Shoals","state_name":"South Carolina","lat":34.42142,"lng":-82.22208,"zip":"29692","miles_from_dt":20.32},{"city":"Anderson","state_name":"South Carolina","lat":34.43778,"lng":-82.62553,"zip":"29624","miles_from_dt":20.98},{"city":"Starr","state_name":"South Carolina","lat":34.3791,"lng":-82.72722,"zip":"29684","miles_from_dt":21.88},{"city":"Elberton","state_name":"Georgia","lat":34.10346,"lng":-82.80145,"zip":"30635","miles_from_dt":22.06},{"city":"Waterloo","state_name":"South Carolina","lat":34.33976,"lng":-82.0904,"zip":"29384","miles_from_dt":22.2},{"city":"Belton","state_name":"South Carolina","lat":34.51807,"lng":-82.47861,"zip":"29627","miles_from_dt":23.39},{"city":"Tignall","state_name":"Georgia","lat":33.90835,"lng":-82.69486,"zip":"30668","miles_from_dt":24.25},{"city":"Anderson","state_name":"South Carolina","lat":34.50598,"lng":-82.60328,"zip":"29621","miles_from_dt":24.52},{"city":"Ninety Six","state_name":"South Carolina","lat":34.12345,"lng":-81.99121,"zip":"29666","miles_from_dt":25.35},{"city":"Anderson","state_name":"South Carolina","lat":34.49972,"lng":-82.66071,"zip":"29622","miles_from_dt":25.66},{"city":"Cross Hill","state_name":"South Carolina","lat":34.28329,"lng":-81.97292,"zip":"29332","miles_from_dt":26.99},{"city":"Anderson","state_name":"South Carolina","lat":34.46004,"lng":-82.76057,"zip":"29626","miles_from_dt":27.03},{"city":"Plum Branch","state_name":"South Carolina","lat":33.8231,"lng":-82.20788,"zip":"29845","miles_from_dt":27.74},{"city":"Lincolnton","state_name":"Georgia","lat":33.7746,"lng":-82.43469,"zip":"30817","miles_from_dt":28.03},{"city":"Anderson","state_name":"South Carolina","lat":34.51984,"lng":-82.71706,"zip":"29623","miles_from_dt":28.59},{"city":"Mountville","state_name":"South Carolina","lat":34.37315,"lng":-81.96816,"zip":"29370","miles_from_dt":29.45},{"city":"Dewy Rose","state_name":"Georgia","lat":34.20307,"lng":-82.94522,"zip":"30634","miles_from_dt":29.66},{"city":"Parksville","state_name":"South Carolina","lat":33.78528,"lng":-82.2142,"zip":"29844","miles_from_dt":29.93}],"targetCityZipCode":"29620","targetCityState":"South Carolina"},"__N_SSG":true}