{"pageProps":{"stateName":"Texas","cityName":"cee-vee","nearbyCities":[{"city":"Tell","state_name":"Texas","lat":34.36243,"lng":-100.45594,"zip":"79259","miles_from_dt":9.12},{"city":"Childress","state_name":"Texas","lat":34.4101,"lng":-100.33521,"zip":"79201","miles_from_dt":14.85},{"city":"Estelline","state_name":"Texas","lat":34.50195,"lng":-100.49165,"zip":"79233","miles_from_dt":18.64},{"city":"Matador","state_name":"Texas","lat":34.0383,"lng":-100.8059,"zip":"79244","miles_from_dt":22.91},{"city":"Paducah","state_name":"Texas","lat":33.94146,"lng":-100.22159,"zip":"79248","miles_from_dt":24.92},{"city":"Turkey","state_name":"Texas","lat":34.45525,"lng":-100.86876,"zip":"79261","miles_from_dt":27.01},{"city":"Flomot","state_name":"Texas","lat":34.22108,"lng":-100.95509,"zip":"79234","miles_from_dt":27.16}],"targetCityZipCode":"79223","targetCityState":"Texas"},"__N_SSG":true}