{"pageProps":{"stateName":"Texas","cityName":"cherokee","nearbyCities":[{"city":"Valley Spring","state_name":"Texas","lat":30.87304,"lng":-98.85742,"zip":"76885","miles_from_dt":9.73},{"city":"San Saba","state_name":"Texas","lat":31.15807,"lng":-98.75361,"zip":"76877","miles_from_dt":12.64},{"city":"Pontotoc","state_name":"Texas","lat":30.90951,"lng":-98.97464,"zip":"76869","miles_from_dt":14.43},{"city":"Tow","state_name":"Texas","lat":30.88151,"lng":-98.49128,"zip":"78672","miles_from_dt":16.32},{"city":"Bend","state_name":"Texas","lat":30.9411,"lng":-98.46339,"zip":"76824","miles_from_dt":16.81},{"city":"Bluffton","state_name":"Texas","lat":30.81961,"lng":-98.488,"zip":"78607","miles_from_dt":18.58},{"city":"Castell","state_name":"Texas","lat":30.74599,"lng":-98.95543,"zip":"76831","miles_from_dt":20.17},{"city":"Llano","state_name":"Texas","lat":30.68161,"lng":-98.71281,"zip":"78643","miles_from_dt":20.29},{"city":"Fredonia","state_name":"Texas","lat":30.91888,"lng":-99.1023,"zip":"76842","miles_from_dt":21.63},{"city":"Art","state_name":"Texas","lat":30.79295,"lng":-99.04508,"zip":"76820","miles_from_dt":21.85},{"city":"Buchanan Dam","state_name":"Texas","lat":30.75975,"lng":-98.45271,"zip":"78609","miles_from_dt":22.78},{"city":"Voca","state_name":"Texas","lat":31.02696,"lng":-99.15806,"zip":"76887","miles_from_dt":24.84},{"city":"Richland Springs","state_name":"Texas","lat":31.27333,"lng":-98.995,"zip":"76871","miles_from_dt":25.39},{"city":"Kingsland","state_name":"Texas","lat":30.65823,"lng":-98.45506,"zip":"78639","miles_from_dt":27.76},{"city":"Lometa","state_name":"Texas","lat":31.24774,"lng":-98.39047,"zip":"76853","miles_from_dt":28.15}],"targetCityZipCode":"76832","targetCityState":"Texas"},"__N_SSG":true}