{"pageProps":{"stateName":"Texas","cityName":"cisco","nearbyCities":[{"city":"Putnam","state_name":"Texas","lat":32.34696,"lng":-99.21707,"zip":"76469","miles_from_dt":11.9},{"city":"Eastland","state_name":"Texas","lat":32.39257,"lng":-98.79541,"zip":"76448","miles_from_dt":13.1},{"city":"Moran","state_name":"Texas","lat":32.57554,"lng":-99.1542,"zip":"76464","miles_from_dt":15.13},{"city":"Carbon","state_name":"Texas","lat":32.21754,"lng":-98.85349,"zip":"76435","miles_from_dt":15.24},{"city":"Olden","state_name":"Texas","lat":32.42887,"lng":-98.7332,"zip":"76466","miles_from_dt":16.96},{"city":"Rising Star","state_name":"Texas","lat":32.11117,"lng":-98.98499,"zip":"76471","miles_from_dt":19.18},{"city":"Baird","state_name":"Texas","lat":32.31336,"lng":-99.35271,"zip":"79504","miles_from_dt":20.17},{"city":"Cross Plains","state_name":"Texas","lat":32.11907,"lng":-99.20174,"zip":"76443","miles_from_dt":21.39},{"city":"Gorman","state_name":"Texas","lat":32.22983,"lng":-98.69621,"zip":"76454","miles_from_dt":21.83},{"city":"Ranger","state_name":"Texas","lat":32.49977,"lng":-98.6686,"zip":"76470","miles_from_dt":21.89},{"city":"Desdemona","state_name":"Texas","lat":32.30318,"lng":-98.53829,"zip":"76445","miles_from_dt":28.74},{"city":"Breckenridge","state_name":"Texas","lat":32.80431,"lng":-98.89236,"zip":"76424","miles_from_dt":29.63}],"targetCityZipCode":"76437","targetCityState":"Texas"},"__N_SSG":true}