{"pageProps":{"stateName":"Texas","cityName":"colmesneil","nearbyCities":[{"city":"Doucette","state_name":"Texas","lat":30.82567,"lng":-94.41657,"zip":"75942","miles_from_dt":8.31},{"city":"Woodville","state_name":"Texas","lat":30.77477,"lng":-94.4026,"zip":"75979","miles_from_dt":11.34},{"city":"Woodville","state_name":"Texas","lat":30.77396,"lng":-94.42353,"zip":"75990","miles_from_dt":11.76},{"city":"Zavalla","state_name":"Texas","lat":31.12387,"lng":-94.34703,"zip":"75980","miles_from_dt":13.07},{"city":"Chester","state_name":"Texas","lat":30.95147,"lng":-94.58883,"zip":"75936","miles_from_dt":13.87},{"city":"Hillister","state_name":"Texas","lat":30.68674,"lng":-94.2822,"zip":"77624","miles_from_dt":17.61},{"city":"Jasper","state_name":"Texas","lat":30.93098,"lng":-94.05762,"zip":"75951","miles_from_dt":17.72},{"city":"Huntington","state_name":"Texas","lat":31.22907,"lng":-94.51782,"zip":"75949","miles_from_dt":22.45},{"city":"Broaddus","state_name":"Texas","lat":31.23579,"lng":-94.19735,"zip":"75929","miles_from_dt":22.8},{"city":"Camden","state_name":"Texas","lat":30.89688,"lng":-94.75153,"zip":"75934","miles_from_dt":23.63},{"city":"Warren","state_name":"Texas","lat":30.58901,"lng":-94.39529,"zip":"77664","miles_from_dt":23.9},{"city":"Spurger","state_name":"Texas","lat":30.63993,"lng":-94.14105,"zip":"77660","miles_from_dt":23.98},{"city":"Brookeland","state_name":"Texas","lat":31.09978,"lng":-93.98953,"zip":"75931","miles_from_dt":24.55},{"city":"Fred","state_name":"Texas","lat":30.56804,"lng":-94.2117,"zip":"77616","miles_from_dt":26.66},{"city":"Dallardsville","state_name":"Texas","lat":30.6262,"lng":-94.63094,"zip":"77332","miles_from_dt":26.8},{"city":"Corrigan","state_name":"Texas","lat":31.01496,"lng":-94.80501,"zip":"75939","miles_from_dt":27.22},{"city":"Etoile","state_name":"Texas","lat":31.34514,"lng":-94.38636,"zip":"75944","miles_from_dt":28.36},{"city":"Kirbyville","state_name":"Texas","lat":30.6721,"lng":-93.96706,"zip":"75956","miles_from_dt":29.35},{"city":"Village Mills","state_name":"Texas","lat":30.51033,"lng":-94.4052,"zip":"77663","miles_from_dt":29.36},{"city":"Diboll","state_name":"Texas","lat":31.18078,"lng":-94.76219,"zip":"75941","miles_from_dt":29.47}],"targetCityZipCode":"75938","targetCityState":"Texas"},"__N_SSG":true}