{"pageProps":{"stateName":"Texas","cityName":"cunningham","nearbyCities":[{"city":"Sulphur Bluff","state_name":"Texas","lat":33.31751,"lng":-95.37485,"zip":"75481","miles_from_dt":6.69},{"city":"Deport","state_name":"Texas","lat":33.50175,"lng":-95.29522,"zip":"75435","miles_from_dt":6.96},{"city":"Lake Creek","state_name":"Texas","lat":33.40465,"lng":-95.47481,"zip":"75450","miles_from_dt":7.14},{"city":"Pattonville","state_name":"Texas","lat":33.51175,"lng":-95.40747,"zip":"75468","miles_from_dt":7.56},{"city":"Talco","state_name":"Texas","lat":33.33584,"lng":-95.16567,"zip":"75487","miles_from_dt":11.99},{"city":"Dike","state_name":"Texas","lat":33.25605,"lng":-95.46567,"zip":"75437","miles_from_dt":12.64},{"city":"Bogata","state_name":"Texas","lat":33.43827,"lng":-95.13114,"zip":"75417","miles_from_dt":12.87},{"city":"Paris","state_name":"Texas","lat":33.62166,"lng":-95.48362,"zip":"75462","miles_from_dt":16.3},{"city":"Saltillo","state_name":"Texas","lat":33.17276,"lng":-95.35226,"zip":"75478","miles_from_dt":16.53},{"city":"Enloe","state_name":"Texas","lat":33.4296,"lng":-95.65456,"zip":"75441","miles_from_dt":17.54},{"city":"Blossom","state_name":"Texas","lat":33.67255,"lng":-95.35431,"zip":"75416","miles_from_dt":17.92},{"city":"Mount Vernon","state_name":"Texas","lat":33.1746,"lng":-95.21125,"zip":"75457","miles_from_dt":18.3},{"city":"Cooper","state_name":"Texas","lat":33.38912,"lng":-95.66804,"zip":"75432","miles_from_dt":18.36},{"city":"Paris","state_name":"Texas","lat":33.66182,"lng":-95.55245,"zip":"75461","miles_from_dt":20.72},{"city":"Sulphur Springs","state_name":"Texas","lat":33.16929,"lng":-95.60946,"zip":"75482","miles_from_dt":22.44},{"city":"Paris","state_name":"Texas","lat":33.6627,"lng":-95.60296,"zip":"75460","miles_from_dt":22.53},{"city":"Detroit","state_name":"Texas","lat":33.73507,"lng":-95.24904,"zip":"75436","miles_from_dt":23},{"city":"Ben Franklin","state_name":"Texas","lat":33.4645,"lng":-95.74603,"zip":"75415","miles_from_dt":23.06},{"city":"Winfield","state_name":"Texas","lat":33.14073,"lng":-95.11316,"zip":"75493","miles_from_dt":23.27},{"city":"Sulphur Springs","state_name":"Texas","lat":33.14222,"lng":-95.59786,"zip":"75483","miles_from_dt":23.46},{"city":"Roxton","state_name":"Texas","lat":33.53118,"lng":-95.73429,"zip":"75477","miles_from_dt":23.56},{"city":"Mount Pleasant","state_name":"Texas","lat":33.21725,"lng":-94.98022,"zip":"75455","miles_from_dt":25.36},{"city":"Pickton","state_name":"Texas","lat":33.04431,"lng":-95.38883,"zip":"75471","miles_from_dt":25.47},{"city":"Clarksville","state_name":"Texas","lat":33.65608,"lng":-95.01093,"zip":"75426","miles_from_dt":25.85},{"city":"Brookston","state_name":"Texas","lat":33.6448,"lng":-95.71809,"zip":"75421","miles_from_dt":26.52},{"city":"Klondike","state_name":"Texas","lat":33.31478,"lng":-95.79681,"zip":"75448","miles_from_dt":26.61},{"city":"Pecan Gap","state_name":"Texas","lat":33.41269,"lng":-95.8248,"zip":"75469","miles_from_dt":27.34},{"city":"Annona","state_name":"Texas","lat":33.49966,"lng":-94.88454,"zip":"75550","miles_from_dt":27.65},{"city":"Mount Pleasant","state_name":"Texas","lat":33.15819,"lng":-94.96805,"zip":"75456","miles_from_dt":28.29},{"city":"Petty","state_name":"Texas","lat":33.58341,"lng":-95.79836,"zip":"75470","miles_from_dt":28.35},{"city":"Scroggins","state_name":"Texas","lat":33.02129,"lng":-95.19159,"zip":"75480","miles_from_dt":28.52},{"city":"Como","state_name":"Texas","lat":33.0073,"lng":-95.4628,"zip":"75431","miles_from_dt":28.66},{"city":"Powderly","state_name":"Texas","lat":33.81461,"lng":-95.48433,"zip":"75473","miles_from_dt":28.74},{"city":"Bagwell","state_name":"Texas","lat":33.80295,"lng":-95.14232,"zip":"75412","miles_from_dt":29.49}],"targetCityZipCode":"75434","targetCityState":"Texas"},"__N_SSG":true}