{"pageProps":{"stateName":"Texas","cityName":"dumas","nearbyCities":[{"city":"Cactus","state_name":"Texas","lat":36.04183,"lng":-101.99335,"zip":"79013","miles_from_dt":10.29},{"city":"Hartley","state_name":"Texas","lat":35.87456,"lng":-102.37903,"zip":"79044","miles_from_dt":19.77},{"city":"Masterson","state_name":"Texas","lat":35.59509,"lng":-101.94925,"zip":"79058","miles_from_dt":21.15},{"city":"Sunray","state_name":"Texas","lat":36.13538,"lng":-101.79255,"zip":"79086","miles_from_dt":21.16},{"city":"Channing","state_name":"Texas","lat":35.69322,"lng":-102.33767,"zip":"79018","miles_from_dt":22.3},{"city":"Stratford","state_name":"Texas","lat":36.25502,"lng":-102.01825,"zip":"79084","miles_from_dt":24.82},{"city":"Stinnett","state_name":"Texas","lat":35.87359,"lng":-101.51422,"zip":"79083","miles_from_dt":28.84},{"city":"Morse","state_name":"Texas","lat":35.99616,"lng":-101.52733,"zip":"79062","miles_from_dt":28.9}],"targetCityZipCode":"79029","targetCityState":"Texas"},"__N_SSG":true}