{"pageProps":{"stateName":"Texas","cityName":"grapeland","nearbyCities":[{"city":"Latexo","state_name":"Texas","lat":31.39624,"lng":-95.47618,"zip":"75849","miles_from_dt":8.82},{"city":"Elkhart","state_name":"Texas","lat":31.6181,"lng":-95.55738,"zip":"75839","miles_from_dt":9.93},{"city":"Crockett","state_name":"Texas","lat":31.29758,"lng":-95.48834,"zip":"75835","miles_from_dt":15.59},{"city":"Palestine","state_name":"Texas","lat":31.74004,"lng":-95.55116,"zip":"75801","miles_from_dt":16.69},{"city":"Ratcliff","state_name":"Texas","lat":31.38083,"lng":-95.13676,"zip":"75858","miles_from_dt":20.02},{"city":"Palestine","state_name":"Texas","lat":31.76116,"lng":-95.63344,"zip":"75802","miles_from_dt":20.37},{"city":"Palestine","state_name":"Texas","lat":31.75781,"lng":-95.644,"zip":"75882","miles_from_dt":20.55},{"city":"Maydelle","state_name":"Texas","lat":31.8008,"lng":-95.30384,"zip":"75772","miles_from_dt":20.88},{"city":"Kennard","state_name":"Texas","lat":31.35204,"lng":-95.13564,"zip":"75847","miles_from_dt":21.09},{"city":"Rusk","state_name":"Texas","lat":31.76641,"lng":-95.17446,"zip":"75785","miles_from_dt":22.93},{"city":"Alto","state_name":"Texas","lat":31.61018,"lng":-95.05327,"zip":"75925","miles_from_dt":23.36},{"city":"Neches","state_name":"Texas","lat":31.86434,"lng":-95.48486,"zip":"75779","miles_from_dt":23.96},{"city":"Pennington","state_name":"Texas","lat":31.20138,"lng":-95.2537,"zip":"75856","miles_from_dt":24.37},{"city":"Oakwood","state_name":"Texas","lat":31.5592,"lng":-95.85447,"zip":"75855","miles_from_dt":24.92},{"city":"Palestine","state_name":"Texas","lat":31.87513,"lng":-95.66704,"zip":"75803","miles_from_dt":28.08},{"city":"Wells","state_name":"Texas","lat":31.51546,"lng":-94.93863,"zip":"75976","miles_from_dt":29.29},{"city":"Centralia","state_name":"Texas","lat":31.25837,"lng":-95.04062,"zip":"75834","miles_from_dt":29.42},{"city":"Lovelady","state_name":"Texas","lat":31.09458,"lng":-95.49555,"zip":"75851","miles_from_dt":29.47},{"city":"Centerville","state_name":"Texas","lat":31.26304,"lng":-95.83999,"zip":"75833","miles_from_dt":29.75}],"targetCityZipCode":"75844","targetCityState":"Texas"},"__N_SSG":true}