{"pageProps":{"stateName":"Texas","cityName":"hedley","nearbyCities":[{"city":"Lelia Lake","state_name":"Texas","lat":34.8836,"lng":-100.76797,"zip":"79240","miles_from_dt":6.11},{"city":"Quail","state_name":"Texas","lat":34.96174,"lng":-100.45441,"zip":"79251","miles_from_dt":14.06},{"city":"Lakeview","state_name":"Texas","lat":34.64837,"lng":-100.77015,"zip":"79239","miles_from_dt":15.47},{"city":"Memphis","state_name":"Texas","lat":34.68001,"lng":-100.47552,"zip":"79245","miles_from_dt":16.24},{"city":"Clarendon","state_name":"Texas","lat":34.91965,"lng":-100.99229,"zip":"79226","miles_from_dt":19.06},{"city":"Mclean","state_name":"Texas","lat":35.20638,"lng":-100.62157,"zip":"79057","miles_from_dt":24.31},{"city":"Alanreed","state_name":"Texas","lat":35.19819,"lng":-100.76956,"zip":"79002","miles_from_dt":24.33},{"city":"Samnorwood","state_name":"Texas","lat":34.84146,"lng":-100.20378,"zip":"79077","miles_from_dt":26.28},{"city":"Estelline","state_name":"Texas","lat":34.50195,"lng":-100.49165,"zip":"79233","miles_from_dt":26.32},{"city":"Wellington","state_name":"Texas","lat":34.88485,"lng":-100.19561,"zip":"79095","miles_from_dt":26.79},{"city":"Turkey","state_name":"Texas","lat":34.45525,"lng":-100.86876,"zip":"79261","miles_from_dt":29.92}],"targetCityZipCode":"79237","targetCityState":"Texas"},"__N_SSG":true}