{"pageProps":{"stateName":"Texas","cityName":"hext","nearbyCities":[{"city":"Menard","state_name":"Texas","lat":30.87106,"lng":-99.83123,"zip":"76859","miles_from_dt":16.05},{"city":"London","state_name":"Texas","lat":30.57125,"lng":-99.53945,"zip":"76854","miles_from_dt":18.52},{"city":"Mason","state_name":"Texas","lat":30.70296,"lng":-99.26668,"zip":"76856","miles_from_dt":20.01},{"city":"Brady","state_name":"Texas","lat":31.09493,"lng":-99.39329,"zip":"76825","miles_from_dt":20.31},{"city":"Melvin","state_name":"Texas","lat":31.20758,"lng":-99.62002,"zip":"76858","miles_from_dt":25.59},{"city":"Voca","state_name":"Texas","lat":31.02696,"lng":-99.15806,"zip":"76887","miles_from_dt":27.34},{"city":"Fredonia","state_name":"Texas","lat":30.91888,"lng":-99.1023,"zip":"76842","miles_from_dt":27.96}],"targetCityZipCode":"76848","targetCityState":"Texas"},"__N_SSG":true}