{"pageProps":{"stateName":"Texas","cityName":"howe","nearbyCities":[{"city":"Gunter","state_name":"Texas","lat":33.4473,"lng":-96.73546,"zip":"75058","miles_from_dt":6.44},{"city":"Sherman","state_name":"Texas","lat":33.64869,"lng":-96.70011,"zip":"75092","miles_from_dt":8.25},{"city":"Southmayd","state_name":"Texas","lat":33.62785,"lng":-96.76539,"zip":"76268","miles_from_dt":8.25},{"city":"Sherman","state_name":"Texas","lat":33.63487,"lng":-96.60905,"zip":"75091","miles_from_dt":8.4},{"city":"Sherman","state_name":"Texas","lat":33.6054,"lng":-96.54657,"zip":"75090","miles_from_dt":9.44},{"city":"Van Alstyne","state_name":"Texas","lat":33.43246,"lng":-96.55041,"zip":"75495","miles_from_dt":10.19},{"city":"Tom Bean","state_name":"Texas","lat":33.5204,"lng":-96.48467,"zip":"75489","miles_from_dt":11.47},{"city":"Collinsville","state_name":"Texas","lat":33.54025,"lng":-96.89696,"zip":"76233","miles_from_dt":12.36},{"city":"Weston","state_name":"Texas","lat":33.34878,"lng":-96.66912,"zip":"75097","miles_from_dt":12.51},{"city":"Celina","state_name":"Texas","lat":33.3384,"lng":-96.75185,"zip":"75009","miles_from_dt":13.78},{"city":"Tioga","state_name":"Texas","lat":33.46953,"lng":-96.91412,"zip":"76271","miles_from_dt":13.97},{"city":"Anna","state_name":"Texas","lat":33.35223,"lng":-96.52808,"zip":"75409","miles_from_dt":15.17},{"city":"Bells","state_name":"Texas","lat":33.62504,"lng":-96.43193,"zip":"75414","miles_from_dt":15.9},{"city":"Whitewright","state_name":"Texas","lat":33.49741,"lng":-96.39485,"zip":"75491","miles_from_dt":16.79},{"city":"Sadler","state_name":"Texas","lat":33.74172,"lng":-96.83509,"zip":"76264","miles_from_dt":17.03},{"city":"Denison","state_name":"Texas","lat":33.77264,"lng":-96.60391,"zip":"75020","miles_from_dt":17.34},{"city":"Pilot Point","state_name":"Texas","lat":33.37202,"lng":-96.9204,"zip":"76258","miles_from_dt":17.5},{"city":"Denison","state_name":"Texas","lat":33.72686,"lng":-96.47552,"zip":"75021","miles_from_dt":18.1},{"city":"Melissa","state_name":"Texas","lat":33.283,"lng":-96.56073,"zip":"75454","miles_from_dt":18.43},{"city":"Pottsboro","state_name":"Texas","lat":33.79608,"lng":-96.71913,"zip":"75076","miles_from_dt":18.46},{"city":"Mckinney","state_name":"Texas","lat":33.24558,"lng":-96.62951,"zip":"75071","miles_from_dt":19.84},{"city":"Prosper","state_name":"Texas","lat":33.24526,"lng":-96.80791,"zip":"75078","miles_from_dt":20.9},{"city":"Savoy","state_name":"Texas","lat":33.63007,"lng":-96.3386,"zip":"75479","miles_from_dt":21.04},{"city":"Whitesboro","state_name":"Texas","lat":33.74794,"lng":-96.93935,"zip":"76273","miles_from_dt":21.07},{"city":"Trenton","state_name":"Texas","lat":33.4363,"lng":-96.30771,"zip":"75490","miles_from_dt":22.62},{"city":"Gordonville","state_name":"Texas","lat":33.82885,"lng":-96.85422,"zip":"76245","miles_from_dt":22.84},{"city":"Blue Ridge","state_name":"Texas","lat":33.30535,"lng":-96.39059,"zip":"75424","miles_from_dt":22.92},{"city":"Westminster","state_name":"Texas","lat":33.3056,"lng":-96.3841,"zip":"75485","miles_from_dt":23.18},{"city":"Ector","state_name":"Texas","lat":33.55261,"lng":-96.27796,"zip":"75439","miles_from_dt":23.43},{"city":"Mckinney","state_name":"Texas","lat":33.1875,"lng":-96.70099,"zip":"75072","miles_from_dt":23.62},{"city":"Colbert","state_name":"Oklahoma","lat":33.83053,"lng":-96.47546,"zip":"74733","miles_from_dt":23.93},{"city":"Cartwright","state_name":"Oklahoma","lat":33.8753,"lng":-96.57313,"zip":"74731","miles_from_dt":24.63},{"city":"Randolph","state_name":"Texas","lat":33.48593,"lng":-96.25757,"zip":"75475","miles_from_dt":24.75},{"city":"Aubrey","state_name":"Texas","lat":33.27465,"lng":-96.99075,"zip":"76227","miles_from_dt":25.01},{"city":"Mckinney","state_name":"Texas","lat":33.16805,"lng":-96.59671,"zip":"75069","miles_from_dt":25.43},{"city":"Frisco","state_name":"Texas","lat":33.18471,"lng":-96.84404,"zip":"75033","miles_from_dt":25.54},{"city":"Mckinney","state_name":"Texas","lat":33.15587,"lng":-96.69742,"zip":"75070","miles_from_dt":25.79},{"city":"Valley View","state_name":"Texas","lat":33.46421,"lng":-97.12721,"zip":"76272","miles_from_dt":26.04},{"city":"Frisco","state_name":"Texas","lat":33.15814,"lng":-96.7734,"zip":"75035","miles_from_dt":26.15},{"city":"Kemp","state_name":"Oklahoma","lat":33.75491,"lng":-96.31612,"zip":"74747","miles_from_dt":26.23},{"city":"Leonard","state_name":"Texas","lat":33.39284,"lng":-96.24469,"zip":"75452","miles_from_dt":27.03},{"city":"Achille","state_name":"Oklahoma","lat":33.83141,"lng":-96.37768,"zip":"74720","miles_from_dt":27.23},{"city":"Platter","state_name":"Oklahoma","lat":33.90777,"lng":-96.53496,"zip":"74753","miles_from_dt":27.41},{"city":"Ravenna","state_name":"Texas","lat":33.70793,"lng":-96.24342,"zip":"75476","miles_from_dt":28.17},{"city":"Kingston","state_name":"Oklahoma","lat":33.93643,"lng":-96.74708,"zip":"73439","miles_from_dt":28.26},{"city":"Princeton","state_name":"Texas","lat":33.1512,"lng":-96.48808,"zip":"75407","miles_from_dt":28.43},{"city":"Allen","state_name":"Texas","lat":33.11463,"lng":-96.69413,"zip":"75013","miles_from_dt":28.62},{"city":"Little Elm","state_name":"Texas","lat":33.17713,"lng":-96.95228,"zip":"75068","miles_from_dt":28.87},{"city":"Hendrix","state_name":"Oklahoma","lat":33.79571,"lng":-96.29281,"zip":"74741","miles_from_dt":29.01},{"city":"Bonham","state_name":"Texas","lat":33.57235,"lng":-96.1773,"zip":"75418","miles_from_dt":29.33},{"city":"Gainesville","state_name":"Texas","lat":33.64542,"lng":-97.17628,"zip":"76241","miles_from_dt":29.54},{"city":"Calera","state_name":"Oklahoma","lat":33.90466,"lng":-96.43361,"zip":"74730","miles_from_dt":29.56},{"city":"Frisco","state_name":"Texas","lat":33.12084,"lng":-96.83778,"zip":"75034","miles_from_dt":29.58},{"city":"Gainesville","state_name":"Texas","lat":33.65654,"lng":-97.17766,"zip":"76240","miles_from_dt":29.83}],"targetCityZipCode":"75459","targetCityState":"Texas"},"__N_SSG":true}