{"pageProps":{"stateName":"Texas","cityName":"kingsbury","nearbyCities":[{"city":"Prairie Lea","state_name":"Texas","lat":29.72925,"lng":-97.74212,"zip":"78661","miles_from_dt":5.87},{"city":"Staples","state_name":"Texas","lat":29.76267,"lng":-97.84608,"zip":"78670","miles_from_dt":7.8},{"city":"Fentress","state_name":"Texas","lat":29.77225,"lng":-97.78229,"zip":"78622","miles_from_dt":7.9},{"city":"Luling","state_name":"Texas","lat":29.69594,"lng":-97.63827,"zip":"78648","miles_from_dt":9.83},{"city":"Seguin","state_name":"Texas","lat":29.56732,"lng":-97.93086,"zip":"78156","miles_from_dt":10.25},{"city":"Ottine","state_name":"Texas","lat":29.59339,"lng":-97.62661,"zip":"78658","miles_from_dt":11.13},{"city":"Belmont","state_name":"Texas","lat":29.52393,"lng":-97.68192,"zip":"78604","miles_from_dt":11.52},{"city":"Martindale","state_name":"Texas","lat":29.82346,"lng":-97.83517,"zip":"78655","miles_from_dt":11.62},{"city":"Seguin","state_name":"Texas","lat":29.53305,"lng":-97.93832,"zip":"78155","miles_from_dt":12.16},{"city":"Geronimo","state_name":"Texas","lat":29.61024,"lng":-98.02557,"zip":"78115","miles_from_dt":14.21},{"city":"Leesville","state_name":"Texas","lat":29.44512,"lng":-97.72212,"zip":"78122","miles_from_dt":15.34},{"city":"McQueeney","state_name":"Texas","lat":29.60056,"lng":-98.04236,"zip":"78123","miles_from_dt":15.35},{"city":"San Marcos","state_name":"Texas","lat":29.85831,"lng":-97.94297,"zip":"78667","miles_from_dt":16.37},{"city":"Lockhart","state_name":"Texas","lat":29.87111,"lng":-97.67292,"zip":"78644","miles_from_dt":16.42},{"city":"New Braunfels","state_name":"Texas","lat":29.69224,"lng":-98.06877,"zip":"78130","miles_from_dt":16.58},{"city":"Maxwell","state_name":"Texas","lat":29.90275,"lng":-97.8089,"zip":"78656","miles_from_dt":16.86},{"city":"San Marcos","state_name":"Texas","lat":29.8826,"lng":-97.97974,"zip":"78666","miles_from_dt":19},{"city":"New Braunfels","state_name":"Texas","lat":29.70387,"lng":-98.11752,"zip":"78135","miles_from_dt":19.59},{"city":"Harwood","state_name":"Texas","lat":29.68866,"lng":-97.46858,"zip":"78632","miles_from_dt":19.8},{"city":"Cost","state_name":"Texas","lat":29.41314,"lng":-97.59429,"zip":"78614","miles_from_dt":20.8},{"city":"New Braunfels","state_name":"Texas","lat":29.71498,"lng":-98.14372,"zip":"78131","miles_from_dt":21.28},{"city":"Marion","state_name":"Texas","lat":29.5585,"lng":-98.15176,"zip":"78124","miles_from_dt":22.49},{"city":"Kyle","state_name":"Texas","lat":29.99619,"lng":-97.82355,"zip":"78640","miles_from_dt":23.34},{"city":"Dale","state_name":"Texas","lat":29.92687,"lng":-97.55655,"zip":"78616","miles_from_dt":23.44},{"city":"Gonzales","state_name":"Texas","lat":29.47762,"lng":-97.45093,"zip":"78629","miles_from_dt":24.21},{"city":"Nixon","state_name":"Texas","lat":29.30758,"lng":-97.7619,"zip":"78140","miles_from_dt":24.24},{"city":"New Braunfels","state_name":"Texas","lat":29.76299,"lng":-98.19,"zip":"78132","miles_from_dt":24.77},{"city":"Wrightsboro","state_name":"Texas","lat":29.34174,"lng":-97.59335,"zip":"78677","miles_from_dt":24.98},{"city":"Cibolo","state_name":"Texas","lat":29.57354,"lng":-98.22068,"zip":"78108","miles_from_dt":26.22},{"city":"Pandora","state_name":"Texas","lat":29.26267,"lng":-97.86085,"zip":"78143","miles_from_dt":27.52},{"city":"La Vernia","state_name":"Texas","lat":29.35118,"lng":-98.10241,"zip":"78121","miles_from_dt":28.07},{"city":"Red Rock","state_name":"Texas","lat":29.94316,"lng":-97.44231,"zip":"78662","miles_from_dt":28.92},{"city":"Saint Hedwig","state_name":"Texas","lat":29.43046,"lng":-98.20171,"zip":"78152","miles_from_dt":29.04},{"city":"Buda","state_name":"Texas","lat":30.07962,"lng":-97.84047,"zip":"78610","miles_from_dt":29.15},{"city":"Schertz","state_name":"Texas","lat":29.54774,"lng":-98.26574,"zip":"78154","miles_from_dt":29.28},{"city":"Stockdale","state_name":"Texas","lat":29.24182,"lng":-97.9285,"zip":"78160","miles_from_dt":29.77},{"city":"Sutherland Springs","state_name":"Texas","lat":29.28741,"lng":-98.05012,"zip":"78161","miles_from_dt":29.78},{"city":"Waelder","state_name":"Texas","lat":29.69877,"lng":-97.30153,"zip":"78959","miles_from_dt":29.87},{"city":"Rosanky","state_name":"Texas","lat":29.85552,"lng":-97.35214,"zip":"78953","miles_from_dt":29.94}],"targetCityZipCode":"78638","targetCityState":"Texas"},"__N_SSG":true}