{"pageProps":{"stateName":"Texas","cityName":"millersview","nearbyCities":[{"city":"Doole","state_name":"Texas","lat":31.42409,"lng":-99.59196,"zip":"76836","miles_from_dt":6.98},{"city":"Paint Rock","state_name":"Texas","lat":31.45181,"lng":-99.92922,"zip":"76866","miles_from_dt":13.24},{"city":"Voss","state_name":"Texas","lat":31.60919,"lng":-99.63742,"zip":"76888","miles_from_dt":14.12},{"city":"Melvin","state_name":"Texas","lat":31.20758,"lng":-99.62002,"zip":"76858","miles_from_dt":15.16},{"city":"Gouldbusk","state_name":"Texas","lat":31.54305,"lng":-99.48192,"zip":"76845","miles_from_dt":16.12},{"city":"Lohn","state_name":"Texas","lat":31.35558,"lng":-99.44335,"zip":"76852","miles_from_dt":16.23},{"city":"Eden","state_name":"Texas","lat":31.21098,"lng":-99.88176,"zip":"76837","miles_from_dt":17.3},{"city":"Lowake","state_name":"Texas","lat":31.44989,"lng":-100.05913,"zip":"76855","miles_from_dt":20.81},{"city":"Rockwood","state_name":"Texas","lat":31.50459,"lng":-99.3696,"zip":"76873","miles_from_dt":21.02},{"city":"Valera","state_name":"Texas","lat":31.69654,"lng":-99.56407,"zip":"76884","miles_from_dt":21.28},{"city":"Rowena","state_name":"Texas","lat":31.59928,"lng":-100.00749,"zip":"76875","miles_from_dt":21.74},{"city":"Mereta","state_name":"Texas","lat":31.43681,"lng":-100.12694,"zip":"76940","miles_from_dt":24.72},{"city":"Eola","state_name":"Texas","lat":31.39109,"lng":-100.15025,"zip":"76937","miles_from_dt":26.1},{"city":"Ballinger","state_name":"Texas","lat":31.73862,"lng":-99.94963,"zip":"76821","miles_from_dt":26.49},{"city":"Vancourt","state_name":"Texas","lat":31.29919,"lng":-100.1389,"zip":"76955","miles_from_dt":26.59},{"city":"Talpa","state_name":"Texas","lat":31.80059,"lng":-99.71448,"zip":"76882","miles_from_dt":26.65},{"city":"Brady","state_name":"Texas","lat":31.09493,"lng":-99.39329,"zip":"76825","miles_from_dt":28.86},{"city":"Santa Anna","state_name":"Texas","lat":31.66659,"lng":-99.29611,"zip":"76878","miles_from_dt":29.97}],"targetCityZipCode":"76862","targetCityState":"Texas"},"__N_SSG":true}