{"pageProps":{"stateName":"Texas","cityName":"omaha","nearbyCities":[{"city":"Cookville","state_name":"Texas","lat":33.25017,"lng":-94.85564,"zip":"75558","miles_from_dt":6.08},{"city":"Naples","state_name":"Texas","lat":33.19607,"lng":-94.59362,"zip":"75568","miles_from_dt":9.9},{"city":"Mount Pleasant","state_name":"Texas","lat":33.15819,"lng":-94.96805,"zip":"75456","miles_from_dt":12.29},{"city":"Mount Pleasant","state_name":"Texas","lat":33.21725,"lng":-94.98022,"zip":"75455","miles_from_dt":12.54},{"city":"Daingerfield","state_name":"Texas","lat":33.01869,"lng":-94.73173,"zip":"75638","miles_from_dt":13.11},{"city":"Simms","state_name":"Texas","lat":33.32892,"lng":-94.55229,"zip":"75574","miles_from_dt":14.86},{"city":"Marietta","state_name":"Texas","lat":33.15256,"lng":-94.49018,"zip":"75566","miles_from_dt":16.31},{"city":"Hughes Springs","state_name":"Texas","lat":33.01471,"lng":-94.58686,"zip":"75656","miles_from_dt":16.77},{"city":"Cason","state_name":"Texas","lat":32.94351,"lng":-94.70518,"zip":"75636","miles_from_dt":18.48},{"city":"Pittsburg","state_name":"Texas","lat":32.96921,"lng":-94.94697,"zip":"75686","miles_from_dt":19.52},{"city":"Winfield","state_name":"Texas","lat":33.14073,"lng":-95.11316,"zip":"75493","miles_from_dt":20.74},{"city":"Lone Star","state_name":"Texas","lat":32.90846,"lng":-94.68485,"zip":"75668","miles_from_dt":21.08},{"city":"Annona","state_name":"Texas","lat":33.49966,"lng":-94.88454,"zip":"75550","miles_from_dt":21.34},{"city":"De Kalb","state_name":"Texas","lat":33.49929,"lng":-94.63931,"zip":"75559","miles_from_dt":21.39},{"city":"Douglassville","state_name":"Texas","lat":33.1957,"lng":-94.36699,"zip":"75560","miles_from_dt":23.02},{"city":"Talco","state_name":"Texas","lat":33.33584,"lng":-95.16567,"zip":"75487","miles_from_dt":24.89},{"city":"Linden","state_name":"Texas","lat":33.01835,"lng":-94.38871,"zip":"75563","miles_from_dt":25.36},{"city":"Avinger","state_name":"Texas","lat":32.87588,"lng":-94.5572,"zip":"75630","miles_from_dt":25.79},{"city":"New Boston","state_name":"Texas","lat":33.4649,"lng":-94.4389,"zip":"75570","miles_from_dt":25.88},{"city":"Mount Vernon","state_name":"Texas","lat":33.1746,"lng":-95.21125,"zip":"75457","miles_from_dt":26.01},{"city":"Avery","state_name":"Texas","lat":33.58534,"lng":-94.78563,"zip":"75554","miles_from_dt":26.1},{"city":"Bogata","state_name":"Texas","lat":33.43827,"lng":-95.13114,"zip":"75417","miles_from_dt":26.55},{"city":"Ore City","state_name":"Texas","lat":32.82182,"lng":-94.74035,"zip":"75683","miles_from_dt":26.58},{"city":"Leesburg","state_name":"Texas","lat":32.96247,"lng":-95.11835,"zip":"75451","miles_from_dt":26.58},{"city":"Maud","state_name":"Texas","lat":33.31688,"lng":-94.31935,"zip":"75567","miles_from_dt":26.84},{"city":"Scroggins","state_name":"Texas","lat":33.02129,"lng":-95.19159,"zip":"75480","miles_from_dt":27.9}],"targetCityZipCode":"75571","targetCityState":"Texas"},"__N_SSG":true}