{"pageProps":{"stateName":"Texas","cityName":"palestine","nearbyCities":[{"city":"Palestine","state_name":"Texas","lat":31.76116,"lng":-95.63344,"zip":"75802","miles_from_dt":5.06},{"city":"Palestine","state_name":"Texas","lat":31.75781,"lng":-95.644,"zip":"75882","miles_from_dt":5.6},{"city":"Elkhart","state_name":"Texas","lat":31.6181,"lng":-95.55738,"zip":"75839","miles_from_dt":8.41},{"city":"Neches","state_name":"Texas","lat":31.86434,"lng":-95.48486,"zip":"75779","miles_from_dt":9.41},{"city":"Palestine","state_name":"Texas","lat":31.87513,"lng":-95.66704,"zip":"75803","miles_from_dt":11.54},{"city":"Maydelle","state_name":"Texas","lat":31.8008,"lng":-95.30384,"zip":"75772","miles_from_dt":15.15},{"city":"Grapeland","state_name":"Texas","lat":31.51921,"lng":-95.43481,"zip":"75844","miles_from_dt":16.69},{"city":"Tennessee Colony","state_name":"Texas","lat":31.8359,"lng":-95.83942,"zip":"75880","miles_from_dt":18.2},{"city":"Montalba","state_name":"Texas","lat":31.93488,"lng":-95.80963,"zip":"75853","miles_from_dt":20.28},{"city":"Tennessee Colony","state_name":"Texas","lat":31.78928,"lng":-95.89263,"zip":"75884","miles_from_dt":20.38},{"city":"Frankston","state_name":"Texas","lat":32.04154,"lng":-95.52231,"zip":"75763","miles_from_dt":20.84},{"city":"Tennessee Colony","state_name":"Texas","lat":31.8524,"lng":-95.88771,"zip":"75861","miles_from_dt":21.26},{"city":"Tennessee Colony","state_name":"Texas","lat":31.78698,"lng":-95.91234,"zip":"75886","miles_from_dt":21.51},{"city":"Oakwood","state_name":"Texas","lat":31.5592,"lng":-95.85447,"zip":"75855","miles_from_dt":21.79},{"city":"Cuney","state_name":"Texas","lat":32.03617,"lng":-95.41573,"zip":"75759","miles_from_dt":21.9},{"city":"Rusk","state_name":"Texas","lat":31.76641,"lng":-95.17446,"zip":"75785","miles_from_dt":22.25},{"city":"Jacksonville","state_name":"Texas","lat":31.94592,"lng":-95.25181,"zip":"75766","miles_from_dt":22.61},{"city":"Poynor","state_name":"Texas","lat":32.0693,"lng":-95.58777,"zip":"75782","miles_from_dt":22.79},{"city":"Latexo","state_name":"Texas","lat":31.39624,"lng":-95.47618,"zip":"75849","miles_from_dt":24.1},{"city":"Gallatin","state_name":"Texas","lat":31.89522,"lng":-95.14369,"zip":"75764","miles_from_dt":26.25},{"city":"Larue","state_name":"Texas","lat":32.14058,"lng":-95.64694,"zip":"75770","miles_from_dt":28.17},{"city":"Bullard","state_name":"Texas","lat":32.11584,"lng":-95.34933,"zip":"75757","miles_from_dt":28.48},{"city":"Cayuga","state_name":"Texas","lat":31.95867,"lng":-95.97343,"zip":"75832","miles_from_dt":29.05}],"targetCityZipCode":"75801","targetCityState":"Texas"},"__N_SSG":true}