{"pageProps":{"stateName":"Texas","cityName":"pointblank","nearbyCities":[{"city":"Oakhurst","state_name":"Texas","lat":30.76262,"lng":-95.30441,"zip":"77359","miles_from_dt":4.93},{"city":"Onalaska","state_name":"Texas","lat":30.8471,"lng":-95.11394,"zip":"77360","miles_from_dt":8.5},{"city":"Dodge","state_name":"Texas","lat":30.77996,"lng":-95.36465,"zip":"77334","miles_from_dt":8.56},{"city":"Coldspring","state_name":"Texas","lat":30.61928,"lng":-95.17706,"zip":"77331","miles_from_dt":10.45},{"city":"Riverside","state_name":"Texas","lat":30.8504,"lng":-95.39147,"zip":"77367","miles_from_dt":11.65},{"city":"Trinity","state_name":"Texas","lat":30.96193,"lng":-95.32951,"zip":"75862","miles_from_dt":14.95},{"city":"Livingston","state_name":"Texas","lat":30.71309,"lng":-94.93541,"zip":"77399","miles_from_dt":17.42},{"city":"Leggett","state_name":"Texas","lat":30.81432,"lng":-94.90086,"zip":"77350","miles_from_dt":19.37},{"city":"Huntsville","state_name":"Texas","lat":30.7228,"lng":-95.54872,"zip":"77343","miles_from_dt":19.68},{"city":"Huntsville","state_name":"Texas","lat":30.72181,"lng":-95.55114,"zip":"77349","miles_from_dt":19.84},{"city":"Huntsville","state_name":"Texas","lat":30.72204,"lng":-95.55279,"zip":"77344","miles_from_dt":19.93},{"city":"Huntsville","state_name":"Texas","lat":30.72286,"lng":-95.55333,"zip":"77348","miles_from_dt":19.96},{"city":"Huntsville","state_name":"Texas","lat":30.80672,"lng":-95.55687,"zip":"77320","miles_from_dt":20.13},{"city":"Huntsville","state_name":"Texas","lat":30.73877,"lng":-95.55911,"zip":"77342","miles_from_dt":20.16},{"city":"New Waverly","state_name":"Texas","lat":30.55061,"lng":-95.45419,"zip":"77358","miles_from_dt":20.29},{"city":"Huntsville","state_name":"Texas","lat":30.64601,"lng":-95.53441,"zip":"77340","miles_from_dt":20.37},{"city":"Huntsville","state_name":"Texas","lat":30.69818,"lng":-95.55886,"zip":"77341","miles_from_dt":20.6},{"city":"Goodrich","state_name":"Texas","lat":30.58901,"lng":-94.92353,"zip":"77335","miles_from_dt":21.53},{"city":"Willis","state_name":"Texas","lat":30.45873,"lng":-95.37454,"zip":"77378","miles_from_dt":23.04},{"city":"Moscow","state_name":"Texas","lat":30.90372,"lng":-94.8618,"zip":"75960","miles_from_dt":23.4},{"city":"Shepherd","state_name":"Texas","lat":30.49376,"lng":-94.98146,"zip":"77371","miles_from_dt":23.59},{"city":"Groveton","state_name":"Texas","lat":31.09488,"lng":-95.08707,"zip":"75845","miles_from_dt":24.03},{"city":"Livingston","state_name":"Texas","lat":30.70411,"lng":-94.81682,"zip":"77351","miles_from_dt":24.47},{"city":"Cleveland","state_name":"Texas","lat":30.40767,"lng":-95.18888,"zip":"77328","miles_from_dt":24.76},{"city":"Woodlake","state_name":"Texas","lat":31.05808,"lng":-94.96228,"zip":"75865","miles_from_dt":25.35},{"city":"Lovelady","state_name":"Texas","lat":31.09458,"lng":-95.49555,"zip":"75851","miles_from_dt":27.88},{"city":"Conroe","state_name":"Texas","lat":30.37569,"lng":-95.37937,"zip":"77303","miles_from_dt":28.48},{"city":"Willis","state_name":"Texas","lat":30.44709,"lng":-95.54364,"zip":"77318","miles_from_dt":29.16},{"city":"Camden","state_name":"Texas","lat":30.89688,"lng":-94.75153,"zip":"75934","miles_from_dt":29.37}],"targetCityZipCode":"77364","targetCityState":"Texas"},"__N_SSG":true}