{"pageProps":{"stateName":"Texas","cityName":"riviera","nearbyCities":[{"city":"Kingsville","state_name":"Texas","lat":27.43836,"lng":-97.85532,"zip":"78363","miles_from_dt":10.12},{"city":"Sarita","state_name":"Texas","lat":27.1276,"lng":-97.8369,"zip":"78385","miles_from_dt":12.31},{"city":"Kingsville","state_name":"Texas","lat":27.52443,"lng":-97.8689,"zip":"78364","miles_from_dt":15.99},{"city":"Bishop","state_name":"Texas","lat":27.62163,"lng":-97.77216,"zip":"78343","miles_from_dt":22.04},{"city":"Premont","state_name":"Texas","lat":27.38282,"lng":-98.16351,"zip":"78375","miles_from_dt":23.41},{"city":"Driscoll","state_name":"Texas","lat":27.66779,"lng":-97.75258,"zip":"78351","miles_from_dt":25.3},{"city":"Falfurrias","state_name":"Texas","lat":27.18855,"lng":-98.20304,"zip":"78355","miles_from_dt":26.38},{"city":"Chapman Ranch","state_name":"Texas","lat":27.57337,"lng":-97.48642,"zip":"78347","miles_from_dt":26.55}],"targetCityZipCode":"78379","targetCityState":"Texas"},"__N_SSG":true}