{"pageProps":{"stateName":"Texas","cityName":"san-angelo","nearbyCities":[{"city":"San Angelo","state_name":"Texas","lat":31.54439,"lng":-100.72459,"zip":"76902","miles_from_dt":5.2},{"city":"Carlsbad","state_name":"Texas","lat":31.61491,"lng":-100.67661,"zip":"76934","miles_from_dt":6.66},{"city":"Water Valley","state_name":"Texas","lat":31.64467,"lng":-100.75515,"zip":"76958","miles_from_dt":10.76},{"city":"San Angelo","state_name":"Texas","lat":31.44135,"lng":-100.46624,"zip":"76909","miles_from_dt":11.71},{"city":"San Angelo","state_name":"Texas","lat":31.48168,"lng":-100.43787,"zip":"76903","miles_from_dt":12.27},{"city":"San Angelo","state_name":"Texas","lat":31.46009,"lng":-100.43675,"zip":"76906","miles_from_dt":12.77},{"city":"Veribest","state_name":"Texas","lat":31.35285,"lng":-100.49504,"zip":"76886","miles_from_dt":14.54},{"city":"Goodfellow Afb","state_name":"Texas","lat":31.43226,"lng":-100.40314,"zip":"76908","miles_from_dt":15.33},{"city":"Knickerbocker","state_name":"Texas","lat":31.26855,"lng":-100.59028,"zip":"76939","miles_from_dt":17.81},{"city":"San Angelo","state_name":"Texas","lat":31.49987,"lng":-100.31583,"zip":"76905","miles_from_dt":19.2},{"city":"San Angelo","state_name":"Texas","lat":31.28844,"lng":-100.41695,"zip":"76904","miles_from_dt":20.88},{"city":"Wall","state_name":"Texas","lat":31.37232,"lng":-100.30514,"zip":"76957","miles_from_dt":22.35},{"city":"Tennyson","state_name":"Texas","lat":31.72871,"lng":-100.32078,"zip":"76953","miles_from_dt":23.53},{"city":"Robert Lee","state_name":"Texas","lat":31.87297,"lng":-100.60292,"zip":"76945","miles_from_dt":24.18},{"city":"Mertzon","state_name":"Texas","lat":31.24731,"lng":-100.89845,"zip":"76941","miles_from_dt":24.4},{"city":"Miles","state_name":"Texas","lat":31.59216,"lng":-100.19637,"zip":"76861","miles_from_dt":26.59}],"targetCityZipCode":"76901","targetCityState":"Texas"},"__N_SSG":true}