{"pageProps":{"stateName":"Texas","cityName":"seymour","nearbyCities":[{"city":"Goree","state_name":"Texas","lat":33.50762,"lng":-99.53122,"zip":"76363","miles_from_dt":18.99},{"city":"Megargel","state_name":"Texas","lat":33.45624,"lng":-98.89407,"zip":"76370","miles_from_dt":21.56},{"city":"Munday","state_name":"Texas","lat":33.48668,"lng":-99.65453,"zip":"76371","miles_from_dt":26.19},{"city":"Holliday","state_name":"Texas","lat":33.71439,"lng":-98.77436,"zip":"76366","miles_from_dt":26.95},{"city":"Electra","state_name":"Texas","lat":33.97361,"lng":-99.00302,"zip":"76360","miles_from_dt":28.43},{"city":"Newcastle","state_name":"Texas","lat":33.25173,"lng":-98.93643,"zip":"76372","miles_from_dt":29.41},{"city":"Archer City","state_name":"Texas","lat":33.55553,"lng":-98.71145,"zip":"76351","miles_from_dt":29.7}],"targetCityZipCode":"76380","targetCityState":"Texas"},"__N_SSG":true}