{"pageProps":{"stateName":"Texas","cityName":"woden","nearbyCities":[{"city":"Nacogdoches","state_name":"Texas","lat":31.5576,"lng":-94.51098,"zip":"75961","miles_from_dt":3.81},{"city":"Chireno","state_name":"Texas","lat":31.47805,"lng":-94.38259,"zip":"75937","miles_from_dt":8.45},{"city":"Nacogdoches","state_name":"Texas","lat":31.61981,"lng":-94.6484,"zip":"75962","miles_from_dt":10.93},{"city":"Nacogdoches","state_name":"Texas","lat":31.6321,"lng":-94.63732,"zip":"75963","miles_from_dt":11.16},{"city":"Martinsville","state_name":"Texas","lat":31.64171,"lng":-94.41327,"zip":"75958","miles_from_dt":11.52},{"city":"Etoile","state_name":"Texas","lat":31.34514,"lng":-94.38636,"zip":"75944","miles_from_dt":13.55},{"city":"Lufkin","state_name":"Texas","lat":31.30264,"lng":-94.65481,"zip":"75901","miles_from_dt":15.87},{"city":"Lufkin","state_name":"Texas","lat":31.37428,"lng":-94.74796,"zip":"75903","miles_from_dt":16},{"city":"Nacogdoches","state_name":"Texas","lat":31.63334,"lng":-94.75057,"zip":"75964","miles_from_dt":16.15},{"city":"Nacogdoches","state_name":"Texas","lat":31.7284,"lng":-94.62629,"zip":"75965","miles_from_dt":16.67},{"city":"Lufkin","state_name":"Texas","lat":31.33528,"lng":-94.72871,"zip":"75915","miles_from_dt":16.79},{"city":"Huntington","state_name":"Texas","lat":31.22907,"lng":-94.51782,"zip":"75949","miles_from_dt":18.89},{"city":"Lufkin","state_name":"Texas","lat":31.3228,"lng":-94.80107,"zip":"75902","miles_from_dt":20.61},{"city":"Garrison","state_name":"Texas","lat":31.81372,"lng":-94.52392,"zip":"75946","miles_from_dt":21.39},{"city":"Lufkin","state_name":"Texas","lat":31.33872,"lng":-94.83467,"zip":"75904","miles_from_dt":21.63},{"city":"Pollok","state_name":"Texas","lat":31.44765,"lng":-94.89758,"zip":"75969","miles_from_dt":22.46},{"city":"San Augustine","state_name":"Texas","lat":31.49407,"lng":-94.12173,"zip":"75972","miles_from_dt":23.68},{"city":"Douglass","state_name":"Texas","lat":31.65451,"lng":-94.88935,"zip":"75943","miles_from_dt":24},{"city":"Wells","state_name":"Texas","lat":31.51546,"lng":-94.93863,"zip":"75976","miles_from_dt":24.56},{"city":"Center","state_name":"Texas","lat":31.72999,"lng":-94.20077,"zip":"75935","miles_from_dt":24.59},{"city":"Diboll","state_name":"Texas","lat":31.18078,"lng":-94.76219,"zip":"75941","miles_from_dt":26.34},{"city":"Broaddus","state_name":"Texas","lat":31.23579,"lng":-94.19735,"zip":"75929","miles_from_dt":26.64},{"city":"Timpson","state_name":"Texas","lat":31.89535,"lng":-94.4122,"zip":"75975","miles_from_dt":27.79},{"city":"Zavalla","state_name":"Texas","lat":31.12387,"lng":-94.34703,"zip":"75980","miles_from_dt":28.13},{"city":"Cushing","state_name":"Texas","lat":31.80738,"lng":-94.85758,"zip":"75760","miles_from_dt":28.78}],"targetCityZipCode":"75978","targetCityState":"Texas"},"__N_SSG":true}