{"pageProps":{"stateName":"Utah","cityName":"laketown","nearbyCities":[{"city":"Garden City","state_name":"Utah","lat":41.93107,"lng":-111.38267,"zip":"84028","miles_from_dt":5.69},{"city":"Fish Haven","state_name":"Idaho","lat":42.03671,"lng":-111.45894,"zip":"83287","miles_from_dt":13.7},{"city":"Saint Charles","state_name":"Idaho","lat":42.09156,"lng":-111.36835,"zip":"83272","miles_from_dt":15.11},{"city":"Randolph","state_name":"Utah","lat":41.67086,"lng":-111.12293,"zip":"84064","miles_from_dt":16.96},{"city":"Dingle","state_name":"Idaho","lat":42.15664,"lng":-111.25256,"zip":"83233","miles_from_dt":19.28},{"city":"Logan","state_name":"Utah","lat":41.77938,"lng":-111.68316,"zip":"84321","miles_from_dt":21.1},{"city":"Bloomington","state_name":"Idaho","lat":42.18249,"lng":-111.40327,"zip":"83223","miles_from_dt":21.63},{"city":"Logan","state_name":"Utah","lat":41.68476,"lng":-111.64987,"zip":"84323","miles_from_dt":22.64},{"city":"Cokeville","state_name":"Wyoming","lat":42.09736,"lng":-110.956,"zip":"83114","miles_from_dt":23.12},{"city":"Paris","state_name":"Idaho","lat":42.22112,"lng":-111.40661,"zip":"83261","miles_from_dt":24.26},{"city":"Richmond","state_name":"Utah","lat":41.91008,"lng":-111.79882,"zip":"84333","miles_from_dt":25.97},{"city":"Hyde Park","state_name":"Utah","lat":41.80167,"lng":-111.80422,"zip":"84318","miles_from_dt":26.72},{"city":"Franklin","state_name":"Idaho","lat":42.02737,"lng":-111.77626,"zip":"83237","miles_from_dt":26.73},{"city":"Hyrum","state_name":"Utah","lat":41.59401,"lng":-111.659,"zip":"84319","miles_from_dt":27.16},{"city":"Logan","state_name":"Utah","lat":41.77197,"lng":-111.81128,"zip":"84341","miles_from_dt":27.57},{"city":"Logan","state_name":"Utah","lat":41.75822,"lng":-111.81256,"zip":"84322","miles_from_dt":27.9},{"city":"Lewiston","state_name":"Utah","lat":41.96011,"lng":-111.85252,"zip":"84320","miles_from_dt":29.18},{"city":"Providence","state_name":"Utah","lat":41.70313,"lng":-111.81205,"zip":"84332","miles_from_dt":29.25}],"targetCityZipCode":"84038","targetCityState":"Utah"},"__N_SSG":true}