{"pageProps":{"stateName":"Utah","cityName":"moroni","nearbyCities":[{"city":"Wales","state_name":"Utah","lat":39.48926,"lng":-111.65115,"zip":"84667","miles_from_dt":4.44},{"city":"Chester","state_name":"Utah","lat":39.45608,"lng":-111.59063,"zip":"84623","miles_from_dt":6.28},{"city":"Fountain Green","state_name":"Utah","lat":39.64498,"lng":-111.64649,"zip":"84632","miles_from_dt":7.11},{"city":"Spring City","state_name":"Utah","lat":39.43978,"lng":-111.48573,"zip":"84662","miles_from_dt":9.92},{"city":"Mount Pleasant","state_name":"Utah","lat":39.52708,"lng":-111.40658,"zip":"84647","miles_from_dt":11.01},{"city":"Ephraim","state_name":"Utah","lat":39.35515,"lng":-111.58457,"zip":"84627","miles_from_dt":13.22},{"city":"Levan","state_name":"Utah","lat":39.51071,"lng":-111.90225,"zip":"84639","miles_from_dt":15.73},{"city":"Nephi","state_name":"Utah","lat":39.68659,"lng":-111.86819,"zip":"84648","miles_from_dt":16.81},{"city":"Fairview","state_name":"Utah","lat":39.76574,"lng":-111.44752,"zip":"84629","miles_from_dt":17.51},{"city":"Fayette","state_name":"Utah","lat":39.31069,"lng":-111.8342,"zip":"84630","miles_from_dt":20.13},{"city":"Manti","state_name":"Utah","lat":39.20135,"lng":-111.60893,"zip":"84642","miles_from_dt":23.75},{"city":"Sterling","state_name":"Utah","lat":39.19527,"lng":-111.66109,"zip":"84665","miles_from_dt":24.32},{"city":"Mona","state_name":"Utah","lat":39.85159,"lng":-111.83946,"zip":"84645","miles_from_dt":24.36},{"city":"Gunnison","state_name":"Utah","lat":39.18028,"lng":-111.83561,"zip":"84634","miles_from_dt":27.92},{"city":"Payson","state_name":"Utah","lat":39.95633,"lng":-111.69342,"zip":"84651","miles_from_dt":28.67},{"city":"Orangeville","state_name":"Utah","lat":39.29966,"lng":-111.17345,"zip":"84537","miles_from_dt":28.92},{"city":"Huntington","state_name":"Utah","lat":39.43404,"lng":-111.08778,"zip":"84528","miles_from_dt":29.02},{"city":"Mayfield","state_name":"Utah","lat":39.12873,"lng":-111.68485,"zip":"84643","miles_from_dt":29.03}],"targetCityZipCode":"84646","targetCityState":"Utah"},"__N_SSG":true}