{"pageProps":{"stateName":"North-dakota","cityName":"gardner","nearbyCities":[{"city":"Grandin","state_name":"North Dakota","lat":47.24505,"lng":-96.99484,"zip":"58038","miles_from_dt":6.42},{"city":"Argusville","state_name":"North Dakota","lat":47.05261,"lng":-96.951,"zip":"58005","miles_from_dt":7.07},{"city":"Georgetown","state_name":"Minnesota","lat":47.10107,"lng":-96.73038,"zip":"56546","miles_from_dt":11.58},{"city":"Arthur","state_name":"North Dakota","lat":47.09682,"lng":-97.20359,"zip":"58006","miles_from_dt":12.02},{"city":"Perley","state_name":"Minnesota","lat":47.20085,"lng":-96.70242,"zip":"56574","miles_from_dt":12.69},{"city":"Harwood","state_name":"North Dakota","lat":46.96952,"lng":-96.95719,"zip":"58042","miles_from_dt":12.79},{"city":"Hunter","state_name":"North Dakota","lat":47.19882,"lng":-97.22742,"zip":"58048","miles_from_dt":12.82},{"city":"Hendrum","state_name":"Minnesota","lat":47.2697,"lng":-96.74867,"zip":"56550","miles_from_dt":12.85},{"city":"Hillsboro","state_name":"North Dakota","lat":47.38241,"lng":-97.02686,"zip":"58045","miles_from_dt":16.02},{"city":"Amenia","state_name":"North Dakota","lat":47.02713,"lng":-97.26212,"zip":"58004","miles_from_dt":16.63},{"city":"Fargo","state_name":"North Dakota","lat":46.9207,"lng":-96.83175,"zip":"58102","miles_from_dt":17.31},{"city":"Casselton","state_name":"North Dakota","lat":46.93639,"lng":-97.16113,"zip":"58012","miles_from_dt":17.74},{"city":"Blanchard","state_name":"North Dakota","lat":47.32658,"lng":-97.24435,"zip":"58009","miles_from_dt":17.78},{"city":"Halstad","state_name":"Minnesota","lat":47.37025,"lng":-96.75392,"zip":"56548","miles_from_dt":17.85},{"city":"Fargo","state_name":"North Dakota","lat":46.89586,"lng":-96.80363,"zip":"58105","miles_from_dt":19.4},{"city":"Moorhead","state_name":"Minnesota","lat":46.92675,"lng":-96.71527,"zip":"56561","miles_from_dt":19.62},{"city":"West Fargo","state_name":"North Dakota","lat":46.86276,"lng":-96.93125,"zip":"58078","miles_from_dt":20.22},{"city":"Fargo","state_name":"North Dakota","lat":46.87977,"lng":-96.8149,"zip":"58125","miles_from_dt":20.24},{"city":"Erie","state_name":"North Dakota","lat":47.11726,"lng":-97.39001,"zip":"58029","miles_from_dt":20.29},{"city":"Fargo","state_name":"North Dakota","lat":46.86511,"lng":-96.86189,"zip":"58121","miles_from_dt":20.56},{"city":"Fargo","state_name":"North Dakota","lat":46.88156,"lng":-96.78471,"zip":"58122","miles_from_dt":20.66},{"city":"Fargo","state_name":"North Dakota","lat":46.87489,"lng":-96.78449,"zip":"58126","miles_from_dt":21.09},{"city":"Fargo","state_name":"North Dakota","lat":46.8739,"lng":-96.78661,"zip":"58124","miles_from_dt":21.11},{"city":"Fargo","state_name":"North Dakota","lat":46.85639,"lng":-96.82234,"zip":"58103","miles_from_dt":21.65},{"city":"Felton","state_name":"Minnesota","lat":47.04596,"lng":-96.53173,"zip":"56536","miles_from_dt":21.69},{"city":"Fargo","state_name":"North Dakota","lat":46.85283,"lng":-96.82335,"zip":"58106","miles_from_dt":21.87},{"city":"Moorhead","state_name":"Minnesota","lat":46.86458,"lng":-96.77021,"zip":"56562","miles_from_dt":22.01},{"city":"Moorhead","state_name":"Minnesota","lat":46.8668,"lng":-96.75522,"zip":"56563","miles_from_dt":22.18},{"city":"Fargo","state_name":"North Dakota","lat":46.85177,"lng":-96.80081,"zip":"58108","miles_from_dt":22.28},{"city":"Borup","state_name":"Minnesota","lat":47.15914,"lng":-96.4877,"zip":"56519","miles_from_dt":22.41},{"city":"Galesburg","state_name":"North Dakota","lat":47.25599,"lng":-97.41589,"zip":"58035","miles_from_dt":22.43},{"city":"Caledonia","state_name":"North Dakota","lat":47.47606,"lng":-96.87831,"zip":"58219","miles_from_dt":22.56},{"city":"Dilworth","state_name":"Minnesota","lat":46.88027,"lng":-96.69754,"zip":"56529","miles_from_dt":22.73},{"city":"Shelly","state_name":"Minnesota","lat":47.45725,"lng":-96.76141,"zip":"56581","miles_from_dt":22.95},{"city":"Mapleton","state_name":"North Dakota","lat":46.83825,"lng":-97.11812,"zip":"58059","miles_from_dt":23.05},{"city":"Fargo","state_name":"North Dakota","lat":46.82583,"lng":-96.84863,"zip":"58107","miles_from_dt":23.35},{"city":"Absaraka","state_name":"North Dakota","lat":46.97562,"lng":-97.40785,"zip":"58002","miles_from_dt":24.36},{"city":"Fargo","state_name":"North Dakota","lat":46.80819,"lng":-96.86228,"zip":"58109","miles_from_dt":24.4},{"city":"Moorhead","state_name":"Minnesota","lat":46.83637,"lng":-96.73467,"zip":"56560","miles_from_dt":24.49},{"city":"Ayr","state_name":"North Dakota","lat":47.02519,"lng":-97.45724,"zip":"58007","miles_from_dt":24.97},{"city":"Cummings","state_name":"North Dakota","lat":47.51384,"lng":-97.02573,"zip":"58223","miles_from_dt":24.99},{"city":"Ada","state_name":"Minnesota","lat":47.35811,"lng":-96.52316,"zip":"56510","miles_from_dt":25.02},{"city":"Fargo","state_name":"North Dakota","lat":46.79371,"lng":-96.83838,"zip":"58104","miles_from_dt":25.62},{"city":"Glyndon","state_name":"Minnesota","lat":46.89068,"lng":-96.55043,"zip":"56547","miles_from_dt":26.69},{"city":"Wheatland","state_name":"North Dakota","lat":46.86816,"lng":-97.34827,"zip":"58079","miles_from_dt":26.88},{"city":"Nielsville","state_name":"Minnesota","lat":47.5292,"lng":-96.77925,"zip":"56568","miles_from_dt":27.28},{"city":"Clifford","state_name":"North Dakota","lat":47.36609,"lng":-97.46293,"zip":"58016","miles_from_dt":27.67},{"city":"Mayville","state_name":"North Dakota","lat":47.49033,"lng":-97.28505,"zip":"58257","miles_from_dt":27.68},{"city":"Davenport","state_name":"North Dakota","lat":46.73837,"lng":-97.08102,"zip":"58021","miles_from_dt":29.29}],"targetCityZipCode":"58036","targetCityState":"North Dakota"},"__N_SSG":true}