{"pageProps":{"stateName":"North-dakota","cityName":"nome","nearbyCities":[{"city":"Kathryn","state_name":"North Dakota","lat":46.66291,"lng":-98.00054,"zip":"58049","miles_from_dt":8.25},{"city":"Enderlin","state_name":"North Dakota","lat":46.63217,"lng":-97.61816,"zip":"58027","miles_from_dt":10.08},{"city":"Fingal","state_name":"North Dakota","lat":46.76222,"lng":-97.6686,"zip":"58031","miles_from_dt":11.2},{"city":"Fort Ransom","state_name":"North Dakota","lat":46.44019,"lng":-97.92628,"zip":"58033","miles_from_dt":14.79},{"city":"Lisbon","state_name":"North Dakota","lat":46.42622,"lng":-97.66845,"zip":"58054","miles_from_dt":16.86},{"city":"Litchville","state_name":"North Dakota","lat":46.64958,"lng":-98.19248,"zip":"58461","miles_from_dt":17.28},{"city":"Sheldon","state_name":"North Dakota","lat":46.54619,"lng":-97.40896,"zip":"58068","miles_from_dt":21.12},{"city":"Verona","state_name":"North Dakota","lat":46.38137,"lng":-98.06063,"zip":"58490","miles_from_dt":21.21},{"city":"Valley City","state_name":"North Dakota","lat":46.92731,"lng":-98.00791,"zip":"58072","miles_from_dt":21.35},{"city":"Tower City","state_name":"North Dakota","lat":46.9436,"lng":-97.68278,"zip":"58071","miles_from_dt":21.86},{"city":"Oriska","state_name":"North Dakota","lat":46.96773,"lng":-97.80471,"zip":"58063","miles_from_dt":22.42},{"city":"Buffalo","state_name":"North Dakota","lat":46.92711,"lng":-97.54465,"zip":"58011","miles_from_dt":23.79},{"city":"Marion","state_name":"North Dakota","lat":46.61489,"lng":-98.36493,"zip":"58466","miles_from_dt":25.56},{"city":"Leonard","state_name":"North Dakota","lat":46.63552,"lng":-97.28011,"zip":"58052","miles_from_dt":26.14},{"city":"Wheatland","state_name":"North Dakota","lat":46.86816,"lng":-97.34827,"zip":"58079","miles_from_dt":27.61},{"city":"Stirum","state_name":"North Dakota","lat":46.24102,"lng":-97.83194,"zip":"58069","miles_from_dt":27.81},{"city":"Lamoure","state_name":"North Dakota","lat":46.36921,"lng":-98.29257,"zip":"58458","miles_from_dt":29.11},{"city":"Sanborn","state_name":"North Dakota","lat":46.94707,"lng":-98.25685,"zip":"58480","miles_from_dt":29.17},{"city":"Gwinner","state_name":"North Dakota","lat":46.21618,"lng":-97.75204,"zip":"58040","miles_from_dt":29.75}],"targetCityZipCode":"58062","targetCityState":"North Dakota"},"__N_SSG":true}