{"pageProps":{"stateName":"Iowa","cityName":"cincinnati","nearbyCities":[{"city":"Exline","state_name":"Iowa","lat":40.63905,"lng":-92.81046,"zip":"52555","miles_from_dt":7.33},{"city":"Centerville","state_name":"Iowa","lat":40.71774,"lng":-92.90831,"zip":"52544","miles_from_dt":7.43},{"city":"Unionville","state_name":"Missouri","lat":40.48263,"lng":-92.95447,"zip":"63565","miles_from_dt":9.07},{"city":"Seymour","state_name":"Iowa","lat":40.6654,"lng":-93.13594,"zip":"52590","miles_from_dt":10.6},{"city":"Livonia","state_name":"Missouri","lat":40.49921,"lng":-92.74252,"zip":"63551","miles_from_dt":13.32},{"city":"Mystic","state_name":"Iowa","lat":40.80822,"lng":-92.96948,"zip":"52574","miles_from_dt":13.46},{"city":"Moulton","state_name":"Iowa","lat":40.67795,"lng":-92.69163,"zip":"52572","miles_from_dt":14.08},{"city":"Coatsville","state_name":"Missouri","lat":40.57244,"lng":-92.67946,"zip":"63535","miles_from_dt":14.31},{"city":"Plano","state_name":"Iowa","lat":40.80504,"lng":-93.06265,"zip":"52581","miles_from_dt":14.54},{"city":"Udell","state_name":"Iowa","lat":40.77363,"lng":-92.73955,"zip":"52593","miles_from_dt":15.46},{"city":"Promise City","state_name":"Iowa","lat":40.80284,"lng":-93.1555,"zip":"52583","miles_from_dt":17.06},{"city":"Powersville","state_name":"Missouri","lat":40.53869,"lng":-93.26015,"zip":"64672","miles_from_dt":17.32},{"city":"Glenwood","state_name":"Missouri","lat":40.50355,"lng":-92.63331,"zip":"63541","miles_from_dt":18.13},{"city":"Worthington","state_name":"Missouri","lat":40.41332,"lng":-92.70461,"zip":"63567","miles_from_dt":18.79},{"city":"Moravia","state_name":"Iowa","lat":40.87739,"lng":-92.83114,"zip":"52571","miles_from_dt":19.15},{"city":"Lucerne","state_name":"Missouri","lat":40.44017,"lng":-93.23684,"zip":"64655","miles_from_dt":19.45},{"city":"Pollock","state_name":"Missouri","lat":40.3574,"lng":-93.12291,"zip":"63560","miles_from_dt":20},{"city":"Unionville","state_name":"Iowa","lat":40.83561,"lng":-92.64957,"zip":"52594","miles_from_dt":21.82},{"city":"Corydon","state_name":"Iowa","lat":40.75508,"lng":-93.31922,"zip":"50060","miles_from_dt":21.89},{"city":"Allerton","state_name":"Iowa","lat":40.67847,"lng":-93.38549,"zip":"50008","miles_from_dt":23.52},{"city":"Green City","state_name":"Missouri","lat":40.26721,"lng":-92.9677,"zip":"63545","miles_from_dt":23.95},{"city":"Lancaster","state_name":"Missouri","lat":40.53405,"lng":-92.4953,"zip":"63548","miles_from_dt":24.35},{"city":"Millerton","state_name":"Iowa","lat":40.84808,"lng":-93.30937,"zip":"50165","miles_from_dt":25},{"city":"Queen City","state_name":"Missouri","lat":40.41408,"lng":-92.54317,"zip":"63561","miles_from_dt":25.3},{"city":"Newtown","state_name":"Missouri","lat":40.39434,"lng":-93.33618,"zip":"64667","miles_from_dt":25.53},{"city":"Melrose","state_name":"Iowa","lat":40.97968,"lng":-93.04939,"zip":"52569","miles_from_dt":25.81},{"city":"Green Castle","state_name":"Missouri","lat":40.24603,"lng":-92.84943,"zip":"63544","miles_from_dt":25.89},{"city":"Clio","state_name":"Iowa","lat":40.64417,"lng":-93.44538,"zip":"50052","miles_from_dt":26.33},{"city":"Drakesville","state_name":"Iowa","lat":40.83552,"lng":-92.53633,"zip":"52552","miles_from_dt":26.39},{"city":"Russell","state_name":"Iowa","lat":40.97124,"lng":-93.17502,"zip":"50238","miles_from_dt":27.43},{"city":"Novinger","state_name":"Missouri","lat":40.22674,"lng":-92.74528,"zip":"63559","miles_from_dt":28.74},{"city":"Blakesburg","state_name":"Iowa","lat":40.95291,"lng":-92.61802,"zip":"52536","miles_from_dt":29.04},{"city":"Bloomfield","state_name":"Iowa","lat":40.7355,"lng":-92.41426,"zip":"52537","miles_from_dt":29.17},{"city":"Albia","state_name":"Iowa","lat":41.02684,"lng":-92.81562,"zip":"52531","miles_from_dt":29.3},{"city":"Harris","state_name":"Missouri","lat":40.29834,"lng":-93.32575,"zip":"64645","miles_from_dt":29.58}],"targetCityZipCode":"52549","targetCityState":"Iowa"},"__N_SSG":true}