{"pageProps":{"stateName":"Iowa","cityName":"eldora","nearbyCities":[{"city":"Steamboat Rock","state_name":"Iowa","lat":42.4247,"lng":-93.06545,"zip":"50672","miles_from_dt":5.39},{"city":"Gifford","state_name":"Iowa","lat":42.25334,"lng":-93.05992,"zip":"50259","miles_from_dt":6.9},{"city":"Whitten","state_name":"Iowa","lat":42.26236,"lng":-93.01064,"zip":"50269","miles_from_dt":7.42},{"city":"New Providence","state_name":"Iowa","lat":42.25018,"lng":-93.18941,"zip":"50206","miles_from_dt":8.41},{"city":"Union","state_name":"Iowa","lat":42.22781,"lng":-93.07788,"zip":"50258","miles_from_dt":8.47},{"city":"Wellsburg","state_name":"Iowa","lat":42.44956,"lng":-92.92505,"zip":"50680","miles_from_dt":11.09},{"city":"Hubbard","state_name":"Iowa","lat":42.30218,"lng":-93.3087,"zip":"50122","miles_from_dt":11.43},{"city":"Conrad","state_name":"Iowa","lat":42.24738,"lng":-92.91904,"zip":"50621","miles_from_dt":11.46},{"city":"Liscomb","state_name":"Iowa","lat":42.18142,"lng":-92.99567,"zip":"50148","miles_from_dt":12.69},{"city":"Iowa Falls","state_name":"Iowa","lat":42.50875,"lng":-93.24815,"zip":"50126","miles_from_dt":13.48},{"city":"Clemons","state_name":"Iowa","lat":42.13875,"lng":-93.13736,"zip":"50051","miles_from_dt":14.73},{"city":"Ackley","state_name":"Iowa","lat":42.56612,"lng":-93.05665,"zip":"50601","miles_from_dt":15.06},{"city":"Saint Anthony","state_name":"Iowa","lat":42.14431,"lng":-93.20144,"zip":"50239","miles_from_dt":15.2},{"city":"Grundy Center","state_name":"Iowa","lat":42.35654,"lng":-92.79495,"zip":"50638","miles_from_dt":15.37},{"city":"Albion","state_name":"Iowa","lat":42.1295,"lng":-93.02683,"zip":"50005","miles_from_dt":15.6},{"city":"Holland","state_name":"Iowa","lat":42.44024,"lng":-92.81243,"zip":"50642","miles_from_dt":15.75},{"city":"Beaman","state_name":"Iowa","lat":42.23066,"lng":-92.81046,"zip":"50609","miles_from_dt":16.74},{"city":"Zearing","state_name":"Iowa","lat":42.1528,"lng":-93.29926,"zip":"50278","miles_from_dt":17.16},{"city":"Garden City","state_name":"Iowa","lat":42.24554,"lng":-93.40022,"zip":"50102","miles_from_dt":17.22},{"city":"Austinville","state_name":"Iowa","lat":42.58815,"lng":-92.96075,"zip":"50608","miles_from_dt":17.82},{"city":"Radcliffe","state_name":"Iowa","lat":42.30655,"lng":-93.44718,"zip":"50230","miles_from_dt":18.28},{"city":"Buckeye","state_name":"Iowa","lat":42.52028,"lng":-93.37583,"zip":"50043","miles_from_dt":18.56},{"city":"McCallsburg","state_name":"Iowa","lat":42.17625,"lng":-93.39068,"zip":"50154","miles_from_dt":19.32},{"city":"Alden","state_name":"Iowa","lat":42.51354,"lng":-93.40227,"zip":"50006","miles_from_dt":19.35},{"city":"Aplington","state_name":"Iowa","lat":42.60484,"lng":-92.90299,"zip":"50604","miles_from_dt":20.15},{"city":"Bradford","state_name":"Iowa","lat":42.63429,"lng":-93.24662,"zip":"50041","miles_from_dt":21.11},{"city":"Lincoln","state_name":"Iowa","lat":42.26454,"lng":-92.69234,"zip":"50652","miles_from_dt":21.45},{"city":"Morrison","state_name":"Iowa","lat":42.34454,"lng":-92.67399,"zip":"50657","miles_from_dt":21.56},{"city":"Geneva","state_name":"Iowa","lat":42.67203,"lng":-93.12664,"zip":"50633","miles_from_dt":22.3},{"city":"Gladbrook","state_name":"Iowa","lat":42.19886,"lng":-92.69896,"zip":"50635","miles_from_dt":22.82},{"city":"Marshalltown","state_name":"Iowa","lat":42.05016,"lng":-92.90143,"zip":"50158","miles_from_dt":22.94},{"city":"Parkersburg","state_name":"Iowa","lat":42.58078,"lng":-92.7717,"zip":"50665","miles_from_dt":22.96},{"city":"Stout","state_name":"Iowa","lat":42.52505,"lng":-92.7113,"zip":"50673","miles_from_dt":23.05},{"city":"State Center","state_name":"Iowa","lat":42.01832,"lng":-93.1665,"zip":"50247","miles_from_dt":23.17},{"city":"Roland","state_name":"Iowa","lat":42.1675,"lng":-93.4834,"zip":"50236","miles_from_dt":23.56},{"city":"Kesley","state_name":"Iowa","lat":42.66249,"lng":-92.90973,"zip":"50649","miles_from_dt":23.56},{"city":"Dike","state_name":"Iowa","lat":42.46874,"lng":-92.65879,"zip":"50624","miles_from_dt":23.77},{"city":"Ellsworth","state_name":"Iowa","lat":42.33516,"lng":-93.56054,"zip":"50075","miles_from_dt":23.86},{"city":"Popejoy","state_name":"Iowa","lat":42.59388,"lng":-93.42818,"zip":"50227","miles_from_dt":23.95},{"city":"Reinbeck","state_name":"Iowa","lat":42.33309,"lng":-92.6124,"zip":"50669","miles_from_dt":24.74},{"city":"Williams","state_name":"Iowa","lat":42.48444,"lng":-93.54489,"zip":"50271","miles_from_dt":24.81},{"city":"Colo","state_name":"Iowa","lat":42.01925,"lng":-93.29701,"zip":"50056","miles_from_dt":25.06},{"city":"Randall","state_name":"Iowa","lat":42.23765,"lng":-93.60257,"zip":"50231","miles_from_dt":27.14},{"city":"Garwin","state_name":"Iowa","lat":42.07667,"lng":-92.70299,"zip":"50632","miles_from_dt":27.57},{"city":"Hampton","state_name":"Iowa","lat":42.73938,"lng":-93.22146,"zip":"50441","miles_from_dt":27.65},{"city":"Dumont","state_name":"Iowa","lat":42.75071,"lng":-92.98691,"zip":"50625","miles_from_dt":28.22},{"city":"Nevada","state_name":"Iowa","lat":42.03337,"lng":-93.44434,"zip":"50201","miles_from_dt":28.26},{"city":"New Hartford","state_name":"Iowa","lat":42.58099,"lng":-92.63752,"zip":"50660","miles_from_dt":28.31},{"city":"Story City","state_name":"Iowa","lat":42.19256,"lng":-93.61297,"zip":"50248","miles_from_dt":28.68},{"city":"Le Grand","state_name":"Iowa","lat":42.0055,"lng":-92.77582,"zip":"50142","miles_from_dt":28.87},{"city":"Haverhill","state_name":"Iowa","lat":41.93373,"lng":-92.9828,"zip":"50120","miles_from_dt":29.29},{"city":"Melbourne","state_name":"Iowa","lat":41.92563,"lng":-93.06781,"zip":"50162","miles_from_dt":29.31},{"city":"Dows","state_name":"Iowa","lat":42.64931,"lng":-93.50597,"zip":"50071","miles_from_dt":29.46},{"city":"Jewell","state_name":"Iowa","lat":42.30074,"lng":-93.67331,"zip":"50130","miles_from_dt":29.81}],"targetCityZipCode":"50627","targetCityState":"Iowa"},"__N_SSG":true}