{"pageProps":{"stateName":"Iowa","cityName":"fairfield","nearbyCities":[{"city":"Fairfield","state_name":"Iowa","lat":41.02026,"lng":-91.96653,"zip":"52557","miles_from_dt":2.1},{"city":"Lockridge","state_name":"Iowa","lat":40.99117,"lng":-91.75843,"zip":"52635","miles_from_dt":8.98},{"city":"Libertyville","state_name":"Iowa","lat":40.93174,"lng":-92.07224,"zip":"52567","miles_from_dt":9.69},{"city":"Birmingham","state_name":"Iowa","lat":40.86533,"lng":-91.96407,"zip":"52535","miles_from_dt":10.75},{"city":"Brighton","state_name":"Iowa","lat":41.15769,"lng":-91.82281,"zip":"52540","miles_from_dt":11.03},{"city":"Packwood","state_name":"Iowa","lat":41.12039,"lng":-92.09069,"zip":"52580","miles_from_dt":11.1},{"city":"Batavia","state_name":"Iowa","lat":41.01228,"lng":-92.15043,"zip":"52533","miles_from_dt":11.72},{"city":"Richland","state_name":"Iowa","lat":41.18902,"lng":-91.98863,"zip":"52585","miles_from_dt":12.21},{"city":"Stockport","state_name":"Iowa","lat":40.85819,"lng":-91.81323,"zip":"52651","miles_from_dt":12.54},{"city":"Rome","state_name":"Iowa","lat":40.98152,"lng":-91.68088,"zip":"52642","miles_from_dt":13.09},{"city":"Wayland","state_name":"Iowa","lat":41.13581,"lng":-91.66898,"zip":"52654","miles_from_dt":15.69},{"city":"Selma","state_name":"Iowa","lat":40.86325,"lng":-92.16315,"zip":"52588","miles_from_dt":16.37},{"city":"Ollie","state_name":"Iowa","lat":41.21337,"lng":-92.1125,"zip":"52576","miles_from_dt":16.59},{"city":"Douds","state_name":"Iowa","lat":40.81877,"lng":-92.1058,"zip":"52551","miles_from_dt":16.67},{"city":"Eldon","state_name":"Iowa","lat":40.92562,"lng":-92.23387,"zip":"52554","miles_from_dt":17.31},{"city":"Mount Pleasant","state_name":"Iowa","lat":40.98799,"lng":-91.58531,"zip":"52641","miles_from_dt":17.95},{"city":"Hillsboro","state_name":"Iowa","lat":40.80375,"lng":-91.7038,"zip":"52630","miles_from_dt":18.85},{"city":"Keosauqua","state_name":"Iowa","lat":40.74005,"lng":-91.94332,"zip":"52565","miles_from_dt":19.23},{"city":"Agency","state_name":"Iowa","lat":40.98953,"lng":-92.29492,"zip":"52530","miles_from_dt":19.37},{"city":"Martinsburg","state_name":"Iowa","lat":41.1779,"lng":-92.25077,"zip":"52568","miles_from_dt":20.19},{"city":"Swedesburg","state_name":"Iowa","lat":41.09796,"lng":-91.5542,"zip":"52652","miles_from_dt":20.2},{"city":"Floris","state_name":"Iowa","lat":40.85491,"lng":-92.25312,"zip":"52560","miles_from_dt":20.48},{"city":"Salem","state_name":"Iowa","lat":40.83827,"lng":-91.60647,"zip":"52649","miles_from_dt":20.85},{"city":"Hedrick","state_name":"Iowa","lat":41.17295,"lng":-92.27765,"zip":"52563","miles_from_dt":21.21},{"city":"Olds","state_name":"Iowa","lat":41.1342,"lng":-91.54506,"zip":"52647","miles_from_dt":21.46},{"city":"Washington","state_name":"Iowa","lat":41.29923,"lng":-91.71596,"zip":"52353","miles_from_dt":22.27},{"city":"Keota","state_name":"Iowa","lat":41.34386,"lng":-91.93891,"zip":"52248","miles_from_dt":22.47},{"city":"Bonaparte","state_name":"Iowa","lat":40.7032,"lng":-91.79563,"zip":"52620","miles_from_dt":22.8},{"city":"Houghton","state_name":"Iowa","lat":40.78308,"lng":-91.61209,"zip":"52631","miles_from_dt":23.12},{"city":"Hayesville","state_name":"Iowa","lat":41.26539,"lng":-92.24858,"zip":"52562","miles_from_dt":23.94},{"city":"West Chester","state_name":"Iowa","lat":41.35428,"lng":-91.81006,"zip":"52359","miles_from_dt":23.96},{"city":"Crawfordsville","state_name":"Iowa","lat":41.20821,"lng":-91.53209,"zip":"52621","miles_from_dt":24.39},{"city":"Harper","state_name":"Iowa","lat":41.36371,"lng":-92.05912,"zip":"52231","miles_from_dt":24.81},{"city":"Sigourney","state_name":"Iowa","lat":41.31988,"lng":-92.19465,"zip":"52591","miles_from_dt":25.07},{"city":"Milton","state_name":"Iowa","lat":40.68656,"lng":-92.14853,"zip":"52570","miles_from_dt":25.69},{"city":"Pilot Grove","state_name":"Iowa","lat":40.7703,"lng":-91.54758,"zip":"52648","miles_from_dt":26.2},{"city":"Ottumwa","state_name":"Iowa","lat":41.03828,"lng":-92.43252,"zip":"52501","miles_from_dt":26.48},{"city":"Mount Union","state_name":"Iowa","lat":41.03988,"lng":-91.41535,"zip":"52644","miles_from_dt":26.75},{"city":"Winfield","state_name":"Iowa","lat":41.13285,"lng":-91.43658,"zip":"52659","miles_from_dt":26.77},{"city":"Mount Sterling","state_name":"Iowa","lat":40.62378,"lng":-91.92979,"zip":"52573","miles_from_dt":27.23},{"city":"Saint Paul","state_name":"Iowa","lat":40.76784,"lng":-91.5164,"zip":"52657","miles_from_dt":27.57},{"city":"Cantril","state_name":"Iowa","lat":40.62712,"lng":-92.05164,"zip":"52542","miles_from_dt":27.79},{"city":"New London","state_name":"Iowa","lat":40.91429,"lng":-91.40138,"zip":"52645","miles_from_dt":28.39},{"city":"Farmington","state_name":"Iowa","lat":40.63201,"lng":-91.72119,"zip":"52626","miles_from_dt":28.75},{"city":"Ainsworth","state_name":"Iowa","lat":41.33218,"lng":-91.54704,"zip":"52201","miles_from_dt":29.33}],"targetCityZipCode":"52556","targetCityState":"Iowa"},"__N_SSG":true}