{"pageProps":{"stateName":"Iowa","cityName":"glenwood","nearbyCities":[{"city":"Pacific Junction","state_name":"Iowa","lat":41.00571,"lng":-95.80992,"zip":"51561","miles_from_dt":5.36},{"city":"Mineola","state_name":"Iowa","lat":41.14512,"lng":-95.68122,"zip":"51554","miles_from_dt":7.45},{"city":"Malvern","state_name":"Iowa","lat":40.99129,"lng":-95.58907,"zip":"51551","miles_from_dt":7.58},{"city":"Silver City","state_name":"Iowa","lat":41.14582,"lng":-95.60994,"zip":"51571","miles_from_dt":9.19},{"city":"Tabor","state_name":"Iowa","lat":40.88444,"lng":-95.67179,"zip":"51653","miles_from_dt":11.07},{"city":"Offutt Afb","state_name":"Nebraska","lat":41.11745,"lng":-95.90889,"zip":"68113","miles_from_dt":11.26},{"city":"Bellevue","state_name":"Nebraska","lat":41.14161,"lng":-95.89394,"zip":"68005","miles_from_dt":11.5},{"city":"Hastings","state_name":"Iowa","lat":41.02488,"lng":-95.49802,"zip":"51540","miles_from_dt":11.58},{"city":"St Columbans","state_name":"Nebraska","lat":41.14123,"lng":-95.90438,"zip":"68056","miles_from_dt":11.92},{"city":"Plattsmouth","state_name":"Nebraska","lat":40.98304,"lng":-95.9345,"zip":"68048","miles_from_dt":11.97},{"city":"Bellevue","state_name":"Nebraska","lat":41.10108,"lng":-95.94774,"zip":"68123","miles_from_dt":12.67},{"city":"Council Bluffs","state_name":"Iowa","lat":41.2304,"lng":-95.77795,"zip":"51503","miles_from_dt":13.44},{"city":"Thurman","state_name":"Iowa","lat":40.831,"lng":-95.76038,"zip":"51654","miles_from_dt":14.65},{"city":"Treynor","state_name":"Iowa","lat":41.24111,"lng":-95.60218,"zip":"51575","miles_from_dt":15.09},{"city":"Murray","state_name":"Nebraska","lat":40.90906,"lng":-95.95074,"zip":"68409","miles_from_dt":15.17},{"city":"Council Bluffs","state_name":"Iowa","lat":41.22828,"lng":-95.87889,"zip":"51501","miles_from_dt":15.4},{"city":"Bellevue","state_name":"Nebraska","lat":41.17655,"lng":-95.95678,"zip":"68147","miles_from_dt":15.56},{"city":"Papillion","state_name":"Nebraska","lat":41.11754,"lng":-96.00292,"zip":"68133","miles_from_dt":15.76},{"city":"Randolph","state_name":"Iowa","lat":40.8518,"lng":-95.53565,"zip":"51649","miles_from_dt":16.18},{"city":"Council Bluffs","state_name":"Iowa","lat":41.26139,"lng":-95.84988,"zip":"51502","miles_from_dt":16.69},{"city":"Omaha","state_name":"Nebraska","lat":41.20888,"lng":-95.95126,"zip":"68107","miles_from_dt":16.79},{"city":"Macedonia","state_name":"Iowa","lat":41.18253,"lng":-95.45445,"zip":"51549","miles_from_dt":16.9},{"city":"Henderson","state_name":"Iowa","lat":41.13664,"lng":-95.41623,"zip":"51541","miles_from_dt":17.11},{"city":"Omaha","state_name":"Nebraska","lat":41.17902,"lng":-95.99536,"zip":"68157","miles_from_dt":17.31},{"city":"Omaha","state_name":"Nebraska","lat":41.23759,"lng":-95.92759,"zip":"68109","miles_from_dt":17.41},{"city":"Omaha","state_name":"Nebraska","lat":41.23753,"lng":-95.93118,"zip":"68108","miles_from_dt":17.53},{"city":"Emerson","state_name":"Iowa","lat":41.03606,"lng":-95.37933,"zip":"51533","miles_from_dt":17.73},{"city":"Union","state_name":"Nebraska","lat":40.82286,"lng":-95.90123,"zip":"68455","miles_from_dt":17.83},{"city":"Omaha","state_name":"Nebraska","lat":41.2062,"lng":-96.00138,"zip":"68117","miles_from_dt":18.65},{"city":"Papillion","state_name":"Nebraska","lat":41.12206,"lng":-96.06138,"zip":"68046","miles_from_dt":18.76},{"city":"Omaha","state_name":"Nebraska","lat":41.25762,"lng":-95.93666,"zip":"68145","miles_from_dt":18.79},{"city":"Omaha","state_name":"Nebraska","lat":41.2406,"lng":-95.96429,"zip":"68105","miles_from_dt":18.82},{"city":"Omaha","state_name":"Nebraska","lat":41.25709,"lng":-95.93977,"zip":"68183","miles_from_dt":18.86},{"city":"Omaha","state_name":"Nebraska","lat":41.26219,"lng":-95.93133,"zip":"68101","miles_from_dt":18.88},{"city":"Omaha","state_name":"Nebraska","lat":41.26231,"lng":-95.93224,"zip":"68102","miles_from_dt":18.91},{"city":"Imogene","state_name":"Iowa","lat":40.88206,"lng":-95.4229,"zip":"51645","miles_from_dt":18.96},{"city":"Omaha","state_name":"Nebraska","lat":41.26277,"lng":-95.93439,"zip":"68179","miles_from_dt":19},{"city":"Omaha","state_name":"Nebraska","lat":41.25711,"lng":-95.945,"zip":"68103","miles_from_dt":19.03},{"city":"Omaha","state_name":"Nebraska","lat":41.26144,"lng":-95.93865,"zip":"68197","miles_from_dt":19.06},{"city":"Omaha","state_name":"Nebraska","lat":41.26069,"lng":-95.94059,"zip":"68176","miles_from_dt":19.08},{"city":"Omaha","state_name":"Nebraska","lat":41.26069,"lng":-95.94059,"zip":"68172","miles_from_dt":19.08},{"city":"Sidney","state_name":"Iowa","lat":40.77032,"lng":-95.62815,"zip":"51652","miles_from_dt":19.26},{"city":"Omaha","state_name":"Nebraska","lat":41.26535,"lng":-95.94535,"zip":"68178","miles_from_dt":19.49},{"city":"McClelland","state_name":"Iowa","lat":41.31713,"lng":-95.63553,"zip":"51548","miles_from_dt":19.55},{"city":"Carter Lake","state_name":"Iowa","lat":41.28844,"lng":-95.91715,"zip":"51510","miles_from_dt":19.98},{"city":"Omaha","state_name":"Nebraska","lat":41.26435,"lng":-95.96479,"zip":"68131","miles_from_dt":20.07},{"city":"Omaha","state_name":"Nebraska","lat":41.23885,"lng":-96.00244,"zip":"68106","miles_from_dt":20.15},{"city":"Omaha","state_name":"Nebraska","lat":41.26626,"lng":-95.96434,"zip":"68175","miles_from_dt":20.15},{"city":"Cedar Creek","state_name":"Nebraska","lat":41.02518,"lng":-96.1063,"zip":"68016","miles_from_dt":20.29},{"city":"Omaha","state_name":"Nebraska","lat":41.29867,"lng":-95.91143,"zip":"68110","miles_from_dt":20.43},{"city":"Carson","state_name":"Iowa","lat":41.23443,"lng":-95.41999,"zip":"51525","miles_from_dt":20.52},{"city":"La Vista","state_name":"Nebraska","lat":41.17972,"lng":-96.07081,"zip":"68128","miles_from_dt":20.73},{"city":"Nehawka","state_name":"Nebraska","lat":40.83775,"lng":-96.01053,"zip":"68413","miles_from_dt":20.74},{"city":"Omaha","state_name":"Nebraska","lat":41.3066,"lng":-95.90513,"zip":"68119","miles_from_dt":20.76},{"city":"Omaha","state_name":"Nebraska","lat":41.2061,"lng":-96.05245,"zip":"68127","miles_from_dt":20.82},{"city":"Percival","state_name":"Iowa","lat":40.74215,"lng":-95.80325,"zip":"51648","miles_from_dt":21.09},{"city":"Omaha","state_name":"Nebraska","lat":41.25775,"lng":-96.01072,"zip":"68182","miles_from_dt":21.36},{"city":"Omaha","state_name":"Nebraska","lat":41.26506,"lng":-96.00153,"zip":"68132","miles_from_dt":21.38},{"city":"Louisville","state_name":"Nebraska","lat":40.9844,"lng":-96.12673,"zip":"68037","miles_from_dt":21.69},{"city":"Omaha","state_name":"Nebraska","lat":41.266,"lng":-96.01003,"zip":"68198","miles_from_dt":21.73},{"city":"Omaha","state_name":"Nebraska","lat":41.29564,"lng":-95.96395,"zip":"68111","miles_from_dt":21.74},{"city":"Omaha","state_name":"Nebraska","lat":41.23322,"lng":-96.053,"zip":"68180","miles_from_dt":21.92},{"city":"Omaha","state_name":"Nebraska","lat":41.23515,"lng":-96.0522,"zip":"68124","miles_from_dt":21.97},{"city":"Omaha","state_name":"Nebraska","lat":41.29525,"lng":-96.00104,"zip":"68104","miles_from_dt":22.91},{"city":"Springfield","state_name":"Nebraska","lat":41.06673,"lng":-96.1595,"zip":"68059","miles_from_dt":23.1},{"city":"Omaha","state_name":"Nebraska","lat":41.26318,"lng":-96.05208,"zip":"68114","miles_from_dt":23.19},{"city":"Underwood","state_name":"Iowa","lat":41.3777,"lng":-95.70945,"zip":"51576","miles_from_dt":23.25},{"city":"Omaha","state_name":"Nebraska","lat":41.15661,"lng":-96.13891,"zip":"68138","miles_from_dt":23.35},{"city":"Omaha","state_name":"Nebraska","lat":41.20595,"lng":-96.11924,"zip":"68137","miles_from_dt":23.81},{"city":"Crescent","state_name":"Iowa","lat":41.37186,"lng":-95.87818,"zip":"51526","miles_from_dt":24.31},{"city":"Omaha","state_name":"Nebraska","lat":41.22151,"lng":-96.12024,"zip":"68139","miles_from_dt":24.38},{"city":"Red Oak","state_name":"Iowa","lat":40.97836,"lng":-95.25775,"zip":"51591","miles_from_dt":24.47},{"city":"Weeping Water","state_name":"Nebraska","lat":40.8759,"lng":-96.13518,"zip":"68463","miles_from_dt":24.59},{"city":"Omaha","state_name":"Nebraska","lat":41.29776,"lng":-96.0503,"zip":"68134","miles_from_dt":24.77},{"city":"Omaha","state_name":"Nebraska","lat":41.23473,"lng":-96.11909,"zip":"68144","miles_from_dt":24.81},{"city":"Manley","state_name":"Nebraska","lat":40.92045,"lng":-96.16707,"zip":"68403","miles_from_dt":24.89},{"city":"Oakland","state_name":"Iowa","lat":41.31746,"lng":-95.39838,"zip":"51560","miles_from_dt":25.35},{"city":"Red Oak","state_name":"Iowa","lat":41.0151,"lng":-95.22994,"zip":"51566","miles_from_dt":25.59},{"city":"Farragut","state_name":"Iowa","lat":40.71859,"lng":-95.47362,"zip":"51639","miles_from_dt":25.68},{"city":"Omaha","state_name":"Nebraska","lat":41.26408,"lng":-96.11665,"zip":"68154","miles_from_dt":25.85},{"city":"Omaha","state_name":"Nebraska","lat":41.16932,"lng":-96.18783,"zip":"68136","miles_from_dt":26.05},{"city":"Shenandoah","state_name":"Iowa","lat":40.7667,"lng":-95.37171,"zip":"51603","miles_from_dt":26.23},{"city":"Boys Town","state_name":"Nebraska","lat":41.25616,"lng":-96.13352,"zip":"68010","miles_from_dt":26.25},{"city":"Omaha","state_name":"Nebraska","lat":41.36282,"lng":-95.99995,"zip":"68152","miles_from_dt":26.62},{"city":"Omaha","state_name":"Nebraska","lat":41.38183,"lng":-95.95804,"zip":"68112","miles_from_dt":26.63},{"city":"Riverton","state_name":"Iowa","lat":40.673,"lng":-95.5492,"zip":"51650","miles_from_dt":26.89},{"city":"Omaha","state_name":"Nebraska","lat":41.29886,"lng":-96.10949,"zip":"68164","miles_from_dt":27.06},{"city":"Omaha","state_name":"Nebraska","lat":41.2052,"lng":-96.19576,"zip":"68135","miles_from_dt":27.36},{"city":"Minden","state_name":"Iowa","lat":41.41577,"lng":-95.54638,"zip":"51553","miles_from_dt":27.38},{"city":"Essex","state_name":"Iowa","lat":40.83919,"lng":-95.26663,"zip":"51638","miles_from_dt":27.44},{"city":"South Bend","state_name":"Nebraska","lat":41.00842,"lng":-96.2483,"zip":"68058","miles_from_dt":27.78},{"city":"Honey Creek","state_name":"Iowa","lat":41.43354,"lng":-95.84072,"zip":"51542","miles_from_dt":27.83},{"city":"Avoca","state_name":"Nebraska","lat":40.78769,"lng":-96.14054,"zip":"68307","miles_from_dt":28.17},{"city":"Omaha","state_name":"Nebraska","lat":41.36451,"lng":-96.05036,"zip":"68122","miles_from_dt":28.24},{"city":"Omaha","state_name":"Nebraska","lat":41.23394,"lng":-96.19613,"zip":"68130","miles_from_dt":28.25},{"city":"Omaha","state_name":"Nebraska","lat":41.263,"lng":-96.1772,"zip":"68118","miles_from_dt":28.41},{"city":"Gretna","state_name":"Nebraska","lat":41.10513,"lng":-96.26098,"zip":"68028","miles_from_dt":28.67},{"city":"Otoe","state_name":"Nebraska","lat":40.7359,"lng":-96.09199,"zip":"68417","miles_from_dt":28.73},{"city":"Shenandoah","state_name":"Iowa","lat":40.72938,"lng":-95.35037,"zip":"51601","miles_from_dt":28.88},{"city":"Hamburg","state_name":"Iowa","lat":40.62262,"lng":-95.6634,"zip":"51640","miles_from_dt":29.01},{"city":"Neola","state_name":"Iowa","lat":41.46034,"lng":-95.66049,"zip":"51559","miles_from_dt":29.1},{"city":"Nebraska City","state_name":"Nebraska","lat":40.63729,"lng":-95.88584,"zip":"68410","miles_from_dt":29.2},{"city":"Omaha","state_name":"Nebraska","lat":41.29842,"lng":-96.16629,"zip":"68116","miles_from_dt":29.34},{"city":"Murdock","state_name":"Nebraska","lat":40.921,"lng":-96.26263,"zip":"68407","miles_from_dt":29.63}],"targetCityZipCode":"51534","targetCityState":"Iowa"},"__N_SSG":true}