{"pageProps":{"stateName":"Iowa","cityName":"manly","nearbyCities":[{"city":"Kensett","state_name":"Iowa","lat":43.35053,"lng":-93.24753,"zip":"50448","miles_from_dt":4.6},{"city":"Plymouth","state_name":"Iowa","lat":43.25146,"lng":-93.0765,"zip":"50464","miles_from_dt":7.47},{"city":"Grafton","state_name":"Iowa","lat":43.33213,"lng":-93.06891,"zip":"50440","miles_from_dt":8},{"city":"Hanlontown","state_name":"Iowa","lat":43.29258,"lng":-93.38601,"zip":"50444","miles_from_dt":8.59},{"city":"Mason City","state_name":"Iowa","lat":43.15389,"lng":-93.20006,"zip":"50401","miles_from_dt":9.3},{"city":"Rock Falls","state_name":"Iowa","lat":43.20916,"lng":-93.06608,"zip":"50467","miles_from_dt":9.32},{"city":"Mason City","state_name":"Iowa","lat":43.15167,"lng":-93.20448,"zip":"50402","miles_from_dt":9.44},{"city":"Northwood","state_name":"Iowa","lat":43.4458,"lng":-93.25445,"zip":"50459","miles_from_dt":11.06},{"city":"Fertile","state_name":"Iowa","lat":43.25857,"lng":-93.45758,"zip":"50434","miles_from_dt":12.37},{"city":"Joice","state_name":"Iowa","lat":43.33821,"lng":-93.45394,"zip":"50446","miles_from_dt":12.49},{"city":"Carpenter","state_name":"Iowa","lat":43.41507,"lng":-93.01718,"zip":"50426","miles_from_dt":13.3},{"city":"Clear Lake","state_name":"Iowa","lat":43.13573,"lng":-93.38815,"zip":"50428","miles_from_dt":13.65},{"city":"Nora Springs","state_name":"Iowa","lat":43.15969,"lng":-93.00609,"zip":"50458","miles_from_dt":13.81},{"city":"Toeterville","state_name":"Iowa","lat":43.37833,"lng":-92.91861,"zip":"50481","miles_from_dt":16.22},{"city":"Saint Ansgar","state_name":"Iowa","lat":43.42265,"lng":-92.94644,"zip":"50472","miles_from_dt":16.44},{"city":"Ventura","state_name":"Iowa","lat":43.12356,"lng":-93.48167,"zip":"50482","miles_from_dt":17.59},{"city":"Lake Mills","state_name":"Iowa","lat":43.42045,"lng":-93.51998,"zip":"50450","miles_from_dt":17.84},{"city":"Glenville","state_name":"Minnesota","lat":43.5513,"lng":-93.22152,"zip":"56036","miles_from_dt":18.17},{"city":"Rudd","state_name":"Iowa","lat":43.16486,"lng":-92.87834,"zip":"50471","miles_from_dt":19.04},{"city":"Rockwell","state_name":"Iowa","lat":42.99922,"lng":-93.19767,"zip":"50469","miles_from_dt":19.96},{"city":"Osage","state_name":"Iowa","lat":43.29995,"lng":-92.81412,"zip":"50461","miles_from_dt":20.27},{"city":"Lyle","state_name":"Minnesota","lat":43.52772,"lng":-92.96521,"zip":"55953","miles_from_dt":20.8},{"city":"Rockford","state_name":"Iowa","lat":43.04631,"lng":-92.95703,"zip":"50468","miles_from_dt":21.2},{"city":"Swaledale","state_name":"Iowa","lat":42.98743,"lng":-93.32731,"zip":"50477","miles_from_dt":21.51},{"city":"Twin Lakes","state_name":"Minnesota","lat":43.55631,"lng":-93.4508,"zip":"56089","miles_from_dt":21.97},{"city":"Forest City","state_name":"Iowa","lat":43.26256,"lng":-93.66242,"zip":"50436","miles_from_dt":22.6},{"city":"Leland","state_name":"Iowa","lat":43.3664,"lng":-93.65258,"zip":"50453","miles_from_dt":22.67},{"city":"Emmons","state_name":"Minnesota","lat":43.52519,"lng":-93.53003,"zip":"56029","miles_from_dt":22.76},{"city":"Garner","state_name":"Iowa","lat":43.11018,"lng":-93.61841,"zip":"50438","miles_from_dt":23.76},{"city":"Floyd","state_name":"Iowa","lat":43.15752,"lng":-92.76877,"zip":"50435","miles_from_dt":24.3},{"city":"Little Cedar","state_name":"Iowa","lat":43.38505,"lng":-92.73935,"zip":"50454","miles_from_dt":24.92},{"city":"Hayward","state_name":"Minnesota","lat":43.65236,"lng":-93.22809,"zip":"56043","miles_from_dt":25.15},{"city":"Stacyville","state_name":"Iowa","lat":43.4527,"lng":-92.76311,"zip":"50476","miles_from_dt":25.47},{"city":"Thornton","state_name":"Iowa","lat":42.94121,"lng":-93.4082,"zip":"50479","miles_from_dt":25.85},{"city":"Scarville","state_name":"Iowa","lat":43.46402,"lng":-93.67429,"zip":"50473","miles_from_dt":26.09},{"city":"Klemme","state_name":"Iowa","lat":43.00129,"lng":-93.55629,"zip":"50449","miles_from_dt":26.24},{"city":"Dougherty","state_name":"Iowa","lat":42.92852,"lng":-93.04774,"zip":"50433","miles_from_dt":26.24},{"city":"Albert Lea","state_name":"Minnesota","lat":43.66085,"lng":-93.3238,"zip":"56007","miles_from_dt":26.3},{"city":"Orchard","state_name":"Iowa","lat":43.2259,"lng":-92.6902,"zip":"50460","miles_from_dt":26.86},{"city":"Conger","state_name":"Minnesota","lat":43.6146,"lng":-93.53019,"zip":"56020","miles_from_dt":27.53},{"city":"Marble Rock","state_name":"Iowa","lat":42.96737,"lng":-92.88927,"zip":"50653","miles_from_dt":27.62},{"city":"Sheffield","state_name":"Iowa","lat":42.87902,"lng":-93.21852,"zip":"50475","miles_from_dt":28.24},{"city":"Rose Creek","state_name":"Minnesota","lat":43.59681,"lng":-92.83118,"zip":"55970","miles_from_dt":28.78},{"city":"Meservey","state_name":"Iowa","lat":42.91418,"lng":-93.4928,"zip":"50457","miles_from_dt":29.37},{"city":"Austin","state_name":"Minnesota","lat":43.6827,"lng":-92.99148,"zip":"55912","miles_from_dt":29.48},{"city":"Crystal Lake","state_name":"Iowa","lat":43.22394,"lng":-93.79794,"zip":"50432","miles_from_dt":29.71},{"city":"Thompson","state_name":"Iowa","lat":43.40377,"lng":-93.78448,"zip":"50478","miles_from_dt":29.74}],"targetCityZipCode":"50456","targetCityState":"Iowa"},"__N_SSG":true}