{"pageProps":{"stateName":"Iowa","cityName":"new-sharon","nearbyCities":[{"city":"Barnes City","state_name":"Iowa","lat":41.4739,"lng":-92.47194,"zip":"50027","miles_from_dt":9.07},{"city":"Searsboro","state_name":"Iowa","lat":41.56332,"lng":-92.69428,"zip":"50242","miles_from_dt":9.43},{"city":"University Park","state_name":"Iowa","lat":41.28847,"lng":-92.61506,"zip":"52595","miles_from_dt":10.08},{"city":"Leighton","state_name":"Iowa","lat":41.34245,"lng":-92.79893,"zip":"50143","miles_from_dt":10.45},{"city":"Rose Hill","state_name":"Iowa","lat":41.34573,"lng":-92.46694,"zip":"52586","miles_from_dt":10.76},{"city":"Oskaloosa","state_name":"Iowa","lat":41.27174,"lng":-92.6602,"zip":"52577","miles_from_dt":11.22},{"city":"Beacon","state_name":"Iowa","lat":41.27342,"lng":-92.6806,"zip":"52534","miles_from_dt":11.26},{"city":"Montezuma","state_name":"Iowa","lat":41.58434,"lng":-92.52584,"zip":"50171","miles_from_dt":11.93},{"city":"Lynnville","state_name":"Iowa","lat":41.57669,"lng":-92.80033,"zip":"50153","miles_from_dt":12.98},{"city":"Gibson","state_name":"Iowa","lat":41.49458,"lng":-92.38841,"zip":"50104","miles_from_dt":13.63},{"city":"Pella","state_name":"Iowa","lat":41.42243,"lng":-92.90132,"zip":"50219","miles_from_dt":13.69},{"city":"What Cheer","state_name":"Iowa","lat":41.40695,"lng":-92.36227,"zip":"50268","miles_from_dt":14.44},{"city":"Sully","state_name":"Iowa","lat":41.56883,"lng":-92.87007,"zip":"50251","miles_from_dt":15.24},{"city":"Thornburg","state_name":"Iowa","lat":41.45593,"lng":-92.33207,"zip":"50255","miles_from_dt":15.97},{"city":"Delta","state_name":"Iowa","lat":41.31635,"lng":-92.36254,"zip":"52550","miles_from_dt":16.45},{"city":"Cedar","state_name":"Iowa","lat":41.20065,"lng":-92.51773,"zip":"52543","miles_from_dt":17.24},{"city":"Fremont","state_name":"Iowa","lat":41.22135,"lng":-92.44081,"zip":"52561","miles_from_dt":17.88},{"city":"Harvey","state_name":"Iowa","lat":41.31089,"lng":-92.94587,"zip":"50119","miles_from_dt":18.1},{"city":"Keswick","state_name":"Iowa","lat":41.46984,"lng":-92.28927,"zip":"50136","miles_from_dt":18.28},{"city":"Tracy","state_name":"Iowa","lat":41.2664,"lng":-92.91114,"zip":"50256","miles_from_dt":18.29},{"city":"Deep River","state_name":"Iowa","lat":41.57623,"lng":-92.33693,"zip":"52222","miles_from_dt":18.47},{"city":"Killduff","state_name":"Iowa","lat":41.60872,"lng":-92.92126,"zip":"50137","miles_from_dt":19.03},{"city":"Reasnor","state_name":"Iowa","lat":41.55761,"lng":-92.96868,"zip":"50232","miles_from_dt":19.17},{"city":"Eddyville","state_name":"Iowa","lat":41.14865,"lng":-92.65668,"zip":"52553","miles_from_dt":19.68},{"city":"Bussey","state_name":"Iowa","lat":41.20247,"lng":-92.88907,"zip":"50044","miles_from_dt":20.6},{"city":"Grinnell","state_name":"Iowa","lat":41.7319,"lng":-92.71591,"zip":"50112","miles_from_dt":20.99},{"city":"Guernsey","state_name":"Iowa","lat":41.64151,"lng":-92.33215,"zip":"52221","miles_from_dt":21.4},{"city":"Otley","state_name":"Iowa","lat":41.46246,"lng":-93.05528,"zip":"50214","miles_from_dt":21.75},{"city":"Malcom","state_name":"Iowa","lat":41.74545,"lng":-92.56183,"zip":"50157","miles_from_dt":21.89},{"city":"Kirkville","state_name":"Iowa","lat":41.12887,"lng":-92.50547,"zip":"52566","miles_from_dt":22.12},{"city":"Hayesville","state_name":"Iowa","lat":41.26539,"lng":-92.24858,"zip":"52562","miles_from_dt":23.34},{"city":"Webster","state_name":"Iowa","lat":41.4576,"lng":-92.18387,"zip":"52355","miles_from_dt":23.64},{"city":"Sigourney","state_name":"Iowa","lat":41.31988,"lng":-92.19465,"zip":"52591","miles_from_dt":24.35},{"city":"Brooklyn","state_name":"Iowa","lat":41.75978,"lng":-92.45062,"zip":"52211","miles_from_dt":24.53},{"city":"Chillicothe","state_name":"Iowa","lat":41.0855,"lng":-92.5306,"zip":"52548","miles_from_dt":24.65},{"city":"Hamilton","state_name":"Iowa","lat":41.17812,"lng":-92.98247,"zip":"50116","miles_from_dt":25.13},{"city":"Kellogg","state_name":"Iowa","lat":41.7475,"lng":-92.89096,"zip":"50135","miles_from_dt":25.33},{"city":"Monroe","state_name":"Iowa","lat":41.52911,"lng":-93.11546,"zip":"50170","miles_from_dt":25.64},{"city":"Knoxville","state_name":"Iowa","lat":41.30246,"lng":-93.10534,"zip":"50138","miles_from_dt":25.92},{"city":"Hedrick","state_name":"Iowa","lat":41.17295,"lng":-92.27765,"zip":"52563","miles_from_dt":25.98},{"city":"Victor","state_name":"Iowa","lat":41.71345,"lng":-92.28591,"zip":"52347","miles_from_dt":26.58},{"city":"Millersburg","state_name":"Iowa","lat":41.5733,"lng":-92.1592,"zip":"52308","miles_from_dt":26.65},{"city":"Martinsburg","state_name":"Iowa","lat":41.1779,"lng":-92.25077,"zip":"52568","miles_from_dt":26.78},{"city":"Lovilia","state_name":"Iowa","lat":41.12771,"lng":-92.97404,"zip":"50150","miles_from_dt":27.4},{"city":"Newton","state_name":"Iowa","lat":41.71129,"lng":-93.03924,"zip":"50208","miles_from_dt":28.28},{"city":"North English","state_name":"Iowa","lat":41.53727,"lng":-92.09367,"zip":"52316","miles_from_dt":29.15},{"city":"Ottumwa","state_name":"Iowa","lat":41.03828,"lng":-92.43252,"zip":"52501","miles_from_dt":29.3},{"city":"Albia","state_name":"Iowa","lat":41.02684,"lng":-92.81562,"zip":"52531","miles_from_dt":29.54},{"city":"Ladora","state_name":"Iowa","lat":41.71218,"lng":-92.20314,"zip":"52251","miles_from_dt":29.63},{"city":"Hartwick","state_name":"Iowa","lat":41.80128,"lng":-92.34043,"zip":"52232","miles_from_dt":29.7}],"targetCityZipCode":"50207","targetCityState":"Iowa"},"__N_SSG":true}