{"pageProps":{"stateName":"Iowa","cityName":"readlyn","nearbyCities":[{"city":"Denver","state_name":"Iowa","lat":42.67358,"lng":-92.33358,"zip":"50622","miles_from_dt":5.58},{"city":"Tripoli","state_name":"Iowa","lat":42.7943,"lng":-92.27895,"zip":"50676","miles_from_dt":7.62},{"city":"Oran","state_name":"Iowa","lat":42.70698,"lng":-92.07222,"zip":"50664","miles_from_dt":7.93},{"city":"Fairbank","state_name":"Iowa","lat":42.64222,"lng":-92.081,"zip":"50629","miles_from_dt":8.14},{"city":"Dunkerton","state_name":"Iowa","lat":42.58028,"lng":-92.17049,"zip":"50626","miles_from_dt":8.15},{"city":"Waterloo","state_name":"Iowa","lat":42.54817,"lng":-92.28195,"zip":"50703","miles_from_dt":10.25},{"city":"Dewar","state_name":"Iowa","lat":42.52693,"lng":-92.20962,"zip":"50623","miles_from_dt":11.35},{"city":"Waterloo","state_name":"Iowa","lat":42.52769,"lng":-92.27167,"zip":"50704","miles_from_dt":11.5},{"city":"Sumner","state_name":"Iowa","lat":42.84202,"lng":-92.11746,"zip":"50674","miles_from_dt":11.82},{"city":"Waverly","state_name":"Iowa","lat":42.76363,"lng":-92.43775,"zip":"50677","miles_from_dt":11.87},{"city":"Westgate","state_name":"Iowa","lat":42.77754,"lng":-92.00931,"zip":"50681","miles_from_dt":12.57},{"city":"Janesville","state_name":"Iowa","lat":42.64787,"lng":-92.48026,"zip":"50647","miles_from_dt":13.26},{"city":"Frederika","state_name":"Iowa","lat":42.88254,"lng":-92.30929,"zip":"50631","miles_from_dt":13.88},{"city":"Oelwein","state_name":"Iowa","lat":42.68748,"lng":-91.93396,"zip":"50662","miles_from_dt":14.9},{"city":"Evansdale","state_name":"Iowa","lat":42.4771,"lng":-92.27918,"zip":"50707","miles_from_dt":15},{"city":"Raymond","state_name":"Iowa","lat":42.47003,"lng":-92.22545,"zip":"50667","miles_from_dt":15.24},{"city":"Waterloo","state_name":"Iowa","lat":42.45745,"lng":-92.31283,"zip":"50702","miles_from_dt":16.7},{"city":"Hazleton","state_name":"Iowa","lat":42.59746,"lng":-91.91961,"zip":"50641","miles_from_dt":16.92},{"city":"Cedar Falls","state_name":"Iowa","lat":42.53358,"lng":-92.49069,"zip":"50613","miles_from_dt":17.3},{"city":"Cedar Falls","state_name":"Iowa","lat":42.50928,"lng":-92.46075,"zip":"50614","miles_from_dt":17.31},{"city":"Maynard","state_name":"Iowa","lat":42.77232,"lng":-91.9016,"zip":"50655","miles_from_dt":17.46},{"city":"Jesup","state_name":"Iowa","lat":42.45182,"lng":-92.09465,"zip":"50648","miles_from_dt":17.82},{"city":"Fredericksburg","state_name":"Iowa","lat":42.95651,"lng":-92.21346,"zip":"50630","miles_from_dt":18.35},{"city":"Plainfield","state_name":"Iowa","lat":42.85995,"lng":-92.50933,"zip":"50666","miles_from_dt":18.52},{"city":"Gilbertville","state_name":"Iowa","lat":42.4181,"lng":-92.21422,"zip":"50634","miles_from_dt":18.84},{"city":"Waterloo","state_name":"Iowa","lat":42.4171,"lng":-92.34448,"zip":"50701","miles_from_dt":19.83},{"city":"Shell Rock","state_name":"Iowa","lat":42.68425,"lng":-92.61586,"zip":"50670","miles_from_dt":19.83},{"city":"Randalia","state_name":"Iowa","lat":42.85212,"lng":-91.89941,"zip":"52164","miles_from_dt":20.01},{"city":"Stanley","state_name":"Iowa","lat":42.6523,"lng":-91.7997,"zip":"50671","miles_from_dt":21.9},{"city":"New Hartford","state_name":"Iowa","lat":42.58099,"lng":-92.63752,"zip":"50660","miles_from_dt":22.28},{"city":"Independence","state_name":"Iowa","lat":42.47751,"lng":-91.89721,"zip":"50644","miles_from_dt":22.34},{"city":"Hawkeye","state_name":"Iowa","lat":42.94957,"lng":-91.96106,"zip":"52147","miles_from_dt":22.38},{"city":"Clarksville","state_name":"Iowa","lat":42.79725,"lng":-92.66266,"zip":"50619","miles_from_dt":23.37},{"city":"Nashua","state_name":"Iowa","lat":42.95024,"lng":-92.53782,"zip":"50658","miles_from_dt":23.89},{"city":"Fayette","state_name":"Iowa","lat":42.82752,"lng":-91.79441,"zip":"52142","miles_from_dt":23.92},{"city":"Aurora","state_name":"Iowa","lat":42.60872,"lng":-91.74747,"zip":"50607","miles_from_dt":25.06},{"city":"La Porte City","state_name":"Iowa","lat":42.32271,"lng":-92.19993,"zip":"50651","miles_from_dt":25.45},{"city":"Ionia","state_name":"Iowa","lat":43.02174,"lng":-92.44952,"zip":"50645","miles_from_dt":25.49},{"city":"North Washington","state_name":"Iowa","lat":43.05755,"lng":-92.31272,"zip":"50661","miles_from_dt":25.69},{"city":"Hudson","state_name":"Iowa","lat":42.36413,"lng":-92.47402,"zip":"50643","miles_from_dt":25.85},{"city":"Brandon","state_name":"Iowa","lat":42.33905,"lng":-92.00537,"zip":"52210","miles_from_dt":26.78},{"city":"Dike","state_name":"Iowa","lat":42.46874,"lng":-92.65879,"zip":"50624","miles_from_dt":26.86},{"city":"Stout","state_name":"Iowa","lat":42.52505,"lng":-92.7113,"zip":"50673","miles_from_dt":27.24},{"city":"New Hampton","state_name":"Iowa","lat":43.08749,"lng":-92.3221,"zip":"50659","miles_from_dt":27.8},{"city":"Arlington","state_name":"Iowa","lat":42.74669,"lng":-91.68299,"zip":"50606","miles_from_dt":27.93},{"city":"Waucoma","state_name":"Iowa","lat":43.07451,"lng":-92.04808,"zip":"52171","miles_from_dt":27.99},{"city":"Parkersburg","state_name":"Iowa","lat":42.58078,"lng":-92.7717,"zip":"50665","miles_from_dt":28.81},{"city":"Buckingham","state_name":"Iowa","lat":42.28546,"lng":-92.38687,"zip":"50612","miles_from_dt":29.16},{"city":"West Union","state_name":"Iowa","lat":42.99372,"lng":-91.82389,"zip":"52175","miles_from_dt":29.25},{"city":"Lamont","state_name":"Iowa","lat":42.61915,"lng":-91.65429,"zip":"50650","miles_from_dt":29.57},{"city":"Allison","state_name":"Iowa","lat":42.74036,"lng":-92.80581,"zip":"50602","miles_from_dt":29.68},{"city":"Rowley","state_name":"Iowa","lat":42.35894,"lng":-91.85405,"zip":"52329","miles_from_dt":29.77},{"city":"Lawler","state_name":"Iowa","lat":43.12201,"lng":-92.16519,"zip":"52154","miles_from_dt":29.92},{"city":"Saint Lucas","state_name":"Iowa","lat":43.06791,"lng":-91.93547,"zip":"52166","miles_from_dt":29.93}],"targetCityZipCode":"50668","targetCityState":"Iowa"},"__N_SSG":true}