{"pageProps":{"stateName":"Iowa","cityName":"sergeant-bluff","nearbyCities":[{"city":"Sioux City","state_name":"Iowa","lat":42.41773,"lng":-96.33961,"zip":"51102","miles_from_dt":2.75},{"city":"Sioux City","state_name":"Iowa","lat":42.41129,"lng":-96.38606,"zip":"51111","miles_from_dt":3.6},{"city":"Salix","state_name":"Iowa","lat":42.31063,"lng":-96.26343,"zip":"51052","miles_from_dt":5.83},{"city":"Sioux City","state_name":"Iowa","lat":42.46292,"lng":-96.32,"zip":"51106","miles_from_dt":5.87},{"city":"Homer","state_name":"Nebraska","lat":42.3184,"lng":-96.45057,"zip":"68030","miles_from_dt":7.36},{"city":"Bronson","state_name":"Iowa","lat":42.40225,"lng":-96.18857,"zip":"51007","miles_from_dt":7.5},{"city":"South Sioux City","state_name":"Nebraska","lat":42.4601,"lng":-96.44424,"zip":"68776","miles_from_dt":8.07},{"city":"Dakota City","state_name":"Nebraska","lat":42.40993,"lng":-96.48341,"zip":"68731","miles_from_dt":8.07},{"city":"Sioux City","state_name":"Iowa","lat":42.49413,"lng":-96.39361,"zip":"51101","miles_from_dt":8.6},{"city":"Sioux City","state_name":"Iowa","lat":42.50808,"lng":-96.3671,"zip":"51105","miles_from_dt":9.14},{"city":"Lawton","state_name":"Iowa","lat":42.49791,"lng":-96.19365,"zip":"51030","miles_from_dt":10.86},{"city":"Sioux City","state_name":"Iowa","lat":42.53518,"lng":-96.40389,"zip":"51104","miles_from_dt":11.44},{"city":"Sioux City","state_name":"Iowa","lat":42.52173,"lng":-96.44642,"zip":"51103","miles_from_dt":11.51},{"city":"Sloan","state_name":"Iowa","lat":42.21162,"lng":-96.26069,"zip":"51055","miles_from_dt":12.07},{"city":"Winnebago","state_name":"Nebraska","lat":42.23605,"lng":-96.47446,"zip":"68071","miles_from_dt":12.25},{"city":"Sioux City","state_name":"Iowa","lat":42.56625,"lng":-96.34858,"zip":"51108","miles_from_dt":13},{"city":"Climbing Hill","state_name":"Iowa","lat":42.33936,"lng":-96.08107,"zip":"51015","miles_from_dt":13.1},{"city":"Hubbard","state_name":"Nebraska","lat":42.35711,"lng":-96.59375,"zip":"68741","miles_from_dt":13.5},{"city":"North Sioux City","state_name":"South Dakota","lat":42.52486,"lng":-96.50732,"zip":"57049","miles_from_dt":13.53},{"city":"Moville","state_name":"Iowa","lat":42.45655,"lng":-96.05381,"zip":"51039","miles_from_dt":15.2},{"city":"Hornick","state_name":"Iowa","lat":42.24857,"lng":-96.07592,"zip":"51026","miles_from_dt":15.87},{"city":"Jackson","state_name":"Nebraska","lat":42.47271,"lng":-96.62586,"zip":"68743","miles_from_dt":16.4},{"city":"Sioux City","state_name":"Iowa","lat":42.59873,"lng":-96.47804,"zip":"51109","miles_from_dt":16.95},{"city":"Hinton","state_name":"Iowa","lat":42.6201,"lng":-96.26564,"zip":"51024","miles_from_dt":17.03},{"city":"Walthill","state_name":"Nebraska","lat":42.1519,"lng":-96.48603,"zip":"68067","miles_from_dt":17.52},{"city":"Macy","state_name":"Nebraska","lat":42.112,"lng":-96.34397,"zip":"68039","miles_from_dt":18.39},{"city":"Whiting","state_name":"Iowa","lat":42.13103,"lng":-96.18611,"zip":"51063","miles_from_dt":18.63},{"city":"Jefferson","state_name":"South Dakota","lat":42.57924,"lng":-96.57957,"zip":"57038","miles_from_dt":18.78},{"city":"Waterbury","state_name":"Nebraska","lat":42.42796,"lng":-96.7224,"zip":"68785","miles_from_dt":20.28},{"city":"Emerson","state_name":"Nebraska","lat":42.28278,"lng":-96.72245,"zip":"68733","miles_from_dt":21.08},{"city":"Anthon","state_name":"Iowa","lat":42.3762,"lng":-95.916,"zip":"51004","miles_from_dt":21.27},{"city":"Thurston","state_name":"Nebraska","lat":42.19538,"lng":-96.6743,"zip":"68062","miles_from_dt":21.63},{"city":"Smithland","state_name":"Iowa","lat":42.23443,"lng":-95.95391,"zip":"51056","miles_from_dt":21.75},{"city":"Oto","state_name":"Iowa","lat":42.30113,"lng":-95.91716,"zip":"51044","miles_from_dt":21.88},{"city":"Rodney","state_name":"Iowa","lat":42.20443,"lng":-95.96988,"zip":"51051","miles_from_dt":22.08},{"city":"Merrill","state_name":"Iowa","lat":42.7056,"lng":-96.31569,"zip":"51038","miles_from_dt":22.6},{"city":"Kingsley","state_name":"Iowa","lat":42.59909,"lng":-95.99199,"zip":"51028","miles_from_dt":23.09},{"city":"Rosalie","state_name":"Nebraska","lat":42.05747,"lng":-96.47192,"zip":"68055","miles_from_dt":23.29},{"city":"Westfield","state_name":"Iowa","lat":42.70623,"lng":-96.53511,"zip":"51062","miles_from_dt":24.9},{"city":"Ponca","state_name":"Nebraska","lat":42.56287,"lng":-96.76898,"zip":"68770","miles_from_dt":25.73},{"city":"Allen","state_name":"Nebraska","lat":42.439,"lng":-96.84784,"zip":"68710","miles_from_dt":26.74},{"city":"Onawa","state_name":"Iowa","lat":42.03073,"lng":-96.0706,"zip":"51040","miles_from_dt":27.48},{"city":"Pierson","state_name":"Iowa","lat":42.57963,"lng":-95.86412,"zip":"51048","miles_from_dt":27.63},{"city":"Correctionville","state_name":"Iowa","lat":42.46907,"lng":-95.80113,"zip":"51016","miles_from_dt":27.84},{"city":"Pender","state_name":"Nebraska","lat":42.10592,"lng":-96.7325,"zip":"68047","miles_from_dt":27.86},{"city":"Decatur","state_name":"Nebraska","lat":41.9762,"lng":-96.25627,"zip":"68020","miles_from_dt":28.02},{"city":"Castana","state_name":"Iowa","lat":42.09309,"lng":-95.92044,"zip":"51010","miles_from_dt":28.85},{"city":"Wakefield","state_name":"Nebraska","lat":42.25763,"lng":-96.88657,"zip":"68784","miles_from_dt":29.62},{"city":"Elk Point","state_name":"South Dakota","lat":42.71718,"lng":-96.68894,"zip":"57025","miles_from_dt":29.66},{"city":"Bancroft","state_name":"Nebraska","lat":42.00888,"lng":-96.62978,"zip":"68004","miles_from_dt":29.74},{"city":"Lyons","state_name":"Nebraska","lat":41.95458,"lng":-96.4432,"zip":"68038","miles_from_dt":29.8}],"targetCityZipCode":"51054","targetCityState":"Iowa"},"__N_SSG":true}