{"pageProps":{"stateName":"Iowa","cityName":"williamson","nearbyCities":[{"city":"Chariton","state_name":"Iowa","lat":41.03741,"lng":-93.29566,"zip":"50049","miles_from_dt":4.04},{"city":"Columbia","state_name":"Iowa","lat":41.17859,"lng":-93.14554,"zip":"50057","miles_from_dt":8.53},{"city":"Russell","state_name":"Iowa","lat":40.97124,"lng":-93.17502,"zip":"50238","miles_from_dt":9.13},{"city":"Lacona","state_name":"Iowa","lat":41.19237,"lng":-93.36683,"zip":"50139","miles_from_dt":9.2},{"city":"Melcher Dallas","state_name":"Iowa","lat":41.2223,"lng":-93.24101,"zip":"50163","miles_from_dt":9.3},{"city":"Melcher Dallas","state_name":"Iowa","lat":41.23499,"lng":-93.24425,"zip":"50062","miles_from_dt":10.16},{"city":"Lucas","state_name":"Iowa","lat":41.08074,"lng":-93.49717,"zip":"50151","miles_from_dt":12.56},{"city":"Melrose","state_name":"Iowa","lat":40.97968,"lng":-93.04939,"zip":"52569","miles_from_dt":13.17},{"city":"Liberty Center","state_name":"Iowa","lat":41.20387,"lng":-93.48515,"zip":"50145","miles_from_dt":14.34},{"city":"Derby","state_name":"Iowa","lat":40.94229,"lng":-93.46704,"zip":"50068","miles_from_dt":14.9},{"city":"Lovilia","state_name":"Iowa","lat":41.12771,"lng":-92.97404,"zip":"50150","miles_from_dt":15.01},{"city":"Hamilton","state_name":"Iowa","lat":41.17812,"lng":-92.98247,"zip":"50116","miles_from_dt":15.6},{"city":"Milo","state_name":"Iowa","lat":41.28289,"lng":-93.42629,"zip":"50166","miles_from_dt":16.09},{"city":"Knoxville","state_name":"Iowa","lat":41.30246,"lng":-93.10534,"zip":"50138","miles_from_dt":16.77},{"city":"Millerton","state_name":"Iowa","lat":40.84808,"lng":-93.30937,"zip":"50165","miles_from_dt":16.79},{"city":"Woodburn","state_name":"Iowa","lat":41.04375,"lng":-93.58852,"zip":"50275","miles_from_dt":17.59},{"city":"Pleasantville","state_name":"Iowa","lat":41.3823,"lng":-93.27103,"zip":"50225","miles_from_dt":20.32},{"city":"Promise City","state_name":"Iowa","lat":40.80284,"lng":-93.1555,"zip":"52583","miles_from_dt":20.39},{"city":"Bussey","state_name":"Iowa","lat":41.20247,"lng":-92.88907,"zip":"50044","miles_from_dt":20.74},{"city":"Ackworth","state_name":"Iowa","lat":41.3611,"lng":-93.43321,"zip":"50001","miles_from_dt":20.96},{"city":"Humeston","state_name":"Iowa","lat":40.83938,"lng":-93.50634,"zip":"50123","miles_from_dt":21.56},{"city":"Tracy","state_name":"Iowa","lat":41.2664,"lng":-92.91114,"zip":"50256","miles_from_dt":21.82},{"city":"Plano","state_name":"Iowa","lat":40.80504,"lng":-93.06265,"zip":"52581","miles_from_dt":22.02},{"city":"Harvey","state_name":"Iowa","lat":41.31089,"lng":-92.94587,"zip":"50119","miles_from_dt":22.34},{"city":"Corydon","state_name":"Iowa","lat":40.75508,"lng":-93.31922,"zip":"50060","miles_from_dt":23.21},{"city":"Albia","state_name":"Iowa","lat":41.02684,"lng":-92.81562,"zip":"52531","miles_from_dt":23.43},{"city":"Indianola","state_name":"Iowa","lat":41.33286,"lng":-93.57957,"zip":"50125","miles_from_dt":23.84},{"city":"New Virginia","state_name":"Iowa","lat":41.18998,"lng":-93.6978,"zip":"50210","miles_from_dt":24.06},{"city":"Mystic","state_name":"Iowa","lat":40.80822,"lng":-92.96948,"zip":"52574","miles_from_dt":24.47},{"city":"Swan","state_name":"Iowa","lat":41.45881,"lng":-93.31518,"zip":"50252","miles_from_dt":25.76},{"city":"Hartford","state_name":"Iowa","lat":41.45957,"lng":-93.37673,"zip":"50118","miles_from_dt":26.38},{"city":"Moravia","state_name":"Iowa","lat":40.87739,"lng":-92.83114,"zip":"52571","miles_from_dt":26.59},{"city":"Weldon","state_name":"Iowa","lat":40.89919,"lng":-93.70071,"zip":"50264","miles_from_dt":26.62},{"city":"Osceola","state_name":"Iowa","lat":41.03292,"lng":-93.76557,"zip":"50213","miles_from_dt":26.84},{"city":"Garden Grove","state_name":"Iowa","lat":40.79292,"lng":-93.61079,"zip":"50103","miles_from_dt":27.53},{"city":"Otley","state_name":"Iowa","lat":41.46246,"lng":-93.05528,"zip":"50214","miles_from_dt":27.88},{"city":"Carlisle","state_name":"Iowa","lat":41.47551,"lng":-93.46556,"zip":"50047","miles_from_dt":28.86},{"city":"Allerton","state_name":"Iowa","lat":40.67847,"lng":-93.38549,"zip":"50008","miles_from_dt":29.06},{"city":"Saint Marys","state_name":"Iowa","lat":41.30771,"lng":-93.73368,"zip":"50241","miles_from_dt":29.11},{"city":"Pella","state_name":"Iowa","lat":41.42243,"lng":-92.90132,"zip":"50219","miles_from_dt":29.58},{"city":"Leighton","state_name":"Iowa","lat":41.34245,"lng":-92.79893,"zip":"50143","miles_from_dt":29.62},{"city":"Seymour","state_name":"Iowa","lat":40.6654,"lng":-93.13594,"zip":"52590","miles_from_dt":29.85}],"targetCityZipCode":"50272","targetCityState":"Iowa"},"__N_SSG":true}