{"pageProps":{"stateName":"North-carolina","cityName":"clemmons","nearbyCities":[{"city":"Winston Salem","state_name":"North Carolina","lat":36.05696,"lng":-80.32072,"zip":"27130","miles_from_dt":4.75},{"city":"Winston Salem","state_name":"North Carolina","lat":36.05822,"lng":-80.32125,"zip":"27103","miles_from_dt":4.8},{"city":"Winston Salem","state_name":"North Carolina","lat":36.0594,"lng":-80.32198,"zip":"27157","miles_from_dt":4.84},{"city":"Advance","state_name":"North Carolina","lat":35.94352,"lng":-80.43673,"zip":"27006","miles_from_dt":5.42},{"city":"Winston Salem","state_name":"North Carolina","lat":36.02028,"lng":-80.27847,"zip":"27127","miles_from_dt":5.54},{"city":"Winston Salem","state_name":"North Carolina","lat":36.09465,"lng":-80.32501,"zip":"27104","miles_from_dt":6.84},{"city":"Lewisville","state_name":"North Carolina","lat":36.09103,"lng":-80.45101,"zip":"27023","miles_from_dt":7.32},{"city":"Welcome","state_name":"North Carolina","lat":35.91752,"lng":-80.25777,"zip":"27374","miles_from_dt":8.91},{"city":"Winston Salem","state_name":"North Carolina","lat":36.07783,"lng":-80.23874,"zip":"27117","miles_from_dt":9.18},{"city":"Winston Salem","state_name":"North Carolina","lat":36.09083,"lng":-80.24794,"zip":"27108","miles_from_dt":9.3},{"city":"Winston Salem","state_name":"North Carolina","lat":36.09941,"lng":-80.24996,"zip":"27115","miles_from_dt":9.61},{"city":"Winston Salem","state_name":"North Carolina","lat":36.0992,"lng":-80.24932,"zip":"27199","miles_from_dt":9.63},{"city":"Winston Salem","state_name":"North Carolina","lat":36.09787,"lng":-80.24455,"zip":"27116","miles_from_dt":9.76},{"city":"Winston Salem","state_name":"North Carolina","lat":36.10192,"lng":-80.24726,"zip":"27113","miles_from_dt":9.84},{"city":"Winston Salem","state_name":"North Carolina","lat":36.09889,"lng":-80.24389,"zip":"27111","miles_from_dt":9.84},{"city":"Winston Salem","state_name":"North Carolina","lat":36.14255,"lng":-80.3228,"zip":"27106","miles_from_dt":9.97},{"city":"Lexington","state_name":"North Carolina","lat":35.86756,"lng":-80.31623,"zip":"27295","miles_from_dt":10},{"city":"Winston Salem","state_name":"North Carolina","lat":36.10324,"lng":-80.24369,"zip":"27114","miles_from_dt":10.05},{"city":"Winston Salem","state_name":"North Carolina","lat":36.08919,"lng":-80.225,"zip":"27110","miles_from_dt":10.26},{"city":"Winston Salem","state_name":"North Carolina","lat":36.10789,"lng":-80.24059,"zip":"27120","miles_from_dt":10.39},{"city":"Winston Salem","state_name":"North Carolina","lat":36.13371,"lng":-80.27539,"zip":"27109","miles_from_dt":10.53},{"city":"Winston Salem","state_name":"North Carolina","lat":36.10511,"lng":-80.2257,"zip":"27198","miles_from_dt":10.89},{"city":"Winston Salem","state_name":"North Carolina","lat":36.01488,"lng":-80.17819,"zip":"27107","miles_from_dt":11.08},{"city":"Bethania","state_name":"North Carolina","lat":36.16581,"lng":-80.3695,"zip":"27010","miles_from_dt":11.14},{"city":"Pfafftown","state_name":"North Carolina","lat":36.16869,"lng":-80.38969,"zip":"27040","miles_from_dt":11.36},{"city":"Winston Salem","state_name":"North Carolina","lat":36.10368,"lng":-80.20772,"zip":"27150","miles_from_dt":11.62},{"city":"Winston Salem","state_name":"North Carolina","lat":36.10441,"lng":-80.20645,"zip":"27152","miles_from_dt":11.71},{"city":"Winston Salem","state_name":"North Carolina","lat":36.10513,"lng":-80.2019,"zip":"27155","miles_from_dt":11.95},{"city":"Lexington","state_name":"North Carolina","lat":35.85926,"lng":-80.25786,"zip":"27293","miles_from_dt":11.98},{"city":"Winston Salem","state_name":"North Carolina","lat":36.11089,"lng":-80.20288,"zip":"27102","miles_from_dt":12.14},{"city":"Winston Salem","state_name":"North Carolina","lat":36.11204,"lng":-80.19889,"zip":"27101","miles_from_dt":12.36},{"city":"Mocksville","state_name":"North Carolina","lat":35.92433,"lng":-80.5742,"zip":"27028","miles_from_dt":12.43},{"city":"Wallburg","state_name":"North Carolina","lat":36.01277,"lng":-80.1392,"zip":"27373","miles_from_dt":13.25},{"city":"Winston Salem","state_name":"North Carolina","lat":36.16294,"lng":-80.23521,"zip":"27105","miles_from_dt":13.46},{"city":"Lexington","state_name":"North Carolina","lat":35.82116,"lng":-80.25058,"zip":"27294","miles_from_dt":14.44},{"city":"East Bend","state_name":"North Carolina","lat":36.1978,"lng":-80.52096,"zip":"27018","miles_from_dt":15.63},{"city":"Rural Hall","state_name":"North Carolina","lat":36.22858,"lng":-80.3032,"zip":"27099","miles_from_dt":15.98},{"city":"Rural Hall","state_name":"North Carolina","lat":36.22923,"lng":-80.3045,"zip":"27098","miles_from_dt":16.01},{"city":"Tobaccoville","state_name":"North Carolina","lat":36.23608,"lng":-80.40116,"zip":"27050","miles_from_dt":16.04},{"city":"Yadkinville","state_name":"North Carolina","lat":36.11382,"lng":-80.63586,"zip":"27055","miles_from_dt":16.42},{"city":"Rural Hall","state_name":"North Carolina","lat":36.23482,"lng":-80.29614,"zip":"27045","miles_from_dt":16.5},{"city":"Rural Hall","state_name":"North Carolina","lat":36.23678,"lng":-80.29703,"zip":"27094","miles_from_dt":16.62},{"city":"Cooleemee","state_name":"North Carolina","lat":35.8121,"lng":-80.55508,"zip":"27014","miles_from_dt":16.65},{"city":"Walkertown","state_name":"North Carolina","lat":36.18728,"lng":-80.16012,"zip":"27051","miles_from_dt":17.44},{"city":"Linwood","state_name":"North Carolina","lat":35.75131,"lng":-80.38402,"zip":"27299","miles_from_dt":17.45},{"city":"Thomasville","state_name":"North Carolina","lat":35.87601,"lng":-80.09968,"zip":"27361","miles_from_dt":17.82},{"city":"Kernersville","state_name":"North Carolina","lat":36.11372,"lng":-80.07706,"zip":"27285","miles_from_dt":18.33},{"city":"Kernersville","state_name":"North Carolina","lat":36.11818,"lng":-80.07794,"zip":"27284","miles_from_dt":18.41},{"city":"Thomasville","state_name":"North Carolina","lat":35.85684,"lng":-80.09987,"zip":"27360","miles_from_dt":18.5},{"city":"High Point","state_name":"North Carolina","lat":35.96191,"lng":-80.03845,"zip":"27262","miles_from_dt":19.11},{"city":"High Point","state_name":"North Carolina","lat":36.00947,"lng":-80.03272,"zip":"27265","miles_from_dt":19.2},{"city":"Woodleaf","state_name":"North Carolina","lat":35.79304,"lng":-80.59833,"zip":"27054","miles_from_dt":19.2},{"city":"Lexington","state_name":"North Carolina","lat":35.73469,"lng":-80.20845,"zip":"27292","miles_from_dt":20.82},{"city":"Germanton","state_name":"North Carolina","lat":36.28604,"lng":-80.23548,"zip":"27019","miles_from_dt":20.94},{"city":"Salisbury","state_name":"North Carolina","lat":35.70645,"lng":-80.46341,"zip":"28144","miles_from_dt":21.12},{"city":"High Point","state_name":"North Carolina","lat":35.97534,"lng":-79.99949,"zip":"27261","miles_from_dt":21.16},{"city":"High Point","state_name":"North Carolina","lat":35.98051,"lng":-79.99583,"zip":"27264","miles_from_dt":21.33},{"city":"Harmony","state_name":"North Carolina","lat":35.97052,"lng":-80.75528,"zip":"28634","miles_from_dt":21.41},{"city":"High Point","state_name":"North Carolina","lat":35.97139,"lng":-79.99471,"zip":"27268","miles_from_dt":21.46},{"city":"Colfax","state_name":"North Carolina","lat":36.09734,"lng":-80.00871,"zip":"27235","miles_from_dt":21.51},{"city":"Spencer","state_name":"North Carolina","lat":35.69411,"lng":-80.43528,"zip":"28159","miles_from_dt":21.65},{"city":"King","state_name":"North Carolina","lat":36.31859,"lng":-80.3386,"zip":"27021","miles_from_dt":21.76},{"city":"High Point","state_name":"North Carolina","lat":35.95473,"lng":-79.98697,"zip":"27260","miles_from_dt":22.04},{"city":"East Spencer","state_name":"North Carolina","lat":35.6803,"lng":-80.43626,"zip":"28039","miles_from_dt":22.6},{"city":"Belews Creek","state_name":"North Carolina","lat":36.23089,"lng":-80.07927,"zip":"27009","miles_from_dt":22.77},{"city":"Boonville","state_name":"North Carolina","lat":36.21649,"lng":-80.69728,"zip":"27011","miles_from_dt":23.2},{"city":"Pinnacle","state_name":"North Carolina","lat":36.33709,"lng":-80.44917,"zip":"27043","miles_from_dt":23.31},{"city":"Salisbury","state_name":"North Carolina","lat":35.66126,"lng":-80.44721,"zip":"28145","miles_from_dt":23.99},{"city":"Greensboro","state_name":"North Carolina","lat":36.0786,"lng":-79.95644,"zip":"27497","miles_from_dt":24.02},{"city":"Siloam","state_name":"North Carolina","lat":36.31178,"lng":-80.57786,"zip":"27047","miles_from_dt":24.03},{"city":"Greensboro","state_name":"North Carolina","lat":36.06759,"lng":-79.95265,"zip":"27417","miles_from_dt":24.08},{"city":"Oak Ridge","state_name":"North Carolina","lat":36.17294,"lng":-79.99159,"zip":"27310","miles_from_dt":24.43},{"city":"Southmont","state_name":"North Carolina","lat":35.65976,"lng":-80.26786,"zip":"27351","miles_from_dt":24.51},{"city":"Salisbury","state_name":"North Carolina","lat":35.67997,"lng":-80.56275,"zip":"28147","miles_from_dt":24.71},{"city":"Greensboro","state_name":"North Carolina","lat":36.09242,"lng":-79.94431,"zip":"27409","miles_from_dt":24.89},{"city":"Jamestown","state_name":"North Carolina","lat":35.99656,"lng":-79.92869,"zip":"27282","miles_from_dt":25.04},{"city":"Cleveland","state_name":"North Carolina","lat":35.75633,"lng":-80.70235,"zip":"27013","miles_from_dt":25.08},{"city":"Trinity","state_name":"North Carolina","lat":35.8116,"lng":-79.99133,"zip":"27370","miles_from_dt":25.31},{"city":"High Point","state_name":"North Carolina","lat":35.90931,"lng":-79.93829,"zip":"27263","miles_from_dt":25.37},{"city":"Walnut Cove","state_name":"North Carolina","lat":36.32259,"lng":-80.14552,"zip":"27052","miles_from_dt":25.43},{"city":"Hamptonville","state_name":"North Carolina","lat":36.1047,"lng":-80.81272,"zip":"27020","miles_from_dt":25.44},{"city":"Greensboro","state_name":"North Carolina","lat":36.12729,"lng":-79.94276,"zip":"27425","miles_from_dt":25.66},{"city":"Salisbury","state_name":"North Carolina","lat":35.62194,"lng":-80.39563,"zip":"28146","miles_from_dt":26.39},{"city":"Olin","state_name":"North Carolina","lat":35.9689,"lng":-80.85785,"zip":"28660","miles_from_dt":27.14},{"city":"Granite Quarry","state_name":"North Carolina","lat":35.61326,"lng":-80.44241,"zip":"28072","miles_from_dt":27.22},{"city":"Greensboro","state_name":"North Carolina","lat":36.01124,"lng":-79.87588,"zip":"27407","miles_from_dt":27.99},{"city":"Greensboro","state_name":"North Carolina","lat":36.11826,"lng":-79.89223,"zip":"27410","miles_from_dt":28.17},{"city":"Stokesdale","state_name":"North Carolina","lat":36.26844,"lng":-79.97641,"zip":"27357","miles_from_dt":28.8},{"city":"Jonesville","state_name":"North Carolina","lat":36.22433,"lng":-80.81628,"zip":"28642","miles_from_dt":28.95},{"city":"Pilot Mountain","state_name":"North Carolina","lat":36.41539,"lng":-80.48465,"zip":"27041","miles_from_dt":28.99},{"city":"Ararat","state_name":"North Carolina","lat":36.38799,"lng":-80.59144,"zip":"27007","miles_from_dt":29.08},{"city":"Faith","state_name":"North Carolina","lat":35.58747,"lng":-80.46249,"zip":"28041","miles_from_dt":29.15},{"city":"Pine Hall","state_name":"North Carolina","lat":36.34177,"lng":-80.05434,"zip":"27042","miles_from_dt":29.39},{"city":"Mount Ulla","state_name":"North Carolina","lat":35.66061,"lng":-80.69949,"zip":"28125","miles_from_dt":29.88}],"targetCityZipCode":"27012","targetCityState":"North Carolina"},"__N_SSG":true}