{"pageProps":{"stateName":"North-carolina","cityName":"clyde","nearbyCities":[{"city":"Lake Junaluska","state_name":"North Carolina","lat":35.52524,"lng":-82.97152,"zip":"28745","miles_from_dt":7.83},{"city":"Waynesville","state_name":"North Carolina","lat":35.64632,"lng":-83.08952,"zip":"28785","miles_from_dt":8.97},{"city":"Leicester","state_name":"North Carolina","lat":35.65492,"lng":-82.76032,"zip":"28748","miles_from_dt":9.7},{"city":"Hazelwood","state_name":"North Carolina","lat":35.47679,"lng":-83.00293,"zip":"28738","miles_from_dt":11.56},{"city":"Hot Springs","state_name":"North Carolina","lat":35.80869,"lng":-82.90114,"zip":"28743","miles_from_dt":12.17},{"city":"Waynesville","state_name":"North Carolina","lat":35.46272,"lng":-82.99294,"zip":"28786","miles_from_dt":12.3},{"city":"Maggie Valley","state_name":"North Carolina","lat":35.50547,"lng":-83.11955,"zip":"28751","miles_from_dt":13.83},{"city":"Canton","state_name":"North Carolina","lat":35.4358,"lng":-82.86126,"zip":"28716","miles_from_dt":14.2},{"city":"Candler","state_name":"North Carolina","lat":35.51247,"lng":-82.71196,"zip":"28715","miles_from_dt":14.9},{"city":"Hartford","state_name":"Tennessee","lat":35.82276,"lng":-83.098,"zip":"37753","miles_from_dt":16.07},{"city":"Alexander","state_name":"North Carolina","lat":35.70558,"lng":-82.64096,"zip":"28701","miles_from_dt":17.04},{"city":"Enka","state_name":"North Carolina","lat":35.54141,"lng":-82.64364,"zip":"28728","miles_from_dt":17.38},{"city":"Balsam","state_name":"North Carolina","lat":35.39873,"lng":-83.0662,"zip":"28707","miles_from_dt":17.91},{"city":"Del Rio","state_name":"Tennessee","lat":35.88885,"lng":-83.00651,"zip":"37727","miles_from_dt":18.09},{"city":"Asheville","state_name":"North Carolina","lat":35.57154,"lng":-82.61386,"zip":"28806","miles_from_dt":18.35},{"city":"Asheville","state_name":"North Carolina","lat":35.56733,"lng":-82.61473,"zip":"28810","miles_from_dt":18.38},{"city":"Asheville","state_name":"North Carolina","lat":35.58178,"lng":-82.60141,"zip":"28816","miles_from_dt":18.89},{"city":"Cosby","state_name":"Tennessee","lat":35.80611,"lng":-83.23339,"zip":"37722","miles_from_dt":20.75},{"city":"Asheville","state_name":"North Carolina","lat":35.64814,"lng":-82.5612,"zip":"28804","miles_from_dt":20.82},{"city":"Marshall","state_name":"North Carolina","lat":35.87181,"lng":-82.7002,"zip":"28753","miles_from_dt":20.91},{"city":"Asheville","state_name":"North Carolina","lat":35.59441,"lng":-82.55785,"zip":"28801","miles_from_dt":21.17},{"city":"Asheville","state_name":"North Carolina","lat":35.62368,"lng":-82.55448,"zip":"28814","miles_from_dt":21.19},{"city":"Asheville","state_name":"North Carolina","lat":35.57562,"lng":-82.54563,"zip":"28815","miles_from_dt":22.05},{"city":"Horse Shoe","state_name":"North Carolina","lat":35.39486,"lng":-82.65436,"zip":"28742","miles_from_dt":22.67},{"city":"Arden","state_name":"North Carolina","lat":35.46305,"lng":-82.57142,"zip":"28704","miles_from_dt":23.42},{"city":"Weaverville","state_name":"North Carolina","lat":35.72795,"lng":-82.52306,"zip":"28787","miles_from_dt":23.84},{"city":"Asheville","state_name":"North Carolina","lat":35.49867,"lng":-82.5384,"zip":"28802","miles_from_dt":23.99},{"city":"Asheville","state_name":"North Carolina","lat":35.52949,"lng":-82.52007,"zip":"28803","miles_from_dt":24.22},{"city":"Asheville","state_name":"North Carolina","lat":35.55447,"lng":-82.51072,"zip":"28813","miles_from_dt":24.28},{"city":"Sylva","state_name":"North Carolina","lat":35.3558,"lng":-83.20962,"zip":"28779","miles_from_dt":24.79},{"city":"Skyland","state_name":"North Carolina","lat":35.48201,"lng":-82.52391,"zip":"28776","miles_from_dt":25.2},{"city":"Balsam Grove","state_name":"North Carolina","lat":35.27105,"lng":-82.85979,"zip":"28708","miles_from_dt":25.33},{"city":"Asheville","state_name":"North Carolina","lat":35.61528,"lng":-82.47923,"zip":"28805","miles_from_dt":25.45},{"city":"Webster","state_name":"North Carolina","lat":35.35044,"lng":-83.22266,"zip":"28788","miles_from_dt":25.54},{"city":"Dillsboro","state_name":"North Carolina","lat":35.37631,"lng":-83.26411,"zip":"28725","miles_from_dt":25.85},{"city":"Pisgah Forest","state_name":"North Carolina","lat":35.30437,"lng":-82.70925,"zip":"28768","miles_from_dt":25.92},{"city":"Mills River","state_name":"North Carolina","lat":35.38348,"lng":-82.58431,"zip":"28759","miles_from_dt":26.06},{"city":"Newport","state_name":"Tennessee","lat":35.95712,"lng":-83.19098,"zip":"37822","miles_from_dt":26.66},{"city":"Whittier","state_name":"North Carolina","lat":35.4077,"lng":-83.31727,"zip":"28789","miles_from_dt":26.78},{"city":"Cullowhee","state_name":"North Carolina","lat":35.27776,"lng":-83.12195,"zip":"28723","miles_from_dt":26.81},{"city":"Parrottsville","state_name":"Tennessee","lat":36.01137,"lng":-83.04979,"zip":"37843","miles_from_dt":26.88},{"city":"Tuckasegee","state_name":"North Carolina","lat":35.24906,"lng":-83.02,"zip":"28783","miles_from_dt":27},{"city":"Newport","state_name":"Tennessee","lat":35.97688,"lng":-83.19506,"zip":"37821","miles_from_dt":27.92},{"city":"Etowah","state_name":"North Carolina","lat":35.31961,"lng":-82.60283,"zip":"28729","miles_from_dt":28.48},{"city":"Mars Hill","state_name":"North Carolina","lat":35.87696,"lng":-82.51441,"zip":"28754","miles_from_dt":28.79},{"city":"Fletcher","state_name":"North Carolina","lat":35.44667,"lng":-82.46577,"zip":"28732","miles_from_dt":29.21},{"city":"Naples","state_name":"North Carolina","lat":35.39261,"lng":-82.503,"zip":"28760","miles_from_dt":29.29},{"city":"Swannanoa","state_name":"North Carolina","lat":35.61667,"lng":-82.40768,"zip":"28778","miles_from_dt":29.47}],"targetCityZipCode":"28721","targetCityState":"North Carolina"},"__N_SSG":true}