{"pageProps":{"stateName":"North-carolina","cityName":"conover","nearbyCities":[{"city":"Claremont","state_name":"North Carolina","lat":35.73103,"lng":-81.13837,"zip":"28610","miles_from_dt":4.01},{"city":"Hickory","state_name":"North Carolina","lat":35.75766,"lng":-81.32733,"zip":"28603","miles_from_dt":6.77},{"city":"Hickory","state_name":"North Carolina","lat":35.7729,"lng":-81.32704,"zip":"28601","miles_from_dt":7.02},{"city":"Newton","state_name":"North Carolina","lat":35.63557,"lng":-81.24222,"zip":"28658","miles_from_dt":7.42},{"city":"Catawba","state_name":"North Carolina","lat":35.67608,"lng":-81.05314,"zip":"28609","miles_from_dt":9.8},{"city":"Stony Point","state_name":"North Carolina","lat":35.83586,"lng":-81.06151,"zip":"28678","miles_from_dt":10.61},{"city":"Hickory","state_name":"North Carolina","lat":35.67574,"lng":-81.38459,"zip":"28602","miles_from_dt":10.82},{"city":"Maiden","state_name":"North Carolina","lat":35.57347,"lng":-81.15668,"zip":"28650","miles_from_dt":11.84},{"city":"Hildebran","state_name":"North Carolina","lat":35.71768,"lng":-81.41939,"zip":"28637","miles_from_dt":11.93},{"city":"Rhodhiss","state_name":"North Carolina","lat":35.77423,"lng":-81.42793,"zip":"28667","miles_from_dt":12.53},{"city":"Taylorsville","state_name":"North Carolina","lat":35.92185,"lng":-81.22151,"zip":"28681","miles_from_dt":12.57},{"city":"Granite Falls","state_name":"North Carolina","lat":35.82771,"lng":-81.41998,"zip":"28630","miles_from_dt":13.31},{"city":"Scotts","state_name":"North Carolina","lat":35.84426,"lng":-81.00715,"zip":"28699","miles_from_dt":13.43},{"city":"Icard","state_name":"North Carolina","lat":35.71864,"lng":-81.47057,"zip":"28666","miles_from_dt":14.78},{"city":"Sherrills Ford","state_name":"North Carolina","lat":35.60704,"lng":-80.99817,"zip":"28673","miles_from_dt":14.98},{"city":"Statesville","state_name":"North Carolina","lat":35.73743,"lng":-80.92272,"zip":"28677","miles_from_dt":16.09},{"city":"Hiddenite","state_name":"North Carolina","lat":35.94241,"lng":-81.06589,"zip":"28636","miles_from_dt":16.11},{"city":"Hudson","state_name":"North Carolina","lat":35.84411,"lng":-81.47701,"zip":"28638","miles_from_dt":16.69},{"city":"Statesville","state_name":"North Carolina","lat":35.77647,"lng":-80.91051,"zip":"28687","miles_from_dt":16.96},{"city":"Terrell","state_name":"North Carolina","lat":35.5838,"lng":-80.96369,"zip":"28682","miles_from_dt":17.5},{"city":"Vale","state_name":"North Carolina","lat":35.55452,"lng":-81.42228,"zip":"28168","miles_from_dt":17.53},{"city":"Barium Springs","state_name":"North Carolina","lat":35.72001,"lng":-80.89811,"zip":"28010","miles_from_dt":17.53},{"city":"Lincolnton","state_name":"North Carolina","lat":35.48404,"lng":-81.25391,"zip":"28092","miles_from_dt":17.81},{"city":"Rutherford College","state_name":"North Carolina","lat":35.7502,"lng":-81.52668,"zip":"28671","miles_from_dt":17.87},{"city":"Lincolnton","state_name":"North Carolina","lat":35.47361,"lng":-81.25431,"zip":"28093","miles_from_dt":18.53},{"city":"Turnersburg","state_name":"North Carolina","lat":35.83074,"lng":-80.8984,"zip":"28688","miles_from_dt":18.54},{"city":"Connelly Springs","state_name":"North Carolina","lat":35.6641,"lng":-81.53619,"zip":"28612","miles_from_dt":19.13},{"city":"Troutman","state_name":"North Carolina","lat":35.68025,"lng":-80.87528,"zip":"28166","miles_from_dt":19.21},{"city":"Denver","state_name":"North Carolina","lat":35.5064,"lng":-81.01712,"zip":"28037","miles_from_dt":19.38},{"city":"Statesville","state_name":"North Carolina","lat":35.86487,"lng":-80.88709,"zip":"28625","miles_from_dt":20.03},{"city":"Valdese","state_name":"North Carolina","lat":35.73237,"lng":-81.5739,"zip":"28690","miles_from_dt":20.52},{"city":"Iron Station","state_name":"North Carolina","lat":35.45269,"lng":-81.10995,"zip":"28080","miles_from_dt":20.56},{"city":"Mooresville","state_name":"North Carolina","lat":35.57405,"lng":-80.89658,"zip":"28117","miles_from_dt":20.96},{"city":"Lenoir","state_name":"North Carolina","lat":35.90248,"lng":-81.53532,"zip":"28633","miles_from_dt":21.49},{"city":"Drexel","state_name":"North Carolina","lat":35.76013,"lng":-81.60674,"zip":"28619","miles_from_dt":22.4},{"city":"Boomer","state_name":"North Carolina","lat":36.05346,"lng":-81.31413,"zip":"28606","miles_from_dt":22.42},{"city":"Moravian Falls","state_name":"North Carolina","lat":36.06338,"lng":-81.15003,"zip":"28654","miles_from_dt":22.55},{"city":"Crouse","state_name":"North Carolina","lat":35.42005,"lng":-81.3239,"zip":"28033","miles_from_dt":22.97},{"city":"High Shoals","state_name":"North Carolina","lat":35.40413,"lng":-81.20284,"zip":"28077","miles_from_dt":23.14},{"city":"Alexis","state_name":"North Carolina","lat":35.40664,"lng":-81.0926,"zip":"28006","miles_from_dt":23.88},{"city":"Mount Mourne","state_name":"North Carolina","lat":35.54398,"lng":-80.84655,"zip":"28123","miles_from_dt":24.46},{"city":"Lenoir","state_name":"North Carolina","lat":35.97778,"lng":-81.54371,"zip":"28645","miles_from_dt":24.94},{"city":"Olin","state_name":"North Carolina","lat":35.9689,"lng":-80.85785,"zip":"28660","miles_from_dt":25.26},{"city":"Cornelius","state_name":"North Carolina","lat":35.47539,"lng":-80.89344,"zip":"28031","miles_from_dt":25.45},{"city":"Stanley","state_name":"North Carolina","lat":35.39091,"lng":-81.03846,"zip":"28164","miles_from_dt":25.9},{"city":"Union Grove","state_name":"North Carolina","lat":36.04319,"lng":-80.93345,"zip":"28689","miles_from_dt":26.01},{"city":"Cherryville","state_name":"North Carolina","lat":35.39952,"lng":-81.41035,"zip":"28021","miles_from_dt":26.06},{"city":"Davidson","state_name":"North Carolina","lat":35.50603,"lng":-80.84164,"zip":"28035","miles_from_dt":26.22},{"city":"Dallas","state_name":"North Carolina","lat":35.35323,"lng":-81.18016,"zip":"28034","miles_from_dt":26.7},{"city":"Patterson","state_name":"North Carolina","lat":35.99851,"lng":-81.56399,"zip":"28661","miles_from_dt":26.74},{"city":"Mooresville","state_name":"North Carolina","lat":35.58001,"lng":-80.77477,"zip":"28115","miles_from_dt":26.8},{"city":"Morganton","state_name":"North Carolina","lat":35.74378,"lng":-81.69662,"zip":"28680","miles_from_dt":27.41},{"city":"Wilkesboro","state_name":"North Carolina","lat":36.13666,"lng":-81.16317,"zip":"28697","miles_from_dt":27.48},{"city":"Fallston","state_name":"North Carolina","lat":35.42334,"lng":-81.50747,"zip":"28042","miles_from_dt":27.54},{"city":"Lawndale","state_name":"North Carolina","lat":35.45987,"lng":-81.55957,"zip":"28090","miles_from_dt":27.61},{"city":"Cleveland","state_name":"North Carolina","lat":35.75633,"lng":-80.70235,"zip":"27013","miles_from_dt":28.5},{"city":"Ferguson","state_name":"North Carolina","lat":36.11971,"lng":-81.41327,"zip":"28624","miles_from_dt":28.59},{"city":"Casar","state_name":"North Carolina","lat":35.52408,"lng":-81.64328,"zip":"28020","miles_from_dt":28.61},{"city":"Waco","state_name":"North Carolina","lat":35.36036,"lng":-81.42935,"zip":"28169","miles_from_dt":28.96},{"city":"Mount Ulla","state_name":"North Carolina","lat":35.66061,"lng":-80.69949,"zip":"28125","miles_from_dt":29.17},{"city":"Davidson","state_name":"North Carolina","lat":35.48586,"lng":-80.79375,"zip":"28036","miles_from_dt":29.2},{"city":"Bessemer City","state_name":"North Carolina","lat":35.31729,"lng":-81.28737,"zip":"28016","miles_from_dt":29.46},{"city":"Mount Holly","state_name":"North Carolina","lat":35.33305,"lng":-81.02692,"zip":"28120","miles_from_dt":29.86},{"city":"Morganton","state_name":"North Carolina","lat":35.75578,"lng":-81.74212,"zip":"28655","miles_from_dt":29.98}],"targetCityZipCode":"28613","targetCityState":"North Carolina"},"__N_SSG":true}