{"pageProps":{"stateName":"North-carolina","cityName":"dunn","nearbyCities":[{"city":"Dunn","state_name":"North Carolina","lat":35.3097,"lng":-78.6082,"zip":"28335","miles_from_dt":3.57},{"city":"Cumberland","state_name":"North Carolina","lat":35.19883,"lng":-78.64944,"zip":"28331","miles_from_dt":6.54},{"city":"Falcon","state_name":"North Carolina","lat":35.18949,"lng":-78.6499,"zip":"28342","miles_from_dt":7.04},{"city":"Godwin","state_name":"North Carolina","lat":35.16506,"lng":-78.63139,"zip":"28344","miles_from_dt":7.89},{"city":"Erwin","state_name":"North Carolina","lat":35.31409,"lng":-78.72115,"zip":"28339","miles_from_dt":9.09},{"city":"Benson","state_name":"North Carolina","lat":35.39963,"lng":-78.51863,"zip":"27504","miles_from_dt":9.53},{"city":"Coats","state_name":"North Carolina","lat":35.41298,"lng":-78.65847,"zip":"27521","miles_from_dt":11.16},{"city":"Newton Grove","state_name":"North Carolina","lat":35.22974,"lng":-78.36317,"zip":"28366","miles_from_dt":12.02},{"city":"Linden","state_name":"North Carolina","lat":35.23092,"lng":-78.79113,"zip":"28356","miles_from_dt":12.74},{"city":"Wade","state_name":"North Carolina","lat":35.13643,"lng":-78.73855,"zip":"28395","miles_from_dt":13.15},{"city":"Buies Creek","state_name":"North Carolina","lat":35.40875,"lng":-78.73896,"zip":"27506","miles_from_dt":13.59},{"city":"Four Oaks","state_name":"North Carolina","lat":35.39392,"lng":-78.37948,"zip":"27524","miles_from_dt":13.85},{"city":"Bunnlevel","state_name":"North Carolina","lat":35.31192,"lng":-78.83842,"zip":"28323","miles_from_dt":15.44},{"city":"Salemburg","state_name":"North Carolina","lat":35.04461,"lng":-78.50012,"zip":"28385","miles_from_dt":15.91},{"city":"Angier","state_name":"North Carolina","lat":35.48684,"lng":-78.68419,"zip":"27501","miles_from_dt":16.39},{"city":"Autryville","state_name":"North Carolina","lat":35.0176,"lng":-78.61665,"zip":"28318","miles_from_dt":17.47},{"city":"Stedman","state_name":"North Carolina","lat":35.03045,"lng":-78.70009,"zip":"28391","miles_from_dt":17.95},{"city":"Lillington","state_name":"North Carolina","lat":35.38458,"lng":-78.86626,"zip":"27546","miles_from_dt":18.54},{"city":"Fayetteville","state_name":"North Carolina","lat":35.17033,"lng":-78.88223,"zip":"28311","miles_from_dt":18.88},{"city":"Smithfield","state_name":"North Carolina","lat":35.49166,"lng":-78.3446,"zip":"27577","miles_from_dt":20.01},{"city":"Kipling","state_name":"North Carolina","lat":35.48105,"lng":-78.82165,"zip":"27543","miles_from_dt":20.41},{"city":"Roseboro","state_name":"North Carolina","lat":34.97546,"lng":-78.50561,"zip":"28382","miles_from_dt":20.51},{"city":"Willow Spring","state_name":"North Carolina","lat":35.55922,"lng":-78.67164,"zip":"27592","miles_from_dt":20.87},{"city":"Spring Lake","state_name":"North Carolina","lat":35.21783,"lng":-78.95488,"zip":"28390","miles_from_dt":22.01},{"city":"Fayetteville","state_name":"North Carolina","lat":35.07442,"lng":-78.88376,"zip":"28301","miles_from_dt":22.2},{"city":"Clinton","state_name":"North Carolina","lat":35.00504,"lng":-78.33513,"zip":"28328","miles_from_dt":22.51},{"city":"Fayetteville","state_name":"North Carolina","lat":35.07188,"lng":-78.89907,"zip":"28309","miles_from_dt":23},{"city":"Clinton","state_name":"North Carolina","lat":34.99831,"lng":-78.33006,"zip":"28329","miles_from_dt":23.05},{"city":"Mamers","state_name":"North Carolina","lat":35.42006,"lng":-78.93433,"zip":"27552","miles_from_dt":23.07},{"city":"Fuquay Varina","state_name":"North Carolina","lat":35.54179,"lng":-78.8274,"zip":"27526","miles_from_dt":23.8},{"city":"Fayetteville","state_name":"North Carolina","lat":34.94713,"lng":-78.73225,"zip":"28312","miles_from_dt":23.95},{"city":"Fayetteville","state_name":"North Carolina","lat":35.05321,"lng":-78.90687,"zip":"28305","miles_from_dt":24.13},{"city":"Clayton","state_name":"North Carolina","lat":35.61274,"lng":-78.47075,"zip":"27520","miles_from_dt":24.42},{"city":"Faison","state_name":"North Carolina","lat":35.11919,"lng":-78.17577,"zip":"28341","miles_from_dt":24.58},{"city":"Wilsons Mills","state_name":"North Carolina","lat":35.58579,"lng":-78.36231,"zip":"27593","miles_from_dt":24.85},{"city":"Pine Level","state_name":"North Carolina","lat":35.51132,"lng":-78.24299,"zip":"27568","miles_from_dt":24.96},{"city":"Princeton","state_name":"North Carolina","lat":35.43306,"lng":-78.17432,"zip":"27569","miles_from_dt":25.1},{"city":"Fayetteville","state_name":"North Carolina","lat":35.0852,"lng":-78.95815,"zip":"28303","miles_from_dt":25.31},{"city":"Fort Bragg","state_name":"North Carolina","lat":35.14154,"lng":-78.99447,"zip":"28307","miles_from_dt":25.53},{"city":"Fayetteville","state_name":"North Carolina","lat":35.03326,"lng":-78.92904,"zip":"28302","miles_from_dt":25.96},{"city":"Pope Army Airfield","state_name":"North Carolina","lat":35.17206,"lng":-79.0149,"zip":"28308","miles_from_dt":26},{"city":"Broadway","state_name":"North Carolina","lat":35.414,"lng":-79.00198,"zip":"27505","miles_from_dt":26.37},{"city":"Garner","state_name":"North Carolina","lat":35.65048,"lng":-78.58167,"zip":"27529","miles_from_dt":26.37},{"city":"Clayton","state_name":"North Carolina","lat":35.65,"lng":-78.46219,"zip":"27528","miles_from_dt":27.03},{"city":"Calypso","state_name":"North Carolina","lat":35.15335,"lng":-78.10425,"zip":"28325","miles_from_dt":27.54},{"city":"Raleigh","state_name":"North Carolina","lat":35.66408,"lng":-78.66186,"zip":"27603","miles_from_dt":27.78},{"city":"Selma","state_name":"North Carolina","lat":35.58297,"lng":-78.25776,"zip":"27576","miles_from_dt":27.98},{"city":"Fayetteville","state_name":"North Carolina","lat":34.9582,"lng":-78.89487,"zip":"28306","miles_from_dt":28.18},{"city":"Raleigh","state_name":"North Carolina","lat":35.67064,"lng":-78.66373,"zip":"27699","miles_from_dt":28.24},{"city":"Goldsboro","state_name":"North Carolina","lat":35.36825,"lng":-78.07511,"zip":"27530","miles_from_dt":28.83},{"city":"Clayton","state_name":"North Carolina","lat":35.65767,"lng":-78.38336,"zip":"27527","miles_from_dt":28.86},{"city":"Fort Bragg","state_name":"North Carolina","lat":35.12946,"lng":-79.0523,"zip":"28310","miles_from_dt":28.89},{"city":"Micro","state_name":"North Carolina","lat":35.56242,"lng":-78.20353,"zip":"27555","miles_from_dt":28.99},{"city":"Fayetteville","state_name":"North Carolina","lat":35.02498,"lng":-78.99072,"zip":"28304","miles_from_dt":29.1},{"city":"Holly Springs","state_name":"North Carolina","lat":35.6103,"lng":-78.87332,"zip":"27540","miles_from_dt":29.13},{"city":"Fayetteville","state_name":"North Carolina","lat":35.0557,"lng":-79.01678,"zip":"28314","miles_from_dt":29.2},{"city":"Turkey","state_name":"North Carolina","lat":34.98205,"lng":-78.18895,"zip":"28393","miles_from_dt":29.26},{"city":"Mount Olive","state_name":"North Carolina","lat":35.17807,"lng":-78.05827,"zip":"28365","miles_from_dt":29.63}],"targetCityZipCode":"28334","targetCityState":"North Carolina"},"__N_SSG":true}