{"pageProps":{"stateName":"North-carolina","cityName":"eagle-springs","nearbyCities":[{"city":"Biscoe","state_name":"North Carolina","lat":35.34254,"lng":-79.74936,"zip":"27209","miles_from_dt":6.33},{"city":"West End","state_name":"North Carolina","lat":35.25607,"lng":-79.53184,"zip":"27376","miles_from_dt":8.15},{"city":"Robbins","state_name":"North Carolina","lat":35.46236,"lng":-79.57249,"zip":"27325","miles_from_dt":9.43},{"city":"Jackson Springs","state_name":"North Carolina","lat":35.18538,"lng":-79.62689,"zip":"27281","miles_from_dt":10.43},{"city":"Candor","state_name":"North Carolina","lat":35.24853,"lng":-79.79873,"zip":"27229","miles_from_dt":10.94},{"city":"Star","state_name":"North Carolina","lat":35.43991,"lng":-79.7982,"zip":"27356","miles_from_dt":11.54},{"city":"Ether","state_name":"North Carolina","lat":35.46096,"lng":-79.78784,"zip":"27247","miles_from_dt":12.07},{"city":"Carthage","state_name":"North Carolina","lat":35.35759,"lng":-79.42333,"zip":"28327","miles_from_dt":12.19},{"city":"Highfalls","state_name":"North Carolina","lat":35.49149,"lng":-79.52624,"zip":"27259","miles_from_dt":12.4},{"city":"Norman","state_name":"North Carolina","lat":35.16982,"lng":-79.72325,"zip":"28367","miles_from_dt":12.47},{"city":"Seagrove","state_name":"North Carolina","lat":35.52467,"lng":-79.70014,"zip":"27341","miles_from_dt":13.45},{"city":"Pinehurst","state_name":"North Carolina","lat":35.19705,"lng":-79.46009,"zip":"28374","miles_from_dt":13.9},{"city":"Pinehurst","state_name":"North Carolina","lat":35.18208,"lng":-79.46043,"zip":"28370","miles_from_dt":14.62},{"city":"Bennett","state_name":"North Carolina","lat":35.56246,"lng":-79.54231,"zip":"27208","miles_from_dt":16.48},{"city":"Southern Pines","state_name":"North Carolina","lat":35.18181,"lng":-79.4019,"zip":"28388","miles_from_dt":17.07},{"city":"Ellerbe","state_name":"North Carolina","lat":35.09644,"lng":-79.75506,"zip":"28338","miles_from_dt":17.83},{"city":"Southern Pines","state_name":"North Carolina","lat":35.18059,"lng":-79.37566,"zip":"28387","miles_from_dt":18.3},{"city":"Troy","state_name":"North Carolina","lat":35.42489,"lng":-79.94912,"zip":"27371","miles_from_dt":18.61},{"city":"Lakeview","state_name":"North Carolina","lat":35.2488,"lng":-79.32064,"zip":"28350","miles_from_dt":18.91},{"city":"Aberdeen","state_name":"North Carolina","lat":35.1122,"lng":-79.44452,"zip":"28315","miles_from_dt":18.93},{"city":"Pinebluff","state_name":"North Carolina","lat":35.09079,"lng":-79.48522,"zip":"28373","miles_from_dt":19},{"city":"Hoffman","state_name":"North Carolina","lat":35.04652,"lng":-79.56203,"zip":"28347","miles_from_dt":20.44},{"city":"Mount Gilead","state_name":"North Carolina","lat":35.22098,"lng":-79.97685,"zip":"27306","miles_from_dt":20.76},{"city":"Goldston","state_name":"North Carolina","lat":35.56033,"lng":-79.35563,"zip":"27252","miles_from_dt":22.16},{"city":"Bear Creek","state_name":"North Carolina","lat":35.6064,"lng":-79.38893,"zip":"27207","miles_from_dt":23.3},{"city":"Vass","state_name":"North Carolina","lat":35.21652,"lng":-79.23777,"zip":"28394","miles_from_dt":24.07},{"city":"Asheboro","state_name":"North Carolina","lat":35.6399,"lng":-79.85094,"zip":"27205","miles_from_dt":24.13},{"city":"Ramseur","state_name":"North Carolina","lat":35.68996,"lng":-79.62366,"zip":"27316","miles_from_dt":24.38},{"city":"Asheboro","state_name":"North Carolina","lat":35.66844,"lng":-79.80847,"zip":"27204","miles_from_dt":24.83},{"city":"Bonlee","state_name":"North Carolina","lat":35.6473,"lng":-79.40454,"zip":"27213","miles_from_dt":25.14},{"city":"Lemon Springs","state_name":"North Carolina","lat":35.39053,"lng":-79.19514,"zip":"28355","miles_from_dt":25.26},{"city":"Gulf","state_name":"North Carolina","lat":35.56058,"lng":-79.2725,"zip":"27256","miles_from_dt":25.75},{"city":"Cameron","state_name":"North Carolina","lat":35.27938,"lng":-79.16989,"zip":"28326","miles_from_dt":26.72},{"city":"Marston","state_name":"North Carolina","lat":34.95772,"lng":-79.53384,"zip":"28363","miles_from_dt":26.76},{"city":"Badin","state_name":"North Carolina","lat":35.40826,"lng":-80.10743,"zip":"28009","miles_from_dt":26.99},{"city":"Cumnock","state_name":"North Carolina","lat":35.55472,"lng":-79.23806,"zip":"27237","miles_from_dt":27.1},{"city":"Sanford","state_name":"North Carolina","lat":35.47494,"lng":-79.18258,"zip":"27331","miles_from_dt":27.4},{"city":"Rockingham","state_name":"North Carolina","lat":34.94305,"lng":-79.76084,"zip":"28380","miles_from_dt":28},{"city":"Sanford","state_name":"North Carolina","lat":35.51624,"lng":-79.18394,"zip":"27330","miles_from_dt":28.44},{"city":"Sanford","state_name":"North Carolina","lat":35.37836,"lng":-79.13599,"zip":"27332","miles_from_dt":28.48},{"city":"Asheboro","state_name":"North Carolina","lat":35.73253,"lng":-79.78857,"zip":"27203","miles_from_dt":28.6},{"city":"Rockingham","state_name":"North Carolina","lat":34.93073,"lng":-79.78252,"zip":"28379","miles_from_dt":29.15},{"city":"Cedar Falls","state_name":"North Carolina","lat":35.75286,"lng":-79.73163,"zip":"27230","miles_from_dt":29.19},{"city":"Lilesville","state_name":"North Carolina","lat":34.98628,"lng":-79.93171,"zip":"28091","miles_from_dt":29.32},{"city":"Siler City","state_name":"North Carolina","lat":35.7289,"lng":-79.43366,"zip":"27344","miles_from_dt":29.4},{"city":"Olivia","state_name":"North Carolina","lat":35.36942,"lng":-79.11331,"zip":"28368","miles_from_dt":29.7}],"targetCityZipCode":"27242","targetCityState":"North Carolina"},"__N_SSG":true}