{"pageProps":{"stateName":"North-carolina","cityName":"ivanhoe","nearbyCities":[{"city":"Harrells","state_name":"North Carolina","lat":34.6885,"lng":-78.31798,"zip":"28444","miles_from_dt":7.01},{"city":"Atkinson","state_name":"North Carolina","lat":34.52183,"lng":-78.17802,"zip":"28421","miles_from_dt":7.05},{"city":"Kelly","state_name":"North Carolina","lat":34.49078,"lng":-78.31933,"zip":"28448","miles_from_dt":8.26},{"city":"Willard","state_name":"North Carolina","lat":34.64217,"lng":-78.04255,"zip":"28478","miles_from_dt":12.65},{"city":"Council","state_name":"North Carolina","lat":34.47154,"lng":-78.47479,"zip":"28434","miles_from_dt":15.17},{"city":"Currie","state_name":"North Carolina","lat":34.41007,"lng":-78.11508,"zip":"28435","miles_from_dt":15.41},{"city":"Riegelwood","state_name":"North Carolina","lat":34.37678,"lng":-78.29228,"zip":"28456","miles_from_dt":15.47},{"city":"Garland","state_name":"North Carolina","lat":34.79047,"lng":-78.4355,"zip":"28441","miles_from_dt":16.58},{"city":"Rose Hill","state_name":"North Carolina","lat":34.81886,"lng":-78.07895,"zip":"28458","miles_from_dt":18.25},{"city":"Teachey","state_name":"North Carolina","lat":34.77661,"lng":-78.01854,"zip":"28464","miles_from_dt":18.32},{"city":"Elizabethtown","state_name":"North Carolina","lat":34.66094,"lng":-78.57733,"zip":"28337","miles_from_dt":18.65},{"city":"Burgaw","state_name":"North Carolina","lat":34.5591,"lng":-77.90253,"zip":"28425","miles_from_dt":20.48},{"city":"Clarkton","state_name":"North Carolina","lat":34.48979,"lng":-78.62598,"zip":"28433","miles_from_dt":22.28},{"city":"Magnolia","state_name":"North Carolina","lat":34.88283,"lng":-78.06805,"zip":"28453","miles_from_dt":22.33},{"city":"Wallace","state_name":"North Carolina","lat":34.73219,"lng":-77.8954,"zip":"28466","miles_from_dt":22.61},{"city":"Delco","state_name":"North Carolina","lat":34.26703,"lng":-78.27552,"zip":"28436","miles_from_dt":22.94},{"city":"Bolton","state_name":"North Carolina","lat":34.27782,"lng":-78.40483,"zip":"28423","miles_from_dt":23.7},{"city":"Rocky Point","state_name":"North Carolina","lat":34.45608,"lng":-77.86618,"zip":"28457","miles_from_dt":24.47},{"city":"Lake Waccamaw","state_name":"North Carolina","lat":34.29689,"lng":-78.51425,"zip":"28450","miles_from_dt":25.47},{"city":"Dublin","state_name":"North Carolina","lat":34.65808,"lng":-78.70971,"zip":"28332","miles_from_dt":26.03},{"city":"Leland","state_name":"North Carolina","lat":34.2327,"lng":-78.11503,"zip":"28451","miles_from_dt":26.58},{"city":"Turkey","state_name":"North Carolina","lat":34.98205,"lng":-78.18895,"zip":"28393","miles_from_dt":26.66},{"city":"Wilmington","state_name":"North Carolina","lat":34.29053,"lng":-77.97053,"zip":"28401","miles_from_dt":26.91},{"city":"Castle Hayne","state_name":"North Carolina","lat":34.34171,"lng":-77.9011,"zip":"28429","miles_from_dt":27.06},{"city":"Clinton","state_name":"North Carolina","lat":34.99831,"lng":-78.33006,"zip":"28329","miles_from_dt":27.79},{"city":"Hallsboro","state_name":"North Carolina","lat":34.31023,"lng":-78.60106,"zip":"28442","miles_from_dt":27.93},{"city":"Clinton","state_name":"North Carolina","lat":35.00504,"lng":-78.33513,"zip":"28328","miles_from_dt":28.29},{"city":"Warsaw","state_name":"North Carolina","lat":34.99307,"lng":-78.07143,"zip":"28398","miles_from_dt":29.14},{"city":"Roseboro","state_name":"North Carolina","lat":34.97546,"lng":-78.50561,"zip":"28382","miles_from_dt":29.48},{"city":"White Oak","state_name":"North Carolina","lat":34.77885,"lng":-78.72953,"zip":"28399","miles_from_dt":29.53},{"city":"Bladenboro","state_name":"North Carolina","lat":34.55378,"lng":-78.77456,"zip":"28320","miles_from_dt":29.59}],"targetCityZipCode":"28447","targetCityState":"North Carolina"},"__N_SSG":true}