{"pageProps":{"stateName":"Alabama","cityName":"belle-mina","nearbyCities":[{"city":"Mooresville","state_name":"Alabama","lat":34.62091,"lng":-86.87965,"zip":"35649","miles_from_dt":2.86},{"city":"Madison","state_name":"Alabama","lat":34.64287,"lng":-86.82114,"zip":"35756","miles_from_dt":3.4},{"city":"Tanner","state_name":"Alabama","lat":34.66607,"lng":-86.95191,"zip":"35671","miles_from_dt":4.33},{"city":"Huntsville","state_name":"Alabama","lat":34.6467,"lng":-86.7545,"zip":"35894","miles_from_dt":7},{"city":"Huntsville","state_name":"Alabama","lat":34.64458,"lng":-86.75193,"zip":"35824","miles_from_dt":7.17},{"city":"Huntsville","state_name":"Alabama","lat":34.64561,"lng":-86.75053,"zip":"35813","miles_from_dt":7.24},{"city":"Madison","state_name":"Alabama","lat":34.71417,"lng":-86.74707,"zip":"35758","miles_from_dt":8.16},{"city":"Decatur","state_name":"Alabama","lat":34.60616,"lng":-87.00795,"zip":"35601","miles_from_dt":8.46},{"city":"Decatur","state_name":"Alabama","lat":34.61249,"lng":-87.02212,"zip":"35609","miles_from_dt":9.01},{"city":"Decatur","state_name":"Alabama","lat":34.60769,"lng":-87.0213,"zip":"35699","miles_from_dt":9.1},{"city":"Decatur","state_name":"Alabama","lat":34.54408,"lng":-86.96337,"zip":"35602","miles_from_dt":9.55},{"city":"Decatur","state_name":"Alabama","lat":34.53712,"lng":-86.96717,"zip":"35603","miles_from_dt":10.07},{"city":"Athens","state_name":"Alabama","lat":34.82336,"lng":-86.88001,"zip":"35613","miles_from_dt":11.11},{"city":"Capshaw","state_name":"Alabama","lat":34.80485,"lng":-86.78195,"zip":"35742","miles_from_dt":11.19},{"city":"Madison","state_name":"Alabama","lat":34.78426,"lng":-86.74419,"zip":"35757","miles_from_dt":11.27},{"city":"Athens","state_name":"Alabama","lat":34.79532,"lng":-87.00861,"zip":"35612","miles_from_dt":11.88},{"city":"Huntsville","state_name":"Alabama","lat":34.63236,"lng":-86.65579,"zip":"35808","miles_from_dt":12.71},{"city":"Huntsville","state_name":"Alabama","lat":34.63249,"lng":-86.65273,"zip":"35812","miles_from_dt":12.88},{"city":"Valhermoso Springs","state_name":"Alabama","lat":34.5477,"lng":-86.69623,"zip":"35775","miles_from_dt":12.94},{"city":"Harvest","state_name":"Alabama","lat":34.82314,"lng":-86.75662,"zip":"35749","miles_from_dt":13},{"city":"Huntsville","state_name":"Alabama","lat":34.62894,"lng":-86.65113,"zip":"35898","miles_from_dt":13.01},{"city":"Huntsville","state_name":"Alabama","lat":34.76615,"lng":-86.68324,"zip":"35806","miles_from_dt":13.1},{"city":"Huntsville","state_name":"Alabama","lat":34.71411,"lng":-86.65353,"zip":"35807","miles_from_dt":13.16},{"city":"Athens","state_name":"Alabama","lat":34.76554,"lng":-87.08418,"zip":"35611","miles_from_dt":13.82},{"city":"Huntsville","state_name":"Alabama","lat":34.75318,"lng":-86.65213,"zip":"35896","miles_from_dt":14.2},{"city":"Huntsville","state_name":"Alabama","lat":34.71674,"lng":-86.63118,"zip":"35897","miles_from_dt":14.43},{"city":"Huntsville","state_name":"Alabama","lat":34.70875,"lng":-86.6219,"zip":"35805","miles_from_dt":14.82},{"city":"Huntsville","state_name":"Alabama","lat":34.73923,"lng":-86.62985,"zip":"35816","miles_from_dt":14.98},{"city":"Huntsville","state_name":"Alabama","lat":34.74054,"lng":-86.62928,"zip":"35899","miles_from_dt":15.04},{"city":"Huntsville","state_name":"Alabama","lat":34.7084,"lng":-86.61731,"zip":"35814","miles_from_dt":15.07},{"city":"Trinity","state_name":"Alabama","lat":34.58601,"lng":-87.13166,"zip":"35673","miles_from_dt":15.49},{"city":"Hartselle","state_name":"Alabama","lat":34.4414,"lng":-86.94315,"zip":"35640","miles_from_dt":15.7},{"city":"Somerville","state_name":"Alabama","lat":34.46318,"lng":-86.72356,"zip":"35670","miles_from_dt":16.24},{"city":"Huntsville","state_name":"Alabama","lat":34.73141,"lng":-86.58977,"zip":"35895","miles_from_dt":16.98},{"city":"Huntsville","state_name":"Alabama","lat":34.73028,"lng":-86.58611,"zip":"35809","miles_from_dt":17.15},{"city":"Huntsville","state_name":"Alabama","lat":34.72998,"lng":-86.5859,"zip":"35804","miles_from_dt":17.16},{"city":"Huntsville","state_name":"Alabama","lat":34.73244,"lng":-86.58459,"zip":"35893","miles_from_dt":17.28},{"city":"Huntsville","state_name":"Alabama","lat":34.6405,"lng":-86.56479,"zip":"35815","miles_from_dt":17.79},{"city":"Laceys Spring","state_name":"Alabama","lat":34.51819,"lng":-86.61099,"zip":"35754","miles_from_dt":18.08},{"city":"Huntsville","state_name":"Alabama","lat":34.80183,"lng":-86.60264,"zip":"35810","miles_from_dt":18.29},{"city":"Athens","state_name":"Alabama","lat":34.86433,"lng":-87.08457,"zip":"35614","miles_from_dt":18.3},{"city":"Huntsville","state_name":"Alabama","lat":34.67398,"lng":-86.55449,"zip":"35802","miles_from_dt":18.33},{"city":"Huntsville","state_name":"Alabama","lat":34.72497,"lng":-86.56304,"zip":"35801","miles_from_dt":18.33},{"city":"Toney","state_name":"Alabama","lat":34.89431,"lng":-86.71282,"zip":"35773","miles_from_dt":18.49},{"city":"Hillsboro","state_name":"Alabama","lat":34.66882,"lng":-87.20707,"zip":"35643","miles_from_dt":18.86},{"city":"Normal","state_name":"Alabama","lat":34.79291,"lng":-86.569,"zip":"35762","miles_from_dt":19.65},{"city":"Elkmont","state_name":"Alabama","lat":34.93141,"lng":-86.99086,"zip":"35620","miles_from_dt":19.67},{"city":"Huntsville","state_name":"Alabama","lat":34.56476,"lng":-86.52185,"zip":"35803","miles_from_dt":21.27},{"city":"Ardmore","state_name":"Alabama","lat":34.96914,"lng":-86.79501,"zip":"35739","miles_from_dt":21.65},{"city":"Falkville","state_name":"Alabama","lat":34.34491,"lng":-86.89535,"zip":"35622","miles_from_dt":21.9},{"city":"Brownsboro","state_name":"Alabama","lat":34.7242,"lng":-86.47745,"zip":"35741","miles_from_dt":23.09},{"city":"Huntsville","state_name":"Alabama","lat":34.79925,"lng":-86.50386,"zip":"35811","miles_from_dt":23.19},{"city":"Eva","state_name":"Alabama","lat":34.34967,"lng":-86.7239,"zip":"35621","miles_from_dt":23.23},{"city":"Meridianville","state_name":"Alabama","lat":34.86856,"lng":-86.55262,"zip":"35759","miles_from_dt":23.25},{"city":"Owens Cross Roads","state_name":"Alabama","lat":34.62022,"lng":-86.46615,"zip":"35763","miles_from_dt":23.53},{"city":"Ryland","state_name":"Alabama","lat":34.7704,"lng":-86.48172,"zip":"35767","miles_from_dt":23.64},{"city":"Danville","state_name":"Alabama","lat":34.38606,"lng":-87.14545,"zip":"35619","miles_from_dt":24.47},{"city":"Courtland","state_name":"Alabama","lat":34.64334,"lng":-87.30552,"zip":"35618","miles_from_dt":24.5},{"city":"Lester","state_name":"Alabama","lat":34.96539,"lng":-87.11933,"zip":"35647","miles_from_dt":25.06},{"city":"Hazel Green","state_name":"Alabama","lat":34.95407,"lng":-86.5951,"zip":"35750","miles_from_dt":25.68},{"city":"Union Grove","state_name":"Alabama","lat":34.43731,"lng":-86.51673,"zip":"35175","miles_from_dt":25.7},{"city":"Ardmore","state_name":"Tennessee","lat":35.05231,"lng":-86.82954,"zip":"38449","miles_from_dt":27.01},{"city":"Vinemont","state_name":"Alabama","lat":34.27004,"lng":-86.96847,"zip":"35179","miles_from_dt":27.55},{"city":"Elkton","state_name":"Tennessee","lat":35.06199,"lng":-86.89366,"zip":"38455","miles_from_dt":27.57},{"city":"Prospect","state_name":"Tennessee","lat":35.05075,"lng":-87.00932,"zip":"38477","miles_from_dt":27.83},{"city":"Rogersville","state_name":"Alabama","lat":34.84742,"lng":-87.31137,"zip":"35652","miles_from_dt":27.87},{"city":"Gurley","state_name":"Alabama","lat":34.71925,"lng":-86.39036,"zip":"35748","miles_from_dt":27.93},{"city":"Taft","state_name":"Tennessee","lat":35.03906,"lng":-86.68569,"zip":"38488","miles_from_dt":28.13},{"city":"Moulton","state_name":"Alabama","lat":34.45176,"lng":-87.30289,"zip":"35650","miles_from_dt":28.34},{"city":"Baileyton","state_name":"Alabama","lat":34.29828,"lng":-86.63496,"zip":"35019","miles_from_dt":28.61},{"city":"Anderson","state_name":"Alabama","lat":34.95361,"lng":-87.23714,"zip":"35610","miles_from_dt":28.72},{"city":"New Hope","state_name":"Alabama","lat":34.54768,"lng":-86.38324,"zip":"35760","miles_from_dt":29.17},{"city":"Joppa","state_name":"Alabama","lat":34.30556,"lng":-86.58252,"zip":"35087","miles_from_dt":29.75}],"targetCityZipCode":"35615","targetCityState":"Alabama"},"__N_SSG":true}