{"pageProps":{"stateName":"Alabama","cityName":"childersburg","nearbyCities":[{"city":"Bon Air","state_name":"Alabama","lat":33.26321,"lng":-86.33408,"zip":"35032","miles_from_dt":1.73},{"city":"Harpersville","state_name":"Alabama","lat":33.32279,"lng":-86.44116,"zip":"35078","miles_from_dt":5.86},{"city":"Alpine","state_name":"Alabama","lat":33.36097,"lng":-86.25909,"zip":"35014","miles_from_dt":8.77},{"city":"Wilsonville","state_name":"Alabama","lat":33.25699,"lng":-86.51442,"zip":"35186","miles_from_dt":8.79},{"city":"Sylacauga","state_name":"Alabama","lat":33.18581,"lng":-86.24454,"zip":"35150","miles_from_dt":8.93},{"city":"Sycamore","state_name":"Alabama","lat":33.24378,"lng":-86.20709,"zip":"35149","miles_from_dt":9.2},{"city":"Vincent","state_name":"Alabama","lat":33.42003,"lng":-86.39993,"zip":"35178","miles_from_dt":10.65},{"city":"Sylacauga","state_name":"Alabama","lat":33.108,"lng":-86.36704,"zip":"35151","miles_from_dt":11.07},{"city":"Westover","state_name":"Alabama","lat":33.34903,"lng":-86.53871,"zip":"35185","miles_from_dt":11.57},{"city":"Sterrett","state_name":"Alabama","lat":33.41233,"lng":-86.53164,"zip":"35147","miles_from_dt":13.89},{"city":"Hollins","state_name":"Alabama","lat":33.1563,"lng":-86.15456,"zip":"35082","miles_from_dt":14.35},{"city":"Columbiana","state_name":"Alabama","lat":33.20457,"lng":-86.61523,"zip":"35051","miles_from_dt":15.25},{"city":"Cropwell","state_name":"Alabama","lat":33.50417,"lng":-86.32693,"zip":"35054","miles_from_dt":16.37},{"city":"Shelby","state_name":"Alabama","lat":33.08797,"lng":-86.55369,"zip":"35143","miles_from_dt":16.64},{"city":"Talladega","state_name":"Alabama","lat":33.36898,"lng":-86.1005,"zip":"35160","miles_from_dt":16.7},{"city":"Vandiver","state_name":"Alabama","lat":33.4817,"lng":-86.50221,"zip":"35176","miles_from_dt":16.74},{"city":"Chelsea","state_name":"Alabama","lat":33.30926,"lng":-86.66028,"zip":"35043","miles_from_dt":17.42},{"city":"Weogufka","state_name":"Alabama","lat":33.00675,"lng":-86.35706,"zip":"35183","miles_from_dt":18.05},{"city":"Talladega","state_name":"Alabama","lat":33.43765,"lng":-86.10313,"zip":"35161","miles_from_dt":19.03},{"city":"Pell City","state_name":"Alabama","lat":33.54738,"lng":-86.34596,"zip":"35128","miles_from_dt":19.24},{"city":"Birmingham","state_name":"Alabama","lat":33.42371,"lng":-86.67073,"zip":"35242","miles_from_dt":20.75},{"city":"Leeds","state_name":"Alabama","lat":33.52057,"lng":-86.56127,"zip":"35094","miles_from_dt":20.8},{"city":"Goodwater","state_name":"Alabama","lat":33.08985,"lng":-86.06057,"zip":"35072","miles_from_dt":21.43},{"city":"Cook Springs","state_name":"Alabama","lat":33.59228,"lng":-86.40771,"zip":"35052","miles_from_dt":22.46},{"city":"Pelham","state_name":"Alabama","lat":33.31368,"lng":-86.76194,"zip":"35124","miles_from_dt":23.28},{"city":"Calera","state_name":"Alabama","lat":33.10487,"lng":-86.72958,"zip":"35040","miles_from_dt":24.04},{"city":"Moody","state_name":"Alabama","lat":33.60369,"lng":-86.49333,"zip":"35004","miles_from_dt":24.29},{"city":"Millerville","state_name":"Alabama","lat":33.19513,"lng":-85.94659,"zip":"36267","miles_from_dt":24.66},{"city":"Siluria","state_name":"Alabama","lat":33.2,"lng":-86.78333,"zip":"35144","miles_from_dt":24.78},{"city":"Birmingham","state_name":"Alabama","lat":33.44185,"lng":-86.74055,"zip":"35243","miles_from_dt":24.88},{"city":"Pell City","state_name":"Alabama","lat":33.62567,"lng":-86.29594,"zip":"35125","miles_from_dt":24.91},{"city":"Saginaw","state_name":"Alabama","lat":33.21594,"lng":-86.79188,"zip":"35137","miles_from_dt":25.09},{"city":"Alabaster","state_name":"Alabama","lat":33.21751,"lng":-86.79307,"zip":"35007","miles_from_dt":25.14},{"city":"Birmingham","state_name":"Alabama","lat":33.5431,"lng":-86.6661,"zip":"35210","miles_from_dt":25.78},{"city":"Riverside","state_name":"Alabama","lat":33.61814,"lng":-86.1991,"zip":"35135","miles_from_dt":25.89},{"city":"Clanton","state_name":"Alabama","lat":32.923,"lng":-86.54127,"zip":"35046","miles_from_dt":25.96},{"city":"Birmingham","state_name":"Alabama","lat":33.48777,"lng":-86.73605,"zip":"35223","miles_from_dt":26.32},{"city":"Birmingham","state_name":"Alabama","lat":33.48622,"lng":-86.74039,"zip":"35253","miles_from_dt":26.47},{"city":"Birmingham","state_name":"Alabama","lat":33.41995,"lng":-86.78746,"zip":"35216","miles_from_dt":26.66},{"city":"Alton","state_name":"Alabama","lat":33.57976,"lng":-86.63904,"zip":"35015","miles_from_dt":26.72},{"city":"Birmingham","state_name":"Alabama","lat":33.35661,"lng":-86.8174,"zip":"35236","miles_from_dt":26.97},{"city":"Birmingham","state_name":"Alabama","lat":33.46311,"lng":-86.76941,"zip":"35288","miles_from_dt":27.04},{"city":"Rockford","state_name":"Alabama","lat":32.87877,"lng":-86.28965,"zip":"35136","miles_from_dt":27.2},{"city":"Birmingham","state_name":"Alabama","lat":33.50659,"lng":-86.74241,"zip":"35213","miles_from_dt":27.38},{"city":"Birmingham","state_name":"Alabama","lat":33.35205,"lng":-86.8267,"zip":"35244","miles_from_dt":27.43},{"city":"Birmingham","state_name":"Alabama","lat":33.44685,"lng":-86.79016,"zip":"35266","miles_from_dt":27.58},{"city":"Wattsville","state_name":"Alabama","lat":33.66056,"lng":-86.26333,"zip":"35182","miles_from_dt":27.62},{"city":"Birmingham","state_name":"Alabama","lat":33.41491,"lng":-86.80948,"zip":"35296","miles_from_dt":27.71},{"city":"Odenville","state_name":"Alabama","lat":33.66777,"lng":-86.42064,"zip":"35120","miles_from_dt":27.71},{"city":"Kellyton","state_name":"Alabama","lat":32.9426,"lng":-86.07457,"zip":"35089","miles_from_dt":28.02},{"city":"Birmingham","state_name":"Alabama","lat":33.46434,"lng":-86.79399,"zip":"35229","miles_from_dt":28.33},{"city":"Lincoln","state_name":"Alabama","lat":33.62141,"lng":-86.10849,"zip":"35096","miles_from_dt":28.42},{"city":"Birmingham","state_name":"Alabama","lat":33.49321,"lng":-86.78175,"zip":"35297","miles_from_dt":28.73},{"city":"Trussville","state_name":"Alabama","lat":33.65284,"lng":-86.56337,"zip":"35173","miles_from_dt":28.9},{"city":"Ashland","state_name":"Alabama","lat":33.22996,"lng":-85.86532,"zip":"36251","miles_from_dt":28.95},{"city":"Birmingham","state_name":"Alabama","lat":33.39977,"lng":-86.83895,"zip":"35260","miles_from_dt":28.97},{"city":"Munford","state_name":"Alabama","lat":33.49469,"lng":-85.94016,"zip":"36268","miles_from_dt":29},{"city":"Birmingham","state_name":"Alabama","lat":33.57024,"lng":-86.71328,"zip":"35206","miles_from_dt":29.01},{"city":"Birmingham","state_name":"Alabama","lat":33.61723,"lng":-86.65008,"zip":"35235","miles_from_dt":29.19},{"city":"Birmingham","state_name":"Alabama","lat":33.46507,"lng":-86.81107,"zip":"35209","miles_from_dt":29.22},{"city":"Birmingham","state_name":"Alabama","lat":33.55009,"lng":-86.74132,"zip":"35290","miles_from_dt":29.22},{"city":"Birmingham","state_name":"Alabama","lat":33.39823,"lng":-86.84421,"zip":"35226","miles_from_dt":29.22},{"city":"Birmingham","state_name":"Alabama","lat":33.57331,"lng":-86.71532,"zip":"35261","miles_from_dt":29.24},{"city":"Birmingham","state_name":"Alabama","lat":33.53589,"lng":-86.75836,"zip":"35232","miles_from_dt":29.34},{"city":"Alabaster","state_name":"Alabama","lat":33.22274,"lng":-86.86739,"zip":"35114","miles_from_dt":29.36},{"city":"Birmingham","state_name":"Alabama","lat":33.52378,"lng":-86.76994,"zip":"35222","miles_from_dt":29.36},{"city":"Jemison","state_name":"Alabama","lat":32.97975,"lng":-86.73584,"zip":"35085","miles_from_dt":29.38},{"city":"Birmingham","state_name":"Alabama","lat":33.49562,"lng":-86.79434,"zip":"35282","miles_from_dt":29.43},{"city":"Birmingham","state_name":"Alabama","lat":33.54765,"lng":-86.75272,"zip":"35212","miles_from_dt":29.61},{"city":"Birmingham","state_name":"Alabama","lat":33.46386,"lng":-86.82303,"zip":"35293","miles_from_dt":29.8},{"city":"Birmingham","state_name":"Alabama","lat":33.49949,"lng":-86.80079,"zip":"35298","miles_from_dt":29.89},{"city":"Margaret","state_name":"Alabama","lat":33.69374,"lng":-86.47248,"zip":"35112","miles_from_dt":29.97}],"targetCityZipCode":"35044","targetCityState":"Alabama"},"__N_SSG":true}