{"pageProps":{"stateName":"Alabama","cityName":"douglas","nearbyCities":[{"city":"Horton","state_name":"Alabama","lat":34.17719,"lng":-86.38335,"zip":"35980","miles_from_dt":3.49},{"city":"Albertville","state_name":"Alabama","lat":34.25273,"lng":-86.26023,"zip":"35950","miles_from_dt":6.69},{"city":"Walnut Grove","state_name":"Alabama","lat":34.06676,"lng":-86.3052,"zip":"35990","miles_from_dt":7.25},{"city":"Boaz","state_name":"Alabama","lat":34.19105,"lng":-86.19531,"zip":"35957","miles_from_dt":7.44},{"city":"Altoona","state_name":"Alabama","lat":34.05322,"lng":-86.3082,"zip":"35952","miles_from_dt":8.15},{"city":"Boaz","state_name":"Alabama","lat":34.1433,"lng":-86.14799,"zip":"35956","miles_from_dt":10.2},{"city":"Guntersville","state_name":"Alabama","lat":34.34819,"lng":-86.32919,"zip":"35976","miles_from_dt":12.23},{"city":"Gallant","state_name":"Alabama","lat":33.98797,"lng":-86.24943,"zip":"35972","miles_from_dt":13.29},{"city":"Blountsville","state_name":"Alabama","lat":34.10256,"lng":-86.5455,"zip":"35031","miles_from_dt":13.6},{"city":"Arab","state_name":"Alabama","lat":34.32545,"lng":-86.5033,"zip":"35016","miles_from_dt":14.84},{"city":"Albertville","state_name":"Alabama","lat":34.33713,"lng":-86.1553,"zip":"35951","miles_from_dt":14.94},{"city":"Holly Pond","state_name":"Alabama","lat":34.19718,"lng":-86.5931,"zip":"35083","miles_from_dt":15.58},{"city":"Attalla","state_name":"Alabama","lat":34.08952,"lng":-86.05771,"zip":"35954","miles_from_dt":16.2},{"city":"Joppa","state_name":"Alabama","lat":34.30556,"lng":-86.58252,"zip":"35087","miles_from_dt":17.52},{"city":"Oneonta","state_name":"Alabama","lat":33.9397,"lng":-86.454,"zip":"35121","miles_from_dt":17.62},{"city":"Steele","state_name":"Alabama","lat":33.91557,"lng":-86.23889,"zip":"35987","miles_from_dt":18.24},{"city":"Crossville","state_name":"Alabama","lat":34.29916,"lng":-86.03795,"zip":"35962","miles_from_dt":18.55},{"city":"Baileyton","state_name":"Alabama","lat":34.29828,"lng":-86.63496,"zip":"35019","miles_from_dt":19.91},{"city":"Gadsden","state_name":"Alabama","lat":34.07569,"lng":-85.98519,"zip":"35904","miles_from_dt":20.44},{"city":"Rainbow City","state_name":"Alabama","lat":33.93159,"lng":-86.09033,"zip":"35906","miles_from_dt":21.21},{"city":"Union Grove","state_name":"Alabama","lat":34.43731,"lng":-86.51673,"zip":"35175","miles_from_dt":21.45},{"city":"Cleveland","state_name":"Alabama","lat":33.95674,"lng":-86.59904,"zip":"35049","miles_from_dt":21.65},{"city":"Allgood","state_name":"Alabama","lat":33.90166,"lng":-86.51785,"zip":"35013","miles_from_dt":21.67},{"city":"Geraldine","state_name":"Alabama","lat":34.36284,"lng":-86.0099,"zip":"35974","miles_from_dt":22.27},{"city":"Grant","state_name":"Alabama","lat":34.49414,"lng":-86.30497,"zip":"35747","miles_from_dt":22.31},{"city":"Groveoak","state_name":"Alabama","lat":34.43832,"lng":-86.06655,"zip":"35975","miles_from_dt":23.56},{"city":"Cullman","state_name":"Alabama","lat":34.23082,"lng":-86.73265,"zip":"35058","miles_from_dt":23.83},{"city":"Gadsden","state_name":"Alabama","lat":34.00028,"lng":-85.95643,"zip":"35902","miles_from_dt":24.08},{"city":"Gadsden","state_name":"Alabama","lat":34.04848,"lng":-85.92395,"zip":"35901","miles_from_dt":24.38},{"city":"Cullman","state_name":"Alabama","lat":34.1542,"lng":-86.75932,"zip":"35055","miles_from_dt":25.03},{"city":"Gadsden","state_name":"Alabama","lat":33.89874,"lng":-86.02408,"zip":"35907","miles_from_dt":25.41},{"city":"Locust Fork","state_name":"Alabama","lat":33.89871,"lng":-86.62526,"zip":"35097","miles_from_dt":25.55},{"city":"Ashville","state_name":"Alabama","lat":33.81058,"lng":-86.20986,"zip":"35953","miles_from_dt":25.67},{"city":"Langston","state_name":"Alabama","lat":34.50676,"lng":-86.12609,"zip":"35755","miles_from_dt":25.74},{"city":"Dawson","state_name":"Alabama","lat":34.35812,"lng":-85.93114,"zip":"35963","miles_from_dt":25.87},{"city":"Eva","state_name":"Alabama","lat":34.34967,"lng":-86.7239,"zip":"35621","miles_from_dt":26.05},{"city":"New Hope","state_name":"Alabama","lat":34.54768,"lng":-86.38324,"zip":"35760","miles_from_dt":26.2},{"city":"Garden City","state_name":"Alabama","lat":34.01394,"lng":-86.74443,"zip":"35070","miles_from_dt":26.48},{"city":"Springville","state_name":"Alabama","lat":33.79275,"lng":-86.43258,"zip":"35146","miles_from_dt":26.81},{"city":"Collinsville","state_name":"Alabama","lat":34.27753,"lng":-85.86241,"zip":"35961","miles_from_dt":27.37},{"city":"Gadsden","state_name":"Alabama","lat":34.03144,"lng":-85.85703,"zip":"35903","miles_from_dt":28.39},{"city":"Remlap","state_name":"Alabama","lat":33.81969,"lng":-86.59878,"zip":"35133","miles_from_dt":28.93},{"city":"Laceys Spring","state_name":"Alabama","lat":34.51819,"lng":-86.61099,"zip":"35754","miles_from_dt":29.06},{"city":"Fyffe","state_name":"Alabama","lat":34.45603,"lng":-85.9466,"zip":"35971","miles_from_dt":29.15},{"city":"Gadsden","state_name":"Alabama","lat":33.93667,"lng":-85.89842,"zip":"35905","miles_from_dt":29.22},{"city":"Hayden","state_name":"Alabama","lat":33.94118,"lng":-86.75261,"zip":"35079","miles_from_dt":29.3},{"city":"Huntsville","state_name":"Alabama","lat":34.56476,"lng":-86.52185,"zip":"35803","miles_from_dt":29.44}],"targetCityZipCode":"35964","targetCityState":"Alabama"},"__N_SSG":true}