{"pageProps":{"stateName":"Alabama","cityName":"eastaboga","nearbyCities":[{"city":"Bynum","state_name":"Alabama","lat":33.60249,"lng":-85.96263,"zip":"36253","miles_from_dt":2.43},{"city":"Lincoln","state_name":"Alabama","lat":33.62141,"lng":-86.10849,"zip":"35096","miles_from_dt":6.69},{"city":"Munford","state_name":"Alabama","lat":33.49469,"lng":-85.94016,"zip":"36268","miles_from_dt":7.22},{"city":"Anniston","state_name":"Alabama","lat":33.65082,"lng":-85.88264,"zip":"36201","miles_from_dt":8.1},{"city":"Oxford","state_name":"Alabama","lat":33.58205,"lng":-85.83312,"zip":"36203","miles_from_dt":9.65},{"city":"Anniston","state_name":"Alabama","lat":33.71868,"lng":-85.8756,"zip":"36202","miles_from_dt":11.6},{"city":"Riverside","state_name":"Alabama","lat":33.61814,"lng":-86.1991,"zip":"35135","miles_from_dt":11.67},{"city":"Talladega","state_name":"Alabama","lat":33.43765,"lng":-86.10313,"zip":"35161","miles_from_dt":11.86},{"city":"Anniston","state_name":"Alabama","lat":33.68477,"lng":-85.82212,"zip":"36204","miles_from_dt":12.3},{"city":"Ohatchee","state_name":"Alabama","lat":33.78215,"lng":-86.01624,"zip":"36271","miles_from_dt":13.51},{"city":"Alexandria","state_name":"Alabama","lat":33.76564,"lng":-85.89675,"zip":"36250","miles_from_dt":13.7},{"city":"Anniston","state_name":"Alabama","lat":33.70037,"lng":-85.78898,"zip":"36205","miles_from_dt":14.48},{"city":"Anniston","state_name":"Alabama","lat":33.73225,"lng":-85.81638,"zip":"36206","miles_from_dt":14.6},{"city":"Ragland","state_name":"Alabama","lat":33.72062,"lng":-86.19965,"zip":"35131","miles_from_dt":14.74},{"city":"De Armanville","state_name":"Alabama","lat":33.62852,"lng":-85.74325,"zip":"36257","miles_from_dt":15.1},{"city":"Wattsville","state_name":"Alabama","lat":33.66056,"lng":-86.26333,"zip":"35182","miles_from_dt":16},{"city":"Weaver","state_name":"Alabama","lat":33.7609,"lng":-85.81541,"zip":"36277","miles_from_dt":16.05},{"city":"Talladega","state_name":"Alabama","lat":33.36898,"lng":-86.1005,"zip":"35160","miles_from_dt":16.08},{"city":"Pell City","state_name":"Alabama","lat":33.62567,"lng":-86.29594,"zip":"35125","miles_from_dt":17.26},{"city":"Anniston","state_name":"Alabama","lat":33.68196,"lng":-85.71356,"zip":"36207","miles_from_dt":17.79},{"city":"Delta","state_name":"Alabama","lat":33.47795,"lng":-85.716,"zip":"36258","miles_from_dt":18.03},{"city":"Choccolocco","state_name":"Alabama","lat":33.65793,"lng":-85.6992,"zip":"36254","miles_from_dt":18.04},{"city":"Ashville","state_name":"Alabama","lat":33.81058,"lng":-86.20986,"zip":"35953","miles_from_dt":19.6},{"city":"Cropwell","state_name":"Alabama","lat":33.50417,"lng":-86.32693,"zip":"35054","miles_from_dt":19.69},{"city":"Pell City","state_name":"Alabama","lat":33.54738,"lng":-86.34596,"zip":"35128","miles_from_dt":20.13},{"city":"Wellington","state_name":"Alabama","lat":33.87237,"lng":-85.88645,"zip":"36279","miles_from_dt":20.76},{"city":"Gadsden","state_name":"Alabama","lat":33.89874,"lng":-86.02408,"zip":"35907","miles_from_dt":21.56},{"city":"Alpine","state_name":"Alabama","lat":33.36097,"lng":-86.25909,"zip":"35014","miles_from_dt":21.57},{"city":"Lineville","state_name":"Alabama","lat":33.35338,"lng":-85.75062,"zip":"36266","miles_from_dt":21.59},{"city":"Jacksonville","state_name":"Alabama","lat":33.84659,"lng":-85.78662,"zip":"36265","miles_from_dt":21.74},{"city":"Cook Springs","state_name":"Alabama","lat":33.59228,"lng":-86.40771,"zip":"35052","miles_from_dt":23.51},{"city":"Rainbow City","state_name":"Alabama","lat":33.93159,"lng":-86.09033,"zip":"35906","miles_from_dt":24.33},{"city":"Gadsden","state_name":"Alabama","lat":33.93667,"lng":-85.89842,"zip":"35905","miles_from_dt":24.83},{"city":"Odenville","state_name":"Alabama","lat":33.66777,"lng":-86.42064,"zip":"35120","miles_from_dt":24.87},{"city":"Vincent","state_name":"Alabama","lat":33.42003,"lng":-86.39993,"zip":"35178","miles_from_dt":25.77},{"city":"Ashland","state_name":"Alabama","lat":33.22996,"lng":-85.86532,"zip":"36251","miles_from_dt":25.79},{"city":"Sycamore","state_name":"Alabama","lat":33.24378,"lng":-86.20709,"zip":"35149","miles_from_dt":26.48},{"city":"Steele","state_name":"Alabama","lat":33.91557,"lng":-86.23889,"zip":"35987","miles_from_dt":26.51},{"city":"Heflin","state_name":"Alabama","lat":33.59305,"lng":-85.53817,"zip":"36264","miles_from_dt":26.66},{"city":"Millerville","state_name":"Alabama","lat":33.19513,"lng":-85.94659,"zip":"36267","miles_from_dt":27.16},{"city":"Margaret","state_name":"Alabama","lat":33.69374,"lng":-86.47248,"zip":"35112","miles_from_dt":28.21},{"city":"Moody","state_name":"Alabama","lat":33.60369,"lng":-86.49333,"zip":"35004","miles_from_dt":28.46},{"city":"Gadsden","state_name":"Alabama","lat":34.00028,"lng":-85.95643,"zip":"35902","miles_from_dt":28.62},{"city":"Springville","state_name":"Alabama","lat":33.79275,"lng":-86.43258,"zip":"35146","miles_from_dt":28.67},{"city":"Bon Air","state_name":"Alabama","lat":33.26321,"lng":-86.33408,"zip":"35032","miles_from_dt":29.48},{"city":"Edwardsville","state_name":"Alabama","lat":33.7074,"lng":-85.50936,"zip":"36261","miles_from_dt":29.49},{"city":"Vandiver","state_name":"Alabama","lat":33.4817,"lng":-86.50221,"zip":"35176","miles_from_dt":29.86}],"targetCityZipCode":"36260","targetCityState":"Alabama"},"__N_SSG":true}