{"pageProps":{"stateName":"Alabama","cityName":"myrtlewood","nearbyCities":[{"city":"Pennington","state_name":"Alabama","lat":32.23788,"lng":-88.04143,"zip":"36916","miles_from_dt":4.77},{"city":"Jefferson","state_name":"Alabama","lat":32.38754,"lng":-87.90205,"zip":"36745","miles_from_dt":9.41},{"city":"Nanafalia","state_name":"Alabama","lat":32.11518,"lng":-87.98526,"zip":"36764","miles_from_dt":10.17},{"city":"Sweet Water","state_name":"Alabama","lat":32.11684,"lng":-87.90996,"zip":"36782","miles_from_dt":10.5},{"city":"Linden","state_name":"Alabama","lat":32.27084,"lng":-87.77728,"zip":"36748","miles_from_dt":11.01},{"city":"Demopolis","state_name":"Alabama","lat":32.41638,"lng":-87.91367,"zip":"36732","miles_from_dt":11.07},{"city":"Ward","state_name":"Alabama","lat":32.30061,"lng":-88.15068,"zip":"36922","miles_from_dt":11.19},{"city":"Jachin","state_name":"Alabama","lat":32.23078,"lng":-88.15928,"zip":"36910","miles_from_dt":11.57},{"city":"Bellamy","state_name":"Alabama","lat":32.42284,"lng":-88.1465,"zip":"36901","miles_from_dt":15.35},{"city":"Magnolia","state_name":"Alabama","lat":32.15731,"lng":-87.70238,"zip":"36754","miles_from_dt":16.99},{"city":"Dixons Mills","state_name":"Alabama","lat":32.07832,"lng":-87.76444,"zip":"36736","miles_from_dt":17.27},{"city":"York","state_name":"Alabama","lat":32.43468,"lng":-88.1791,"zip":"36925","miles_from_dt":17.28},{"city":"Gallion","state_name":"Alabama","lat":32.45836,"lng":-87.74215,"zip":"36742","miles_from_dt":18.8},{"city":"Lisman","state_name":"Alabama","lat":32.23825,"lng":-88.30369,"zip":"36912","miles_from_dt":19.89},{"city":"Butler","state_name":"Alabama","lat":32.10287,"lng":-88.25596,"zip":"36904","miles_from_dt":20.26},{"city":"Thomaston","state_name":"Alabama","lat":32.24085,"lng":-87.6081,"zip":"36783","miles_from_dt":20.95},{"city":"Livingston","state_name":"Alabama","lat":32.56801,"lng":-88.09894,"zip":"35470","miles_from_dt":22.5},{"city":"Faunsdale","state_name":"Alabama","lat":32.43421,"lng":-87.62481,"zip":"36738","miles_from_dt":23.18},{"city":"Thomasville","state_name":"Alabama","lat":31.94208,"lng":-87.82271,"zip":"36784","miles_from_dt":23.56},{"city":"Toxey","state_name":"Alabama","lat":31.96956,"lng":-88.19108,"zip":"36921","miles_from_dt":24.11},{"city":"Campbell","state_name":"Alabama","lat":31.91193,"lng":-88.02054,"zip":"36727","miles_from_dt":24.33},{"city":"Cuba","state_name":"Alabama","lat":32.43895,"lng":-88.34797,"zip":"36907","miles_from_dt":25.5},{"city":"Arlington","state_name":"Alabama","lat":32.08124,"lng":-87.57661,"zip":"36722","miles_from_dt":25.95},{"city":"Forkland","state_name":"Alabama","lat":32.62421,"lng":-87.83209,"zip":"36740","miles_from_dt":26.15},{"city":"Catherine","state_name":"Alabama","lat":32.16625,"lng":-87.48416,"zip":"36728","miles_from_dt":28.93}],"targetCityZipCode":"36763","targetCityState":"Alabama"},"__N_SSG":true}