{"pageProps":{"stateName":"Alabama","cityName":"plantersville","nearbyCities":[{"city":"Stanton","state_name":"Alabama","lat":32.72758,"lng":-86.9107,"zip":"36790","miles_from_dt":5.45},{"city":"Jones","state_name":"Alabama","lat":32.54759,"lng":-86.85303,"zip":"36749","miles_from_dt":7.51},{"city":"Maplesville","state_name":"Alabama","lat":32.78396,"lng":-86.84361,"zip":"36750","miles_from_dt":9.85},{"city":"Billingsley","state_name":"Alabama","lat":32.63831,"lng":-86.72531,"zip":"36006","miles_from_dt":10.2},{"city":"Selma","state_name":"Alabama","lat":32.49672,"lng":-87.0568,"zip":"36701","miles_from_dt":13.94},{"city":"Lawley","state_name":"Alabama","lat":32.8292,"lng":-87.00947,"zip":"36793","miles_from_dt":13.96},{"city":"Selma","state_name":"Alabama","lat":32.43387,"lng":-86.91118,"zip":"36703","miles_from_dt":14.85},{"city":"Autaugaville","state_name":"Alabama","lat":32.44651,"lng":-86.72536,"zip":"36003","miles_from_dt":17.28},{"city":"Clanton","state_name":"Alabama","lat":32.81127,"lng":-86.67249,"zip":"35045","miles_from_dt":17.32},{"city":"Thorsby","state_name":"Alabama","lat":32.87823,"lng":-86.74636,"zip":"35171","miles_from_dt":18.14},{"city":"Selma","state_name":"Alabama","lat":32.40624,"lng":-87.02243,"zip":"36702","miles_from_dt":18.2},{"city":"Randolph","state_name":"Alabama","lat":32.92146,"lng":-86.91147,"zip":"36792","miles_from_dt":18.78},{"city":"Prattville","state_name":"Alabama","lat":32.51134,"lng":-86.57084,"zip":"36067","miles_from_dt":21.41},{"city":"Booth","state_name":"Alabama","lat":32.49747,"lng":-86.56416,"zip":"36008","miles_from_dt":22.19},{"city":"Verbena","state_name":"Alabama","lat":32.74881,"lng":-86.52021,"zip":"36091","miles_from_dt":23.16},{"city":"Marion","state_name":"Alabama","lat":32.69327,"lng":-87.29873,"zip":"36756","miles_from_dt":23.45},{"city":"Centreville","state_name":"Alabama","lat":32.93297,"lng":-87.12542,"zip":"35042","miles_from_dt":23.56},{"city":"Marbury","state_name":"Alabama","lat":32.68771,"lng":-86.488,"zip":"36051","miles_from_dt":24.15},{"city":"Jemison","state_name":"Alabama","lat":32.97975,"lng":-86.73584,"zip":"35085","miles_from_dt":24.7},{"city":"Tyler","state_name":"Alabama","lat":32.27615,"lng":-86.82683,"zip":"36785","miles_from_dt":26.05},{"city":"Marion Junction","state_name":"Alabama","lat":32.42977,"lng":-87.28722,"zip":"36759","miles_from_dt":27.2},{"city":"Brierfield","state_name":"Alabama","lat":33.04423,"lng":-86.97149,"zip":"35035","miles_from_dt":27.55},{"city":"Brent","state_name":"Alabama","lat":32.9016,"lng":-87.26948,"zip":"35034","miles_from_dt":27.68},{"city":"Clanton","state_name":"Alabama","lat":32.923,"lng":-86.54127,"zip":"35046","miles_from_dt":28.14},{"city":"Lowndesboro","state_name":"Alabama","lat":32.30628,"lng":-86.62544,"zip":"36752","miles_from_dt":28.54},{"city":"Deatsville","state_name":"Alabama","lat":32.61951,"lng":-86.40492,"zip":"36022","miles_from_dt":28.92},{"city":"Wilton","state_name":"Alabama","lat":33.07363,"lng":-86.87523,"zip":"35187","miles_from_dt":29.29},{"city":"Prattville","state_name":"Alabama","lat":32.46122,"lng":-86.44463,"zip":"36068","miles_from_dt":29.55}],"targetCityZipCode":"36758","targetCityState":"Alabama"},"__N_SSG":true}