{"pageProps":{"stateName":"Alabama","cityName":"york","nearbyCities":[{"city":"Bellamy","state_name":"Alabama","lat":32.42284,"lng":-88.1465,"zip":"36901","miles_from_dt":2.07},{"city":"Ward","state_name":"Alabama","lat":32.30061,"lng":-88.15068,"zip":"36922","miles_from_dt":9.39},{"city":"Cuba","state_name":"Alabama","lat":32.43895,"lng":-88.34797,"zip":"36907","miles_from_dt":9.87},{"city":"Livingston","state_name":"Alabama","lat":32.56801,"lng":-88.09894,"zip":"35470","miles_from_dt":10.31},{"city":"Jachin","state_name":"Alabama","lat":32.23078,"lng":-88.15928,"zip":"36910","miles_from_dt":14.1},{"city":"Lisman","state_name":"Alabama","lat":32.23825,"lng":-88.30369,"zip":"36912","miles_from_dt":15.37},{"city":"Demopolis","state_name":"Alabama","lat":32.41638,"lng":-87.91367,"zip":"36732","miles_from_dt":15.56},{"city":"Pennington","state_name":"Alabama","lat":32.23788,"lng":-88.04143,"zip":"36916","miles_from_dt":15.77},{"city":"Jefferson","state_name":"Alabama","lat":32.38754,"lng":-87.90205,"zip":"36745","miles_from_dt":16.52},{"city":"Myrtlewood","state_name":"Alabama","lat":32.26184,"lng":-87.96509,"zip":"36763","miles_from_dt":17.28},{"city":"Toomsuba","state_name":"Mississippi","lat":32.40597,"lng":-88.49617,"zip":"39364","miles_from_dt":18.64},{"city":"Lauderdale","state_name":"Mississippi","lat":32.53214,"lng":-88.49263,"zip":"39335","miles_from_dt":19.5},{"city":"Epes","state_name":"Alabama","lat":32.71882,"lng":-88.19452,"zip":"35460","miles_from_dt":19.6},{"city":"Butler","state_name":"Alabama","lat":32.10287,"lng":-88.25596,"zip":"36904","miles_from_dt":23.3},{"city":"Porterville","state_name":"Mississippi","lat":32.66834,"lng":-88.47808,"zip":"39352","miles_from_dt":23.74},{"city":"Forkland","state_name":"Alabama","lat":32.62421,"lng":-87.83209,"zip":"36740","miles_from_dt":24.1},{"city":"Gainesville","state_name":"Alabama","lat":32.78369,"lng":-88.14383,"zip":"35464","miles_from_dt":24.14},{"city":"Meridian","state_name":"Mississippi","lat":32.55417,"lng":-88.57422,"zip":"39309","miles_from_dt":24.5},{"city":"Boligee","state_name":"Alabama","lat":32.76538,"lng":-88.01908,"zip":"35443","miles_from_dt":24.63},{"city":"Nanafalia","state_name":"Alabama","lat":32.11518,"lng":-87.98526,"zip":"36764","miles_from_dt":24.77},{"city":"Gallion","state_name":"Alabama","lat":32.45836,"lng":-87.74215,"zip":"36742","miles_from_dt":25.58},{"city":"Emelle","state_name":"Alabama","lat":32.79337,"lng":-88.3003,"zip":"35459","miles_from_dt":25.71},{"city":"Linden","state_name":"Alabama","lat":32.27084,"lng":-87.77728,"zip":"36748","miles_from_dt":26.07},{"city":"Meridian","state_name":"Mississippi","lat":32.27289,"lng":-88.59226,"zip":"39301","miles_from_dt":26.61},{"city":"Sweet Water","state_name":"Alabama","lat":32.11684,"lng":-87.90996,"zip":"36782","miles_from_dt":26.98},{"city":"Marion","state_name":"Mississippi","lat":32.42566,"lng":-88.64968,"zip":"39342","miles_from_dt":27.51}],"targetCityZipCode":"36925","targetCityState":"Alabama"},"__N_SSG":true}