{"pageProps":{"stateName":"New-york","cityName":"canisteo","nearbyCities":[{"city":"Hornell","state_name":"New York","lat":42.32819,"lng":-77.64371,"zip":"14843","miles_from_dt":7.11},{"city":"Cameron","state_name":"New York","lat":42.21924,"lng":-77.43466,"zip":"14819","miles_from_dt":7.2},{"city":"Jasper","state_name":"New York","lat":42.13978,"lng":-77.50112,"zip":"14855","miles_from_dt":7.81},{"city":"Greenwood","state_name":"New York","lat":42.13961,"lng":-77.64331,"zip":"14839","miles_from_dt":7.82},{"city":"Alfred Station","state_name":"New York","lat":42.25135,"lng":-77.78808,"zip":"14803","miles_from_dt":11.1},{"city":"Alfred","state_name":"New York","lat":42.2537,"lng":-77.78989,"zip":"14802","miles_from_dt":11.2},{"city":"Cameron Mills","state_name":"New York","lat":42.18629,"lng":-77.36258,"zip":"14820","miles_from_dt":11.37},{"city":"Andover","state_name":"New York","lat":42.15543,"lng":-77.78662,"zip":"14806","miles_from_dt":12.45},{"city":"Troupsburg","state_name":"New York","lat":42.048,"lng":-77.57117,"zip":"14885","miles_from_dt":13.24},{"city":"Rexville","state_name":"New York","lat":42.06181,"lng":-77.68384,"zip":"14877","miles_from_dt":13.56},{"city":"Bath","state_name":"New York","lat":42.34678,"lng":-77.34599,"zip":"14810","miles_from_dt":13.74},{"city":"Avoca","state_name":"New York","lat":42.41961,"lng":-77.44355,"zip":"14809","miles_from_dt":14.05},{"city":"Kanona","state_name":"New York","lat":42.37737,"lng":-77.36944,"zip":"14856","miles_from_dt":14.07},{"city":"Arkport","state_name":"New York","lat":42.41821,"lng":-77.71949,"zip":"14807","miles_from_dt":14.44},{"city":"Woodhull","state_name":"New York","lat":42.05729,"lng":-77.43482,"zip":"14898","miles_from_dt":14.44},{"city":"Almond","state_name":"New York","lat":42.31587,"lng":-77.8476,"zip":"14804","miles_from_dt":15.06},{"city":"Addison","state_name":"New York","lat":42.09718,"lng":-77.28461,"zip":"14801","miles_from_dt":17.75},{"city":"Cohocton","state_name":"New York","lat":42.49354,"lng":-77.49335,"zip":"14826","miles_from_dt":17.97},{"city":"Campbell","state_name":"New York","lat":42.23541,"lng":-77.21623,"zip":"14821","miles_from_dt":18.26},{"city":"Whitesville","state_name":"New York","lat":42.02949,"lng":-77.79076,"zip":"14897","miles_from_dt":18.35},{"city":"Harrison Valley","state_name":"Pennsylvania","lat":41.9655,"lng":-77.65941,"zip":"16927","miles_from_dt":19.46},{"city":"Canaseraga","state_name":"New York","lat":42.43522,"lng":-77.84702,"zip":"14822","miles_from_dt":19.49},{"city":"Genesee","state_name":"Pennsylvania","lat":41.98841,"lng":-77.75796,"zip":"16941","miles_from_dt":19.81},{"city":"Savona","state_name":"New York","lat":42.31521,"lng":-77.19323,"zip":"14879","miles_from_dt":20.11},{"city":"Mills","state_name":"Pennsylvania","lat":41.96421,"lng":-77.71004,"zip":"16937","miles_from_dt":20.3},{"city":"Perkinsville","state_name":"New York","lat":42.53748,"lng":-77.64418,"zip":"14529","miles_from_dt":20.87},{"city":"Scio","state_name":"New York","lat":42.17363,"lng":-77.97334,"zip":"14880","miles_from_dt":21.09},{"city":"Knoxville","state_name":"Pennsylvania","lat":41.95203,"lng":-77.43371,"zip":"16928","miles_from_dt":21.1},{"city":"Belmont","state_name":"New York","lat":42.24638,"lng":-77.99209,"zip":"14813","miles_from_dt":21.54},{"city":"Wellsville","state_name":"New York","lat":42.07772,"lng":-77.93387,"zip":"14895","miles_from_dt":21.68},{"city":"Osceola","state_name":"Pennsylvania","lat":41.9654,"lng":-77.35414,"zip":"16942","miles_from_dt":22.01},{"city":"Coopers Plains","state_name":"New York","lat":42.18069,"lng":-77.14292,"zip":"14827","miles_from_dt":22.4},{"city":"Angelica","state_name":"New York","lat":42.35279,"lng":-77.98267,"zip":"14709","miles_from_dt":22.43},{"city":"Wayland","state_name":"New York","lat":42.5669,"lng":-77.57017,"zip":"14572","miles_from_dt":22.57},{"city":"Atlanta","state_name":"New York","lat":42.55817,"lng":-77.46882,"zip":"14808","miles_from_dt":22.6},{"city":"Swain","state_name":"New York","lat":42.47613,"lng":-77.88724,"zip":"14884","miles_from_dt":22.94},{"city":"Elkland","state_name":"Pennsylvania","lat":41.98218,"lng":-77.28851,"zip":"16920","miles_from_dt":23},{"city":"Painted Post","state_name":"New York","lat":42.16816,"lng":-77.13234,"zip":"14870","miles_from_dt":23.11},{"city":"Westfield","state_name":"Pennsylvania","lat":41.89816,"lng":-77.53429,"zip":"16950","miles_from_dt":23.66},{"city":"Prattsburgh","state_name":"New York","lat":42.52181,"lng":-77.29814,"zip":"14873","miles_from_dt":23.99},{"city":"Hammondsport","state_name":"New York","lat":42.44119,"lng":-77.18758,"zip":"14840","miles_from_dt":24.1},{"city":"Dansville","state_name":"New York","lat":42.57072,"lng":-77.73435,"zip":"14437","miles_from_dt":24.3},{"city":"Nelson","state_name":"Pennsylvania","lat":41.97752,"lng":-77.23373,"zip":"16940","miles_from_dt":25.11},{"city":"Genesee","state_name":"Pennsylvania","lat":41.94103,"lng":-77.8761,"zip":"16923","miles_from_dt":25.87},{"city":"Dalton","state_name":"New York","lat":42.51526,"lng":-77.91526,"zip":"14836","miles_from_dt":25.88},{"city":"Bradford","state_name":"New York","lat":42.37335,"lng":-77.09463,"zip":"14815","miles_from_dt":26.15},{"city":"Lindley","state_name":"New York","lat":42.02909,"lng":-77.13315,"zip":"14858","miles_from_dt":26.84},{"city":"Corning","state_name":"New York","lat":42.14715,"lng":-77.05647,"zip":"14831","miles_from_dt":27.23},{"city":"Allentown","state_name":"New York","lat":42.08256,"lng":-78.06196,"zip":"14707","miles_from_dt":27.39},{"city":"Sabinsville","state_name":"Pennsylvania","lat":41.8406,"lng":-77.61915,"zip":"16943","miles_from_dt":27.66},{"city":"Tyrone","state_name":"New York","lat":42.40247,"lng":-77.06989,"zip":"14887","miles_from_dt":28.07},{"city":"Ulysses","state_name":"Pennsylvania","lat":41.85369,"lng":-77.75683,"zip":"16948","miles_from_dt":28.29},{"city":"Wayne","state_name":"New York","lat":42.46952,"lng":-77.11182,"zip":"14893","miles_from_dt":28.4},{"city":"Lawrenceville","state_name":"Pennsylvania","lat":41.97352,"lng":-77.15028,"zip":"16929","miles_from_dt":28.43},{"city":"Middlebury Center","state_name":"Pennsylvania","lat":41.87032,"lng":-77.32404,"zip":"16935","miles_from_dt":28.52},{"city":"Pulteney","state_name":"New York","lat":42.53231,"lng":-77.17234,"zip":"14874","miles_from_dt":28.74},{"city":"Belfast","state_name":"New York","lat":42.32088,"lng":-78.12625,"zip":"14711","miles_from_dt":28.94},{"city":"Corning","state_name":"New York","lat":42.12927,"lng":-77.02783,"zip":"14830","miles_from_dt":28.97},{"city":"Naples","state_name":"New York","lat":42.64411,"lng":-77.39296,"zip":"14512","miles_from_dt":29.37},{"city":"Nunda","state_name":"New York","lat":42.59217,"lng":-77.8971,"zip":"14517","miles_from_dt":29.45},{"city":"Hunt","state_name":"New York","lat":42.5301,"lng":-78.00319,"zip":"14846","miles_from_dt":29.79},{"city":"Friendship","state_name":"New York","lat":42.1925,"lng":-78.14932,"zip":"14739","miles_from_dt":29.79},{"city":"Beaver Dams","state_name":"New York","lat":42.29199,"lng":-76.99413,"zip":"14812","miles_from_dt":29.85},{"city":"Alma","state_name":"New York","lat":42.01424,"lng":-78.06988,"zip":"14708","miles_from_dt":29.94},{"city":"Scottsburg","state_name":"New York","lat":42.66166,"lng":-77.71056,"zip":"14545","miles_from_dt":29.96}],"targetCityZipCode":"14823","targetCityState":"New York"},"__N_SSG":true}