{"pageProps":{"stateName":"New-york","cityName":"poplar-ridge","nearbyCities":[{"city":"Scipio Center","state_name":"New York","lat":42.77336,"lng":-76.56603,"zip":"13147","miles_from_dt":2.79},{"city":"Aurora","state_name":"New York","lat":42.75044,"lng":-76.65968,"zip":"13026","miles_from_dt":3.21},{"city":"King Ferry","state_name":"New York","lat":42.67364,"lng":-76.62527,"zip":"13081","miles_from_dt":4.82},{"city":"Genoa","state_name":"New York","lat":42.67584,"lng":-76.54252,"zip":"13071","miles_from_dt":5.28},{"city":"Union Springs","state_name":"New York","lat":42.82613,"lng":-76.65157,"zip":"13160","miles_from_dt":6.51},{"city":"Moravia","state_name":"New York","lat":42.75226,"lng":-76.39522,"zip":"13118","miles_from_dt":10.34},{"city":"Locke","state_name":"New York","lat":42.65145,"lng":-76.42502,"zip":"13092","miles_from_dt":10.74},{"city":"Lansing","state_name":"New York","lat":42.5801,"lng":-76.56576,"zip":"14882","miles_from_dt":11.2},{"city":"Ovid","state_name":"New York","lat":42.67639,"lng":-76.80876,"zip":"14521","miles_from_dt":11.61},{"city":"Interlaken","state_name":"New York","lat":42.6031,"lng":-76.74047,"zip":"14847","miles_from_dt":11.95},{"city":"Fayette","state_name":"New York","lat":42.81884,"lng":-76.81577,"zip":"13065","miles_from_dt":12.32},{"city":"Auburn","state_name":"New York","lat":42.91713,"lng":-76.5542,"zip":"13021","miles_from_dt":12.39},{"city":"Romulus","state_name":"New York","lat":42.75704,"lng":-76.84403,"zip":"14541","miles_from_dt":12.57},{"city":"Auburn","state_name":"New York","lat":42.91996,"lng":-76.55292,"zip":"13022","miles_from_dt":12.59},{"city":"Cayuga","state_name":"New York","lat":42.91366,"lng":-76.69502,"zip":"13034","miles_from_dt":12.93},{"city":"Auburn","state_name":"New York","lat":42.93453,"lng":-76.57424,"zip":"13024","miles_from_dt":13.44},{"city":"Willard","state_name":"New York","lat":42.67973,"lng":-76.87047,"zip":"14588","miles_from_dt":14.49},{"city":"Groton","state_name":"New York","lat":42.58514,"lng":-76.39832,"zip":"13073","miles_from_dt":14.78},{"city":"Skaneateles","state_name":"New York","lat":42.89323,"lng":-76.38518,"zip":"13152","miles_from_dt":15.1},{"city":"Seneca Falls","state_name":"New York","lat":42.9208,"lng":-76.78106,"zip":"13148","miles_from_dt":15.53},{"city":"Jacksonville","state_name":"New York","lat":42.51138,"lng":-76.60874,"zip":"14854","miles_from_dt":15.83},{"city":"Lodi","state_name":"New York","lat":42.59099,"lng":-76.84201,"zip":"14860","miles_from_dt":16.16},{"city":"Trumansburg","state_name":"New York","lat":42.50408,"lng":-76.68836,"zip":"14886","miles_from_dt":16.96},{"city":"Ithaca","state_name":"New York","lat":42.50702,"lng":-76.47113,"zip":"14852","miles_from_dt":17.37},{"city":"Mottville","state_name":"New York","lat":42.97655,"lng":-76.44488,"zip":"13119","miles_from_dt":18.05},{"city":"Waterloo","state_name":"New York","lat":42.91185,"lng":-76.87601,"zip":"13165","miles_from_dt":18.42},{"city":"Dresden","state_name":"New York","lat":42.68608,"lng":-76.95756,"zip":"14441","miles_from_dt":18.69},{"city":"Marietta","state_name":"New York","lat":42.89019,"lng":-76.28507,"zip":"13110","miles_from_dt":18.96},{"city":"Skaneateles Falls","state_name":"New York","lat":42.9945,"lng":-76.45476,"zip":"13153","miles_from_dt":18.98},{"city":"Hector","state_name":"New York","lat":42.52699,"lng":-76.84249,"zip":"14841","miles_from_dt":19.31},{"city":"Montezuma","state_name":"New York","lat":43.01007,"lng":-76.70838,"zip":"13117","miles_from_dt":19.43},{"city":"McLean","state_name":"New York","lat":42.55276,"lng":-76.29253,"zip":"13102","miles_from_dt":20.25},{"city":"Homer","state_name":"New York","lat":42.71557,"lng":-76.20089,"zip":"13077","miles_from_dt":20.28},{"city":"Mecklenburg","state_name":"New York","lat":42.4555,"lng":-76.71105,"zip":"14863","miles_from_dt":20.5},{"city":"Freeville","state_name":"New York","lat":42.49905,"lng":-76.35555,"zip":"13068","miles_from_dt":20.75},{"city":"Ithaca","state_name":"New York","lat":42.44757,"lng":-76.50319,"zip":"14851","miles_from_dt":20.79},{"city":"Etna","state_name":"New York","lat":42.48121,"lng":-76.38694,"zip":"13062","miles_from_dt":20.89},{"city":"Preble","state_name":"New York","lat":42.76684,"lng":-76.18616,"zip":"13141","miles_from_dt":21.03},{"city":"Marcellus","state_name":"New York","lat":42.97349,"lng":-76.33069,"zip":"13108","miles_from_dt":21.04},{"city":"Himrod","state_name":"New York","lat":42.59666,"lng":-76.963,"zip":"14842","miles_from_dt":21.08},{"city":"Ithaca","state_name":"New York","lat":42.44727,"lng":-76.48149,"zip":"14853","miles_from_dt":21.1},{"city":"Bellona","state_name":"New York","lat":42.7559,"lng":-77.01643,"zip":"14415","miles_from_dt":21.32},{"city":"Elbridge","state_name":"New York","lat":43.02381,"lng":-76.41926,"zip":"13060","miles_from_dt":21.55},{"city":"Geneva","state_name":"New York","lat":42.84584,"lng":-77.00012,"zip":"14456","miles_from_dt":21.7},{"city":"Ithaca","state_name":"New York","lat":42.43249,"lng":-76.49891,"zip":"14850","miles_from_dt":21.86},{"city":"Port Byron","state_name":"New York","lat":43.05891,"lng":-76.65841,"zip":"13140","miles_from_dt":22.19},{"city":"Little York","state_name":"New York","lat":42.69634,"lng":-76.16493,"zip":"13087","miles_from_dt":22.25},{"city":"Lakemont","state_name":"New York","lat":42.51874,"lng":-76.92825,"zip":"14857","miles_from_dt":22.76},{"city":"Weedsport","state_name":"New York","lat":43.07219,"lng":-76.5568,"zip":"13166","miles_from_dt":22.99},{"city":"Burdett","state_name":"New York","lat":42.44878,"lng":-76.81688,"zip":"14818","miles_from_dt":23.03},{"city":"Cortland","state_name":"New York","lat":42.58692,"lng":-76.19029,"zip":"13045","miles_from_dt":23.32},{"city":"Hall","state_name":"New York","lat":42.79539,"lng":-77.0689,"zip":"14463","miles_from_dt":24.25},{"city":"Penn Yan","state_name":"New York","lat":42.66764,"lng":-77.06473,"zip":"14527","miles_from_dt":24.29},{"city":"Jordan","state_name":"New York","lat":43.08338,"lng":-76.47776,"zip":"13080","miles_from_dt":24.44},{"city":"Oaks Corners","state_name":"New York","lat":42.93017,"lng":-77.01246,"zip":"14518","miles_from_dt":24.79},{"city":"Syracuse","state_name":"New York","lat":42.97852,"lng":-76.22979,"zip":"13215","miles_from_dt":24.89},{"city":"Tully","state_name":"New York","lat":42.80321,"lng":-76.11545,"zip":"13159","miles_from_dt":24.91},{"city":"Dryden","state_name":"New York","lat":42.47513,"lng":-76.26471,"zip":"13053","miles_from_dt":24.99},{"city":"Camillus","state_name":"New York","lat":43.0448,"lng":-76.30775,"zip":"13031","miles_from_dt":25.65},{"city":"Nedrow","state_name":"New York","lat":42.94233,"lng":-76.1695,"zip":"13120","miles_from_dt":25.84},{"city":"East Homer","state_name":"New York","lat":42.67263,"lng":-76.09683,"zip":"13056","miles_from_dt":25.94},{"city":"Savannah","state_name":"New York","lat":43.09711,"lng":-76.76031,"zip":"13146","miles_from_dt":25.95},{"city":"Slaterville Springs","state_name":"New York","lat":42.4017,"lng":-76.35795,"zip":"14881","miles_from_dt":26.4},{"city":"Memphis","state_name":"New York","lat":43.10306,"lng":-76.41926,"zip":"13112","miles_from_dt":26.61},{"city":"Phelps","state_name":"New York","lat":42.96462,"lng":-77.02601,"zip":"14532","miles_from_dt":26.68},{"city":"La Fayette","state_name":"New York","lat":42.88938,"lng":-76.11314,"zip":"13084","miles_from_dt":26.69},{"city":"Rock Stream","state_name":"New York","lat":42.44946,"lng":-76.94401,"zip":"14878","miles_from_dt":26.74},{"city":"Dundee","state_name":"New York","lat":42.49919,"lng":-77.01668,"zip":"14837","miles_from_dt":27.08},{"city":"Apulia Station","state_name":"New York","lat":42.81646,"lng":-76.07458,"zip":"13020","miles_from_dt":27.12},{"city":"Blodgett Mills","state_name":"New York","lat":42.56236,"lng":-76.11986,"zip":"13738","miles_from_dt":27.29},{"city":"Alpine","state_name":"New York","lat":42.3563,"lng":-76.72618,"zip":"14805","miles_from_dt":27.32},{"city":"Clyde","state_name":"New York","lat":43.07939,"lng":-76.87779,"zip":"14433","miles_from_dt":27.36},{"city":"Gorham","state_name":"New York","lat":42.80179,"lng":-77.1305,"zip":"14461","miles_from_dt":27.41},{"city":"Odessa","state_name":"New York","lat":42.36403,"lng":-76.77052,"zip":"14869","miles_from_dt":27.44},{"city":"Newfield","state_name":"New York","lat":42.34243,"lng":-76.61461,"zip":"14867","miles_from_dt":27.49},{"city":"Stanley","state_name":"New York","lat":42.82218,"lng":-77.13131,"zip":"14561","miles_from_dt":27.7},{"city":"Reading Center","state_name":"New York","lat":42.43372,"lng":-76.95015,"zip":"14876","miles_from_dt":27.77},{"city":"Syracuse","state_name":"New York","lat":43.03969,"lng":-76.22277,"zip":"13219","miles_from_dt":28.09},{"city":"Warners","state_name":"New York","lat":43.09377,"lng":-76.31626,"zip":"13164","miles_from_dt":28.26},{"city":"South Butler","state_name":"New York","lat":43.13378,"lng":-76.76192,"zip":"13154","miles_from_dt":28.39},{"city":"Harford","state_name":"New York","lat":42.43542,"lng":-76.2177,"zip":"13784","miles_from_dt":28.63},{"city":"McGraw","state_name":"New York","lat":42.60211,"lng":-76.06665,"zip":"13101","miles_from_dt":28.7},{"city":"Syracuse","state_name":"New York","lat":43.01221,"lng":-76.16354,"zip":"13207","miles_from_dt":28.95},{"city":"Brooktondale","state_name":"New York","lat":42.36295,"lng":-76.34548,"zip":"14817","miles_from_dt":29.08},{"city":"Seneca Castle","state_name":"New York","lat":42.90494,"lng":-77.12653,"zip":"14547","miles_from_dt":29.16},{"city":"Keuka Park","state_name":"New York","lat":42.58011,"lng":-77.12791,"zip":"14478","miles_from_dt":29.18},{"city":"Plainville","state_name":"New York","lat":43.15165,"lng":-76.446,"zip":"13137","miles_from_dt":29.4},{"city":"Meridian","state_name":"New York","lat":43.16425,"lng":-76.53488,"zip":"13113","miles_from_dt":29.42},{"city":"Montour Falls","state_name":"New York","lat":42.35091,"lng":-76.83178,"zip":"14865","miles_from_dt":29.43},{"city":"Syracuse","state_name":"New York","lat":43.00474,"lng":-76.14163,"zip":"13205","miles_from_dt":29.48},{"city":"Syracuse","state_name":"New York","lat":43.08581,"lng":-76.24355,"zip":"13209","miles_from_dt":29.85}],"targetCityZipCode":"13139","targetCityState":"New York"},"__N_SSG":true}