{"pageProps":{"stateName":"New-york","cityName":"strykersville","nearbyCities":[{"city":"Java Village","state_name":"New York","lat":42.67921,"lng":-78.43446,"zip":"14083","miles_from_dt":3.61},{"city":"Cowlesville","state_name":"New York","lat":42.80637,"lng":-78.45448,"zip":"14037","miles_from_dt":5.29},{"city":"South Wales","state_name":"New York","lat":42.71723,"lng":-78.53606,"zip":"14139","miles_from_dt":5.38},{"city":"Varysburg","state_name":"New York","lat":42.74327,"lng":-78.32629,"zip":"14167","miles_from_dt":5.44},{"city":"Wales Center","state_name":"New York","lat":42.76446,"lng":-78.52938,"zip":"14169","miles_from_dt":5.45},{"city":"Java Center","state_name":"New York","lat":42.65689,"lng":-78.38435,"zip":"14082","miles_from_dt":5.7},{"city":"North Java","state_name":"New York","lat":42.66813,"lng":-78.33624,"zip":"14113","miles_from_dt":6.55},{"city":"East Aurora","state_name":"New York","lat":42.77054,"lng":-78.58084,"zip":"14052","miles_from_dt":8.03},{"city":"Holland","state_name":"New York","lat":42.64289,"lng":-78.54886,"zip":"14080","miles_from_dt":8.53},{"city":"Attica","state_name":"New York","lat":42.83158,"lng":-78.29784,"zip":"14011","miles_from_dt":9.71},{"city":"Marilla","state_name":"New York","lat":42.84272,"lng":-78.55481,"zip":"14102","miles_from_dt":9.89},{"city":"Arcade","state_name":"New York","lat":42.57542,"lng":-78.39241,"zip":"14009","miles_from_dt":10.96},{"city":"Darien Center","state_name":"New York","lat":42.88809,"lng":-78.37847,"zip":"14040","miles_from_dt":11.14},{"city":"Alden","state_name":"New York","lat":42.89487,"lng":-78.51008,"zip":"14004","miles_from_dt":11.95},{"city":"Chaffee","state_name":"New York","lat":42.56518,"lng":-78.50052,"zip":"14030","miles_from_dt":12},{"city":"West Falls","state_name":"New York","lat":42.70115,"lng":-78.67294,"zip":"14170","miles_from_dt":12.44},{"city":"Elma","state_name":"New York","lat":42.83241,"lng":-78.63678,"zip":"14059","miles_from_dt":12.52},{"city":"Spring Brook","state_name":"New York","lat":42.80125,"lng":-78.66507,"zip":"14140","miles_from_dt":12.79},{"city":"Warsaw","state_name":"New York","lat":42.74012,"lng":-78.17269,"zip":"14569","miles_from_dt":13.21},{"city":"Glenwood","state_name":"New York","lat":42.59984,"lng":-78.62984,"zip":"14069","miles_from_dt":13.57},{"city":"Colden","state_name":"New York","lat":42.65865,"lng":-78.68436,"zip":"14033","miles_from_dt":13.8},{"city":"Bliss","state_name":"New York","lat":42.58111,"lng":-78.24431,"zip":"14024","miles_from_dt":14.12},{"city":"Yorkshire","state_name":"New York","lat":42.52594,"lng":-78.47306,"zip":"14173","miles_from_dt":14.34},{"city":"Sardinia","state_name":"New York","lat":42.53057,"lng":-78.51738,"zip":"14134","miles_from_dt":14.54},{"city":"Gainesville","state_name":"New York","lat":42.62381,"lng":-78.18051,"zip":"14066","miles_from_dt":14.81},{"city":"East Concord","state_name":"New York","lat":42.5536,"lng":-78.60121,"zip":"14055","miles_from_dt":15.01},{"city":"Dale","state_name":"New York","lat":42.83593,"lng":-78.17101,"zip":"14039","miles_from_dt":15.1},{"city":"Crittenden","state_name":"New York","lat":42.94867,"lng":-78.47606,"zip":"14038","miles_from_dt":15.15},{"city":"Lancaster","state_name":"New York","lat":42.90661,"lng":-78.6291,"zip":"14086","miles_from_dt":15.69},{"city":"Alexander","state_name":"New York","lat":42.91788,"lng":-78.24703,"zip":"14005","miles_from_dt":15.93},{"city":"Orchard Park","state_name":"New York","lat":42.75204,"lng":-78.74402,"zip":"14127","miles_from_dt":15.94},{"city":"Sandusky","state_name":"New York","lat":42.49965,"lng":-78.37889,"zip":"14133","miles_from_dt":16.23},{"city":"Boston","state_name":"New York","lat":42.6232,"lng":-78.72609,"zip":"14025","miles_from_dt":16.74},{"city":"Corfu","state_name":"New York","lat":42.97447,"lng":-78.38712,"zip":"14036","miles_from_dt":16.92},{"city":"Buffalo","state_name":"New York","lat":42.83767,"lng":-78.74771,"zip":"14224","miles_from_dt":17.64},{"city":"Silver Springs","state_name":"New York","lat":42.67757,"lng":-78.09166,"zip":"14550","miles_from_dt":17.72},{"city":"North Boston","state_name":"New York","lat":42.68453,"lng":-78.77449,"zip":"14110","miles_from_dt":17.73},{"city":"Freedom","state_name":"New York","lat":42.48741,"lng":-78.31158,"zip":"14065","miles_from_dt":17.94},{"city":"Depew","state_name":"New York","lat":42.90142,"lng":-78.70431,"zip":"14043","miles_from_dt":18.14},{"city":"Delevan","state_name":"New York","lat":42.46882,"lng":-78.48377,"zip":"14042","miles_from_dt":18.33},{"city":"Wyoming","state_name":"New York","lat":42.82865,"lng":-78.09364,"zip":"14591","miles_from_dt":18.47},{"city":"Pike","state_name":"New York","lat":42.55318,"lng":-78.14959,"zip":"14130","miles_from_dt":18.94},{"city":"East Pembroke","state_name":"New York","lat":42.99183,"lng":-78.30663,"zip":"14056","miles_from_dt":19.06},{"city":"Buffalo","state_name":"New York","lat":42.88402,"lng":-78.74665,"zip":"14227","miles_from_dt":19.14},{"city":"East Bethany","state_name":"New York","lat":42.90606,"lng":-78.1312,"zip":"14054","miles_from_dt":19.46},{"city":"Bowmansville","state_name":"New York","lat":42.94212,"lng":-78.68794,"zip":"14026","miles_from_dt":19.5},{"city":"Clarence","state_name":"New York","lat":42.98661,"lng":-78.60908,"zip":"14031","miles_from_dt":19.77},{"city":"Centerville","state_name":"New York","lat":42.47293,"lng":-78.26346,"zip":"14029","miles_from_dt":19.81},{"city":"Springville","state_name":"New York","lat":42.52366,"lng":-78.7109,"zip":"14141","miles_from_dt":20.2},{"city":"Hamburg","state_name":"New York","lat":42.71297,"lng":-78.82985,"zip":"14075","miles_from_dt":20.29},{"city":"Buffalo","state_name":"New York","lat":42.78903,"lng":-78.82694,"zip":"14219","miles_from_dt":20.47},{"city":"Castile","state_name":"New York","lat":42.61828,"lng":-78.05442,"zip":"14427","miles_from_dt":20.76},{"city":"Silver Lake","state_name":"New York","lat":42.69667,"lng":-78.02212,"zip":"14549","miles_from_dt":21},{"city":"Buffalo","state_name":"New York","lat":42.92792,"lng":-78.74765,"zip":"14241","miles_from_dt":21},{"city":"Buffalo","state_name":"New York","lat":42.81921,"lng":-78.82772,"zip":"14218","miles_from_dt":21.01},{"city":"Farmersville Station","state_name":"New York","lat":42.43986,"lng":-78.30884,"zip":"14060","miles_from_dt":21.09},{"city":"Akron","state_name":"New York","lat":43.03149,"lng":-78.51154,"zip":"14001","miles_from_dt":21.09},{"city":"Buffalo","state_name":"New York","lat":42.92879,"lng":-78.752,"zip":"14225","miles_from_dt":21.2},{"city":"Batavia","state_name":"New York","lat":42.99513,"lng":-78.21508,"zip":"14020","miles_from_dt":21.27},{"city":"Buffalo","state_name":"New York","lat":42.84571,"lng":-78.82264,"zip":"14220","miles_from_dt":21.36},{"city":"Buffalo","state_name":"New York","lat":42.87884,"lng":-78.80962,"zip":"14240","miles_from_dt":21.72},{"city":"Buffalo","state_name":"New York","lat":42.88078,"lng":-78.81018,"zip":"14206","miles_from_dt":21.81},{"city":"Perry","state_name":"New York","lat":42.73446,"lng":-78.00276,"zip":"14530","miles_from_dt":21.85},{"city":"Buffalo","state_name":"New York","lat":42.86407,"lng":-78.82811,"zip":"14210","miles_from_dt":22.11},{"city":"Portageville","state_name":"New York","lat":42.53958,"lng":-78.08358,"zip":"14536","miles_from_dt":22.16},{"city":"Athol Springs","state_name":"New York","lat":42.77325,"lng":-78.86595,"zip":"14010","miles_from_dt":22.26},{"city":"Buffalo","state_name":"New York","lat":42.87,"lng":-78.83221,"zip":"14270","miles_from_dt":22.47},{"city":"Buffalo","state_name":"New York","lat":42.97918,"lng":-78.72158,"zip":"14221","miles_from_dt":22.55},{"city":"Buffalo","state_name":"New York","lat":42.88721,"lng":-78.82344,"zip":"14264","miles_from_dt":22.61},{"city":"Buffalo","state_name":"New York","lat":42.89438,"lng":-78.81957,"zip":"14212","miles_from_dt":22.68},{"city":"Buffalo","state_name":"New York","lat":42.90813,"lng":-78.81883,"zip":"14211","miles_from_dt":23.13},{"city":"Buffalo","state_name":"New York","lat":42.98039,"lng":-78.73785,"zip":"14231","miles_from_dt":23.16},{"city":"Eden","state_name":"New York","lat":42.64587,"lng":-78.87542,"zip":"14057","miles_from_dt":23.34},{"city":"Pavilion","state_name":"New York","lat":42.87242,"lng":-78.01471,"zip":"14525","miles_from_dt":23.34},{"city":"Hume","state_name":"New York","lat":42.471,"lng":-78.13772,"zip":"14745","miles_from_dt":23.42},{"city":"Buffalo","state_name":"New York","lat":42.97856,"lng":-78.75003,"zip":"14265","miles_from_dt":23.48},{"city":"West Valley","state_name":"New York","lat":42.42491,"lng":-78.64286,"zip":"14171","miles_from_dt":23.74},{"city":"Buffalo","state_name":"New York","lat":42.93451,"lng":-78.81023,"zip":"14215","miles_from_dt":23.78},{"city":"Buffalo","state_name":"New York","lat":42.86244,"lng":-78.86507,"zip":"14203","miles_from_dt":23.79},{"city":"Basom","state_name":"New York","lat":43.07639,"lng":-78.39704,"zip":"14013","miles_from_dt":23.87},{"city":"Clarence Center","state_name":"New York","lat":43.04587,"lng":-78.63189,"zip":"14032","miles_from_dt":23.95},{"city":"Batavia","state_name":"New York","lat":43.01892,"lng":-78.16389,"zip":"14021","miles_from_dt":24.06},{"city":"Buffalo","state_name":"New York","lat":42.86514,"lng":-78.86949,"zip":"14269","miles_from_dt":24.07},{"city":"Houghton","state_name":"New York","lat":42.4219,"lng":-78.21516,"zip":"14744","miles_from_dt":24.07},{"city":"Buffalo","state_name":"New York","lat":42.882,"lng":-78.8614,"zip":"14204","miles_from_dt":24.17},{"city":"Buffalo","state_name":"New York","lat":42.87072,"lng":-78.8697,"zip":"14273","miles_from_dt":24.23},{"city":"Buffalo","state_name":"New York","lat":42.87338,"lng":-78.86924,"zip":"14263","miles_from_dt":24.28},{"city":"Buffalo","state_name":"New York","lat":42.87227,"lng":-78.87025,"zip":"14272","miles_from_dt":24.3},{"city":"Buffalo","state_name":"New York","lat":42.8751,"lng":-78.86902,"zip":"14233","miles_from_dt":24.32},{"city":"Machias","state_name":"New York","lat":42.3863,"lng":-78.54292,"zip":"14101","miles_from_dt":24.49},{"city":"Stafford","state_name":"New York","lat":42.97547,"lng":-78.0759,"zip":"14143","miles_from_dt":24.71},{"city":"Buffalo","state_name":"New York","lat":42.88568,"lng":-78.87116,"zip":"14276","miles_from_dt":24.72},{"city":"Buffalo","state_name":"New York","lat":42.88693,"lng":-78.87124,"zip":"14280","miles_from_dt":24.76},{"city":"Buffalo","state_name":"New York","lat":42.9146,"lng":-78.85146,"zip":"14208","miles_from_dt":24.78},{"city":"Buffalo","state_name":"New York","lat":42.89235,"lng":-78.8688,"zip":"14205","miles_from_dt":24.82},{"city":"Buffalo","state_name":"New York","lat":42.97078,"lng":-78.79844,"zip":"14226","miles_from_dt":24.88},{"city":"Rushford","state_name":"New York","lat":42.38999,"lng":-78.26167,"zip":"14777","miles_from_dt":25.13},{"city":"Lake View","state_name":"New York","lat":42.71494,"lng":-78.92691,"zip":"14085","miles_from_dt":25.21},{"city":"Buffalo","state_name":"New York","lat":42.93936,"lng":-78.84101,"zip":"14214","miles_from_dt":25.25},{"city":"East Amherst","state_name":"New York","lat":43.04168,"lng":-78.69927,"zip":"14051","miles_from_dt":25.34},{"city":"Buffalo","state_name":"New York","lat":42.88798,"lng":-78.88358,"zip":"14202","miles_from_dt":25.36},{"city":"Buffalo","state_name":"New York","lat":42.91365,"lng":-78.86622,"zip":"14209","miles_from_dt":25.39},{"city":"Oakfield","state_name":"New York","lat":43.08773,"lng":-78.28207,"zip":"14125","miles_from_dt":25.74},{"city":"Buffalo","state_name":"New York","lat":42.89706,"lng":-78.88752,"zip":"14201","miles_from_dt":25.81},{"city":"Buffalo","state_name":"New York","lat":43.00188,"lng":-78.7848,"zip":"14261","miles_from_dt":25.87},{"city":"Fillmore","state_name":"New York","lat":42.45027,"lng":-78.09681,"zip":"14735","miles_from_dt":25.87},{"city":"North Collins","state_name":"New York","lat":42.58206,"lng":-78.89803,"zip":"14111","miles_from_dt":25.89},{"city":"Hunt","state_name":"New York","lat":42.5301,"lng":-78.00319,"zip":"14846","miles_from_dt":25.91},{"city":"North Evans","state_name":"New York","lat":42.6981,"lng":-78.9395,"zip":"14112","miles_from_dt":25.93},{"city":"Buffalo","state_name":"New York","lat":42.9167,"lng":-78.87708,"zip":"14267","miles_from_dt":25.97},{"city":"Buffalo","state_name":"New York","lat":43.00165,"lng":-78.79066,"zip":"14260","miles_from_dt":26.06},{"city":"Buffalo","state_name":"New York","lat":42.92002,"lng":-78.8771,"zip":"14222","miles_from_dt":26.09},{"city":"Getzville","state_name":"New York","lat":43.02696,"lng":-78.75808,"zip":"14068","miles_from_dt":26.26},{"city":"Leicester","state_name":"New York","lat":42.77173,"lng":-77.91643,"zip":"14481","miles_from_dt":26.38},{"city":"Buffalo","state_name":"New York","lat":42.94855,"lng":-78.862,"zip":"14216","miles_from_dt":26.48},{"city":"Buffalo","state_name":"New York","lat":42.91762,"lng":-78.89099,"zip":"14213","miles_from_dt":26.62},{"city":"Lawtons","state_name":"New York","lat":42.54224,"lng":-78.88868,"zip":"14091","miles_from_dt":26.69},{"city":"Buffalo","state_name":"New York","lat":42.97348,"lng":-78.84612,"zip":"14223","miles_from_dt":26.85},{"city":"Collins","state_name":"New York","lat":42.4985,"lng":-78.86238,"zip":"14034","miles_from_dt":27.2},{"city":"Franklinville","state_name":"New York","lat":42.33524,"lng":-78.42926,"zip":"14737","miles_from_dt":27.35},{"city":"Collins Center","state_name":"New York","lat":42.49099,"lng":-78.85936,"zip":"14035","miles_from_dt":27.39},{"city":"East Otto","state_name":"New York","lat":42.40404,"lng":-78.73628,"zip":"14729","miles_from_dt":27.42},{"city":"Buffalo","state_name":"New York","lat":43.04214,"lng":-78.7798,"zip":"14228","miles_from_dt":27.77},{"city":"Buffalo","state_name":"New York","lat":42.97189,"lng":-78.87674,"zip":"14217","miles_from_dt":28.02},{"city":"Buffalo","state_name":"New York","lat":42.95201,"lng":-78.89824,"zip":"14207","miles_from_dt":28.15},{"city":"Linwood","state_name":"New York","lat":42.89293,"lng":-77.92295,"zip":"14486","miles_from_dt":28.17},{"city":"Caneadea","state_name":"New York","lat":42.36258,"lng":-78.18235,"zip":"14717","miles_from_dt":28.48},{"city":"Mount Morris","state_name":"New York","lat":42.69485,"lng":-77.87167,"zip":"14510","miles_from_dt":28.64},{"city":"Derby","state_name":"New York","lat":42.68579,"lng":-78.99328,"zip":"14047","miles_from_dt":28.74},{"city":"South Byron","state_name":"New York","lat":43.04807,"lng":-78.06126,"zip":"14557","miles_from_dt":28.84},{"city":"Le Roy","state_name":"New York","lat":42.97457,"lng":-77.97014,"zip":"14482","miles_from_dt":28.84},{"city":"Nunda","state_name":"New York","lat":42.59217,"lng":-77.8971,"zip":"14517","miles_from_dt":28.9},{"city":"Piffard","state_name":"New York","lat":42.84632,"lng":-77.88468,"zip":"14533","miles_from_dt":28.93},{"city":"Elba","state_name":"New York","lat":43.10167,"lng":-78.16211,"zip":"14058","miles_from_dt":28.99},{"city":"York","state_name":"New York","lat":42.86875,"lng":-77.89066,"zip":"14592","miles_from_dt":29.1},{"city":"Tonawanda","state_name":"New York","lat":42.99794,"lng":-78.87815,"zip":"14150","miles_from_dt":29.18},{"city":"Retsof","state_name":"New York","lat":42.83418,"lng":-77.87521,"zip":"14539","miles_from_dt":29.19}],"targetCityZipCode":"14145","targetCityState":"New York"},"__N_SSG":true}