{"pageProps":{"stateName":"West-virginia","cityName":"ashton","nearbyCities":[{"city":"Apple Grove","state_name":"West Virginia","lat":38.66501,"lng":-82.11024,"zip":"25502","miles_from_dt":3.92},{"city":"Fraziers Bottom","state_name":"West Virginia","lat":38.60861,"lng":-82.02879,"zip":"25082","miles_from_dt":4.76},{"city":"Glenwood","state_name":"West Virginia","lat":38.55773,"lng":-82.17899,"zip":"25520","miles_from_dt":4.86},{"city":"Crown City","state_name":"Ohio","lat":38.64125,"lng":-82.26748,"zip":"45623","miles_from_dt":8.47},{"city":"Southside","state_name":"West Virginia","lat":38.72617,"lng":-82.01878,"zip":"25187","miles_from_dt":9.7},{"city":"Lesage","state_name":"West Virginia","lat":38.53399,"lng":-82.26926,"zip":"25537","miles_from_dt":9.73},{"city":"Milton","state_name":"West Virginia","lat":38.45884,"lng":-82.12707,"zip":"25541","miles_from_dt":10.33},{"city":"Buffalo","state_name":"West Virginia","lat":38.61095,"lng":-81.92511,"zip":"25033","miles_from_dt":10.37},{"city":"Gallipolis Ferry","state_name":"West Virginia","lat":38.75731,"lng":-82.15262,"zip":"25515","miles_from_dt":10.46},{"city":"Eleanor","state_name":"West Virginia","lat":38.54667,"lng":-81.93179,"zip":"25070","miles_from_dt":10.88},{"city":"Henderson","state_name":"West Virginia","lat":38.77598,"lng":-82.08237,"zip":"25106","miles_from_dt":11.71},{"city":"Ona","state_name":"West Virginia","lat":38.45847,"lng":-82.22456,"zip":"25545","miles_from_dt":11.88},{"city":"Winfield","state_name":"West Virginia","lat":38.50776,"lng":-81.91796,"zip":"25213","miles_from_dt":12.8},{"city":"Red House","state_name":"West Virginia","lat":38.56394,"lng":-81.87733,"zip":"25168","miles_from_dt":13.31},{"city":"Scottown","state_name":"Ohio","lat":38.60595,"lng":-82.37883,"zip":"45678","miles_from_dt":14.19},{"city":"Leon","state_name":"West Virginia","lat":38.73172,"lng":-81.90214,"zip":"25123","miles_from_dt":14.39},{"city":"Teays","state_name":"West Virginia","lat":38.44254,"lng":-81.95203,"zip":"25569","miles_from_dt":14.5},{"city":"Hometown","state_name":"West Virginia","lat":38.53097,"lng":-81.86062,"zip":"25109","miles_from_dt":14.86},{"city":"Proctorville","state_name":"Ohio","lat":38.4935,"lng":-82.35857,"zip":"45669","miles_from_dt":15.31},{"city":"Culloden","state_name":"West Virginia","lat":38.38832,"lng":-82.06599,"zip":"25510","miles_from_dt":15.42},{"city":"Gallipolis","state_name":"Ohio","lat":38.81672,"lng":-82.25486,"zip":"45631","miles_from_dt":16.2},{"city":"Scott Depot","state_name":"West Virginia","lat":38.44736,"lng":-81.89908,"zip":"25560","miles_from_dt":16.2},{"city":"Hurricane","state_name":"West Virginia","lat":38.3984,"lng":-81.98279,"zip":"25526","miles_from_dt":16.2},{"city":"Bancroft","state_name":"West Virginia","lat":38.51169,"lng":-81.8363,"zip":"25011","miles_from_dt":16.58},{"city":"Huntington","state_name":"West Virginia","lat":38.43825,"lng":-82.33344,"zip":"25702","miles_from_dt":16.6},{"city":"Point Pleasant","state_name":"West Virginia","lat":38.86655,"lng":-82.0749,"zip":"25550","miles_from_dt":17.95},{"city":"Willow Wood","state_name":"Ohio","lat":38.60356,"lng":-82.45201,"zip":"45696","miles_from_dt":18.15},{"city":"Barboursville","state_name":"West Virginia","lat":38.37297,"lng":-82.26674,"zip":"25504","miles_from_dt":18.16},{"city":"Liberty","state_name":"West Virginia","lat":38.62006,"lng":-81.76536,"zip":"25124","miles_from_dt":19.03},{"city":"Huntington","state_name":"West Virginia","lat":38.40636,"lng":-82.36276,"zip":"25705","miles_from_dt":19.29},{"city":"Patriot","state_name":"Ohio","lat":38.76324,"lng":-82.41411,"zip":"45658","miles_from_dt":19.31},{"city":"Poca","state_name":"West Virginia","lat":38.50186,"lng":-81.7806,"zip":"25159","miles_from_dt":19.63},{"city":"Kerr","state_name":"Ohio","lat":38.87112,"lng":-82.26283,"zip":"45643","miles_from_dt":19.77},{"city":"Salt Rock","state_name":"West Virginia","lat":38.32753,"lng":-82.23181,"zip":"25559","miles_from_dt":20.35},{"city":"Chesapeake","state_name":"Ohio","lat":38.47257,"lng":-82.45157,"zip":"45619","miles_from_dt":20.42},{"city":"Nitro","state_name":"West Virginia","lat":38.42001,"lng":-81.82414,"zip":"25143","miles_from_dt":20.5},{"city":"Evans","state_name":"West Virginia","lat":38.78427,"lng":-81.80801,"zip":"25241","miles_from_dt":20.63},{"city":"Huntington","state_name":"West Virginia","lat":38.42201,"lng":-82.41827,"zip":"25703","miles_from_dt":20.79},{"city":"Mount Alto","state_name":"West Virginia","lat":38.85547,"lng":-81.89516,"zip":"25264","miles_from_dt":20.83},{"city":"Huntington","state_name":"West Virginia","lat":38.42359,"lng":-82.42796,"zip":"25755","miles_from_dt":21.14},{"city":"Given","state_name":"West Virginia","lat":38.69916,"lng":-81.7393,"zip":"25245","miles_from_dt":21.35},{"city":"Huntington","state_name":"West Virginia","lat":38.42599,"lng":-82.43727,"zip":"25717","miles_from_dt":21.45},{"city":"Huntington","state_name":"West Virginia","lat":38.4267,"lng":-82.43856,"zip":"25718","miles_from_dt":21.48},{"city":"Huntington","state_name":"West Virginia","lat":38.42636,"lng":-82.44099,"zip":"25724","miles_from_dt":21.6},{"city":"Huntington","state_name":"West Virginia","lat":38.424,"lng":-82.43961,"zip":"25709","miles_from_dt":21.63},{"city":"Huntington","state_name":"West Virginia","lat":38.42556,"lng":-82.44258,"zip":"25722","miles_from_dt":21.7},{"city":"Huntington","state_name":"West Virginia","lat":38.42312,"lng":-82.44048,"zip":"25723","miles_from_dt":21.71},{"city":"Huntington","state_name":"West Virginia","lat":38.42302,"lng":-82.44075,"zip":"25719","miles_from_dt":21.72},{"city":"West Hamlin","state_name":"West Virginia","lat":38.2947,"lng":-82.15632,"zip":"25571","miles_from_dt":21.74},{"city":"Huntington","state_name":"West Virginia","lat":38.42299,"lng":-82.44163,"zip":"25721","miles_from_dt":21.76},{"city":"Huntington","state_name":"West Virginia","lat":38.42188,"lng":-82.44184,"zip":"25708","miles_from_dt":21.82},{"city":"Huntington","state_name":"West Virginia","lat":38.42154,"lng":-82.44226,"zip":"25710","miles_from_dt":21.85},{"city":"Saint Albans","state_name":"West Virginia","lat":38.36928,"lng":-81.85021,"zip":"25177","miles_from_dt":21.92},{"city":"Cottageville","state_name":"West Virginia","lat":38.84616,"lng":-81.83941,"zip":"25239","miles_from_dt":22.21},{"city":"Charleston","state_name":"West Virginia","lat":38.44681,"lng":-81.75401,"zip":"25356","miles_from_dt":22.59},{"city":"Kitts Hill","state_name":"Ohio","lat":38.57082,"lng":-82.53159,"zip":"45645","miles_from_dt":22.61},{"city":"Hamlin","state_name":"West Virginia","lat":38.27934,"lng":-82.06754,"zip":"25523","miles_from_dt":22.85},{"city":"Letart","state_name":"West Virginia","lat":38.91947,"lng":-81.9669,"zip":"25253","miles_from_dt":22.93},{"city":"Huntington","state_name":"West Virginia","lat":38.36809,"lng":-82.41127,"zip":"25701","miles_from_dt":23.02},{"city":"Huntington","state_name":"West Virginia","lat":38.39813,"lng":-82.4468,"zip":"25725","miles_from_dt":23.03},{"city":"Huntington","state_name":"West Virginia","lat":38.39866,"lng":-82.44826,"zip":"25720","miles_from_dt":23.07},{"city":"Huntington","state_name":"West Virginia","lat":38.39917,"lng":-82.44869,"zip":"25729","miles_from_dt":23.07},{"city":"Huntington","state_name":"West Virginia","lat":38.39933,"lng":-82.4495,"zip":"25711","miles_from_dt":23.09},{"city":"Huntington","state_name":"West Virginia","lat":38.39829,"lng":-82.44834,"zip":"25716","miles_from_dt":23.09},{"city":"Huntington","state_name":"West Virginia","lat":38.39566,"lng":-82.44617,"zip":"25713","miles_from_dt":23.11},{"city":"Huntington","state_name":"West Virginia","lat":38.39751,"lng":-82.44855,"zip":"25712","miles_from_dt":23.13},{"city":"Huntington","state_name":"West Virginia","lat":38.39738,"lng":-82.44872,"zip":"25706","miles_from_dt":23.15},{"city":"Huntington","state_name":"West Virginia","lat":38.39812,"lng":-82.45004,"zip":"25714","miles_from_dt":23.17},{"city":"Huntington","state_name":"West Virginia","lat":38.39867,"lng":-82.45188,"zip":"25728","miles_from_dt":23.22},{"city":"Huntington","state_name":"West Virginia","lat":38.39594,"lng":-82.44895,"zip":"25707","miles_from_dt":23.22},{"city":"Huntington","state_name":"West Virginia","lat":38.39511,"lng":-82.45178,"zip":"25715","miles_from_dt":23.37},{"city":"Huntington","state_name":"West Virginia","lat":38.41918,"lng":-82.47466,"zip":"25776","miles_from_dt":23.38},{"city":"Huntington","state_name":"West Virginia","lat":38.41954,"lng":-82.47534,"zip":"25774","miles_from_dt":23.4},{"city":"Huntington","state_name":"West Virginia","lat":38.41872,"lng":-82.47462,"zip":"25726","miles_from_dt":23.4},{"city":"Huntington","state_name":"West Virginia","lat":38.41834,"lng":-82.47426,"zip":"25778","miles_from_dt":23.4},{"city":"Rio Grande","state_name":"Ohio","lat":38.87798,"lng":-82.38017,"zip":"45674","miles_from_dt":23.42},{"city":"Huntington","state_name":"West Virginia","lat":38.41602,"lng":-82.47443,"zip":"25772","miles_from_dt":23.49},{"city":"Huntington","state_name":"West Virginia","lat":38.41953,"lng":-82.47831,"zip":"25773","miles_from_dt":23.53},{"city":"Huntington","state_name":"West Virginia","lat":38.41313,"lng":-82.4732,"zip":"25775","miles_from_dt":23.55},{"city":"Charleston","state_name":"West Virginia","lat":38.41547,"lng":-81.75704,"zip":"25313","miles_from_dt":23.6},{"city":"Huntington","state_name":"West Virginia","lat":38.414,"lng":-82.4752,"zip":"25727","miles_from_dt":23.61},{"city":"Huntington","state_name":"West Virginia","lat":38.41615,"lng":-82.47755,"zip":"25777","miles_from_dt":23.63},{"city":"Bidwell","state_name":"Ohio","lat":38.92858,"lng":-82.27819,"zip":"45614","miles_from_dt":23.75},{"city":"Waterloo","state_name":"Ohio","lat":38.73013,"lng":-82.53155,"zip":"45688","miles_from_dt":23.96},{"city":"Cheshire","state_name":"Ohio","lat":38.95564,"lng":-82.14052,"zip":"45620","miles_from_dt":23.99},{"city":"Institute","state_name":"West Virginia","lat":38.38103,"lng":-81.76633,"zip":"25112","miles_from_dt":24.63},{"city":"West Columbia","state_name":"West Virginia","lat":38.96158,"lng":-82.04834,"zip":"25287","miles_from_dt":24.64},{"city":"Tornado","state_name":"West Virginia","lat":38.31593,"lng":-81.85372,"zip":"25202","miles_from_dt":24.7},{"city":"Rock Camp","state_name":"Ohio","lat":38.52186,"lng":-82.56326,"zip":"45675","miles_from_dt":24.91},{"city":"South Point","state_name":"Ohio","lat":38.45526,"lng":-82.54489,"zip":"45680","miles_from_dt":25.49},{"city":"Dunbar","state_name":"West Virginia","lat":38.37631,"lng":-81.74764,"zip":"25064","miles_from_dt":25.62},{"city":"Millwood","state_name":"West Virginia","lat":38.90751,"lng":-81.83219,"zip":"25262","miles_from_dt":25.73},{"city":"Myra","state_name":"West Virginia","lat":38.23078,"lng":-82.11017,"zip":"25544","miles_from_dt":26.05},{"city":"Ripley","state_name":"West Virginia","lat":38.78845,"lng":-81.68625,"zip":"25271","miles_from_dt":26.37},{"city":"Charleston","state_name":"West Virginia","lat":38.42168,"lng":-81.68972,"zip":"25357","miles_from_dt":26.48},{"city":"Charleston","state_name":"West Virginia","lat":38.45324,"lng":-81.66948,"zip":"25360","miles_from_dt":26.49},{"city":"Sod","state_name":"West Virginia","lat":38.26302,"lng":-81.88835,"zip":"25564","miles_from_dt":26.85},{"city":"New Haven","state_name":"West Virginia","lat":38.98129,"lng":-81.97356,"zip":"25265","miles_from_dt":26.86},{"city":"Charleston","state_name":"West Virginia","lat":38.54124,"lng":-81.62706,"zip":"25320","miles_from_dt":26.91},{"city":"Charleston","state_name":"West Virginia","lat":38.46156,"lng":-81.656,"zip":"25312","miles_from_dt":26.93},{"city":"Lavalette","state_name":"West Virginia","lat":38.30772,"lng":-82.43405,"zip":"25535","miles_from_dt":26.95},{"city":"Griffithsville","state_name":"West Virginia","lat":38.22915,"lng":-81.98641,"zip":"25521","miles_from_dt":27.09},{"city":"Kenna","state_name":"West Virginia","lat":38.64255,"lng":-81.61454,"zip":"25248","miles_from_dt":27.27},{"city":"Shoals","state_name":"West Virginia","lat":38.32627,"lng":-82.47241,"zip":"25562","miles_from_dt":27.4},{"city":"Charleston","state_name":"West Virginia","lat":38.33395,"lng":-81.74594,"zip":"25358","miles_from_dt":27.61},{"city":"Ceredo","state_name":"West Virginia","lat":38.39945,"lng":-82.55193,"zip":"25507","miles_from_dt":27.64},{"city":"Huntington","state_name":"West Virginia","lat":38.34969,"lng":-82.50693,"zip":"25704","miles_from_dt":27.68},{"city":"Pedro","state_name":"Ohio","lat":38.67117,"lng":-82.62331,"zip":"45659","miles_from_dt":27.75},{"city":"Branchland","state_name":"West Virginia","lat":38.20826,"lng":-82.18665,"zip":"25506","miles_from_dt":27.86},{"city":"Yawkey","state_name":"West Virginia","lat":38.22725,"lng":-81.94549,"zip":"25573","miles_from_dt":27.88},{"city":"Hartford","state_name":"West Virginia","lat":39.001,"lng":-81.98987,"zip":"25247","miles_from_dt":27.94},{"city":"Middleport","state_name":"Ohio","lat":39.01395,"lng":-82.12244,"zip":"45760","miles_from_dt":27.98},{"city":"Syracuse","state_name":"Ohio","lat":38.99884,"lng":-81.97082,"zip":"45779","miles_from_dt":28.06},{"city":"South Charleston","state_name":"West Virginia","lat":38.31177,"lng":-81.75715,"zip":"25309","miles_from_dt":28.26},{"city":"Racine","state_name":"Ohio","lat":38.98204,"lng":-81.89902,"zip":"45771","miles_from_dt":28.33},{"city":"Advent","state_name":"West Virginia","lat":38.60464,"lng":-81.591,"zip":"25231","miles_from_dt":28.45},{"city":"Huntington","state_name":"West Virginia","lat":38.34177,"lng":-82.51748,"zip":"25771","miles_from_dt":28.47},{"city":"Huntington","state_name":"West Virginia","lat":38.3406,"lng":-82.51815,"zip":"25779","miles_from_dt":28.55},{"city":"Mason","state_name":"West Virginia","lat":39.01653,"lng":-82.02465,"zip":"25260","miles_from_dt":28.59},{"city":"Huntington","state_name":"West Virginia","lat":38.33898,"lng":-82.51843,"zip":"25770","miles_from_dt":28.63},{"city":"Thurman","state_name":"Ohio","lat":38.9333,"lng":-82.4527,"zip":"45685","miles_from_dt":28.84},{"city":"South Charleston","state_name":"West Virginia","lat":38.36033,"lng":-81.68679,"zip":"25303","miles_from_dt":28.91},{"city":"Charleston","state_name":"West Virginia","lat":38.38523,"lng":-81.6642,"zip":"25387","miles_from_dt":28.95},{"city":"Charleston","state_name":"West Virginia","lat":38.36828,"lng":-81.67332,"zip":"25389","miles_from_dt":29.19},{"city":"Kenova","state_name":"West Virginia","lat":38.35629,"lng":-82.56337,"zip":"25530","miles_from_dt":29.81},{"city":"Sumerco","state_name":"West Virginia","lat":38.21971,"lng":-81.87294,"zip":"25567","miles_from_dt":29.89}],"targetCityZipCode":"25503","targetCityState":"West Virginia"},"__N_SSG":true}