{"pageProps":{"stateName":"West-virginia","cityName":"gerrardstown","nearbyCities":[{"city":"Glengary","state_name":"West Virginia","lat":39.37821,"lng":-78.16384,"zip":"25421","miles_from_dt":2.37},{"city":"Inwood","state_name":"West Virginia","lat":39.37407,"lng":-78.02729,"zip":"25428","miles_from_dt":4.97},{"city":"Bunker Hill","state_name":"West Virginia","lat":39.31632,"lng":-78.053,"zip":"25413","miles_from_dt":5.71},{"city":"Ridgeway","state_name":"West Virginia","lat":39.29801,"lng":-78.07101,"zip":"25440","miles_from_dt":6.29},{"city":"Clear Brook","state_name":"Virginia","lat":39.26535,"lng":-78.09507,"zip":"22624","miles_from_dt":8.08},{"city":"Winchester","state_name":"Virginia","lat":39.28153,"lng":-78.2056,"zip":"22603","miles_from_dt":8.26},{"city":"Martinsburg","state_name":"West Virginia","lat":39.40892,"lng":-77.96235,"zip":"25405","miles_from_dt":8.64},{"city":"Brucetown","state_name":"Virginia","lat":39.25659,"lng":-78.06706,"zip":"22622","miles_from_dt":9.03},{"city":"Martinsburg","state_name":"West Virginia","lat":39.4842,"lng":-78.00725,"zip":"25403","miles_from_dt":9.32},{"city":"Martinsburg","state_name":"West Virginia","lat":39.45642,"lng":-77.97267,"zip":"25401","miles_from_dt":9.43},{"city":"Martinsburg","state_name":"West Virginia","lat":39.46145,"lng":-77.96982,"zip":"25402","miles_from_dt":9.75},{"city":"Kearneysville","state_name":"West Virginia","lat":39.34024,"lng":-77.93899,"zip":"25430","miles_from_dt":10.08},{"city":"Hedgesville","state_name":"West Virginia","lat":39.52608,"lng":-78.09098,"zip":"25427","miles_from_dt":10.13},{"city":"Cross Junction","state_name":"Virginia","lat":39.37397,"lng":-78.31172,"zip":"22625","miles_from_dt":10.29},{"city":"Stephenson","state_name":"Virginia","lat":39.21723,"lng":-78.08901,"zip":"22656","miles_from_dt":11.41},{"city":"Summit Point","state_name":"West Virginia","lat":39.24013,"lng":-77.95705,"zip":"25446","miles_from_dt":13.05},{"city":"Berkeley Springs","state_name":"West Virginia","lat":39.55497,"lng":-78.22004,"zip":"25411","miles_from_dt":13.15},{"city":"Winchester","state_name":"Virginia","lat":39.18715,"lng":-78.15463,"zip":"22604","miles_from_dt":13.5},{"city":"Martinsburg","state_name":"West Virginia","lat":39.48631,"lng":-77.89782,"zip":"25404","miles_from_dt":13.92},{"city":"Ranson","state_name":"West Virginia","lat":39.31853,"lng":-77.86448,"zip":"25438","miles_from_dt":14.33},{"city":"Winchester","state_name":"Virginia","lat":39.1743,"lng":-78.1743,"zip":"22601","miles_from_dt":14.55},{"city":"Bloomery","state_name":"West Virginia","lat":39.35957,"lng":-78.39067,"zip":"26817","miles_from_dt":14.58},{"city":"Rippon","state_name":"West Virginia","lat":39.2282,"lng":-77.92222,"zip":"25441","miles_from_dt":14.93},{"city":"Shenandoah Junction","state_name":"West Virginia","lat":39.37157,"lng":-77.83181,"zip":"25442","miles_from_dt":15.43},{"city":"Gore","state_name":"Virginia","lat":39.25057,"lng":-78.3605,"zip":"22637","miles_from_dt":15.73},{"city":"Charles Town","state_name":"West Virginia","lat":39.25273,"lng":-77.87055,"zip":"25414","miles_from_dt":16.01},{"city":"Berryville","state_name":"Virginia","lat":39.16374,"lng":-77.98512,"zip":"22611","miles_from_dt":16.63},{"city":"Shepherdstown","state_name":"West Virginia","lat":39.43835,"lng":-77.81477,"zip":"25443","miles_from_dt":16.79},{"city":"Great Cacapon","state_name":"West Virginia","lat":39.55812,"lng":-78.35887,"zip":"25422","miles_from_dt":17.69},{"city":"Winchester","state_name":"Virginia","lat":39.1508,"lng":-78.26555,"zip":"22602","miles_from_dt":17.7},{"city":"Halltown","state_name":"West Virginia","lat":39.31449,"lng":-77.79823,"zip":"25423","miles_from_dt":17.82},{"city":"Paw Paw","state_name":"West Virginia","lat":39.45797,"lng":-78.45038,"zip":"25434","miles_from_dt":18.48},{"city":"Bakerton","state_name":"West Virginia","lat":39.32699,"lng":-77.78005,"zip":"25410","miles_from_dt":18.57},{"city":"Falling Waters","state_name":"West Virginia","lat":39.58286,"lng":-77.88493,"zip":"25419","miles_from_dt":18.75},{"city":"Millville","state_name":"West Virginia","lat":39.29562,"lng":-77.78663,"zip":"25432","miles_from_dt":18.79},{"city":"Harpers Ferry","state_name":"West Virginia","lat":39.27613,"lng":-77.79184,"zip":"25425","miles_from_dt":19},{"city":"Capon Bridge","state_name":"West Virginia","lat":39.30301,"lng":-78.47073,"zip":"26711","miles_from_dt":19.56},{"city":"Sharpsburg","state_name":"Maryland","lat":39.4552,"lng":-77.75995,"zip":"21782","miles_from_dt":19.92},{"city":"Big Pool","state_name":"Maryland","lat":39.66808,"lng":-78.01247,"zip":"21711","miles_from_dt":20.62},{"city":"Williamsport","state_name":"Maryland","lat":39.582,"lng":-77.82733,"zip":"21795","miles_from_dt":20.9},{"city":"High View","state_name":"West Virginia","lat":39.19563,"lng":-78.44416,"zip":"26808","miles_from_dt":21.59},{"city":"Hancock","state_name":"Maryland","lat":39.68698,"lng":-78.2129,"zip":"21750","miles_from_dt":21.69},{"city":"Millwood","state_name":"Virginia","lat":39.07019,"lng":-78.04803,"zip":"22646","miles_from_dt":21.78},{"city":"Slanesville","state_name":"West Virginia","lat":39.43543,"lng":-78.52081,"zip":"25444","miles_from_dt":21.79},{"city":"Boyce","state_name":"Virginia","lat":39.06417,"lng":-78.03317,"zip":"22620","miles_from_dt":22.34},{"city":"Stephens City","state_name":"Virginia","lat":39.06443,"lng":-78.21425,"zip":"22655","miles_from_dt":22.42},{"city":"Clear Spring","state_name":"Maryland","lat":39.66575,"lng":-77.91457,"zip":"21722","miles_from_dt":22.5},{"city":"Fairplay","state_name":"Maryland","lat":39.55004,"lng":-77.75838,"zip":"21733","miles_from_dt":22.57},{"city":"White Post","state_name":"Virginia","lat":39.05,"lng":-78.11716,"zip":"22663","miles_from_dt":22.83},{"city":"Keedysville","state_name":"Maryland","lat":39.45758,"lng":-77.70118,"zip":"21756","miles_from_dt":23.01},{"city":"Saint James","state_name":"Maryland","lat":39.57123,"lng":-77.75981,"zip":"21781","miles_from_dt":23.29},{"city":"Bluemont","state_name":"Virginia","lat":39.08602,"lng":-77.87659,"zip":"20135","miles_from_dt":24.17},{"city":"Little Orleans","state_name":"Maryland","lat":39.65928,"lng":-78.39859,"zip":"21766","miles_from_dt":24.31},{"city":"Brownsville","state_name":"Maryland","lat":39.37879,"lng":-77.66063,"zip":"21715","miles_from_dt":24.58},{"city":"Knoxville","state_name":"Maryland","lat":39.34567,"lng":-77.66265,"zip":"21758","miles_from_dt":24.6},{"city":"Points","state_name":"West Virginia","lat":39.4225,"lng":-78.57623,"zip":"25437","miles_from_dt":24.6},{"city":"Rohrersville","state_name":"Maryland","lat":39.42447,"lng":-77.65398,"zip":"21779","miles_from_dt":25.11},{"city":"Yellow Spring","state_name":"West Virginia","lat":39.19053,"lng":-78.51932,"zip":"26865","miles_from_dt":25.13},{"city":"Hagerstown","state_name":"Maryland","lat":39.56591,"lng":-77.71409,"zip":"21746","miles_from_dt":25.16},{"city":"Round Hill","state_name":"Virginia","lat":39.13504,"lng":-77.77179,"zip":"20142","miles_from_dt":25.22},{"city":"Levels","state_name":"West Virginia","lat":39.48682,"lng":-78.57279,"zip":"25431","miles_from_dt":25.32},{"city":"Strasburg","state_name":"Virginia","lat":39.07795,"lng":-78.38588,"zip":"22641","miles_from_dt":25.32},{"city":"Round Hill","state_name":"Virginia","lat":39.11675,"lng":-77.79159,"zip":"20141","miles_from_dt":25.34},{"city":"Purcellville","state_name":"Virginia","lat":39.16648,"lng":-77.72748,"zip":"20132","miles_from_dt":25.71},{"city":"Boonsboro","state_name":"Maryland","lat":39.52618,"lng":-77.66933,"zip":"21713","miles_from_dt":26.09},{"city":"Middletown","state_name":"Virginia","lat":39.02152,"lng":-78.27457,"zip":"22645","miles_from_dt":26.15},{"city":"Paris","state_name":"Virginia","lat":39.02756,"lng":-77.94243,"zip":"20130","miles_from_dt":26.17},{"city":"Augusta","state_name":"West Virginia","lat":39.28619,"lng":-78.59471,"zip":"26704","miles_from_dt":26.27},{"city":"Burkittsville","state_name":"Maryland","lat":39.39343,"lng":-77.62734,"zip":"21718","miles_from_dt":26.37},{"city":"Hagerstown","state_name":"Maryland","lat":39.63447,"lng":-77.74596,"zip":"21747","miles_from_dt":26.55},{"city":"Hagerstown","state_name":"Maryland","lat":39.63233,"lng":-77.73902,"zip":"21740","miles_from_dt":26.73},{"city":"Hagerstown","state_name":"Maryland","lat":39.63737,"lng":-77.74454,"zip":"21749","miles_from_dt":26.74},{"city":"Brunswick","state_name":"Maryland","lat":39.31798,"lng":-77.6262,"zip":"21716","miles_from_dt":26.79},{"city":"Lovettsville","state_name":"Virginia","lat":39.26775,"lng":-77.63804,"zip":"20180","miles_from_dt":26.96},{"city":"Middletown","state_name":"Virginia","lat":39.00518,"lng":-78.25833,"zip":"22649","miles_from_dt":26.97},{"city":"Funkstown","state_name":"Maryland","lat":39.60583,"lng":-77.70382,"zip":"21734","miles_from_dt":27.11},{"city":"Capon Springs","state_name":"West Virginia","lat":39.13033,"lng":-78.51139,"zip":"26823","miles_from_dt":27.21},{"city":"Oldtown","state_name":"Maryland","lat":39.58777,"lng":-78.55685,"zip":"21555","miles_from_dt":27.38},{"city":"Purcellville","state_name":"Virginia","lat":39.14233,"lng":-77.71139,"zip":"20134","miles_from_dt":27.39},{"city":"Hagerstown","state_name":"Maryland","lat":39.64139,"lng":-77.71879,"zip":"21741","miles_from_dt":27.96},{"city":"Star Tannery","state_name":"Virginia","lat":39.06863,"lng":-78.4586,"zip":"22654","miles_from_dt":28.19},{"city":"Green Spring","state_name":"West Virginia","lat":39.49774,"lng":-78.63463,"zip":"26722","miles_from_dt":28.7},{"city":"Upperville","state_name":"Virginia","lat":39.00143,"lng":-77.87874,"zip":"20184","miles_from_dt":29.2},{"city":"Lincoln","state_name":"Virginia","lat":39.1162,"lng":-77.69397,"zip":"20160","miles_from_dt":29.24},{"city":"Strasburg","state_name":"Virginia","lat":39.00155,"lng":-78.36755,"zip":"22657","miles_from_dt":29.36},{"city":"Jefferson","state_name":"Maryland","lat":39.36101,"lng":-77.56887,"zip":"21755","miles_from_dt":29.53},{"city":"Upperville","state_name":"Virginia","lat":38.9945,"lng":-77.88181,"zip":"20185","miles_from_dt":29.56},{"city":"Maugansville","state_name":"Maryland","lat":39.69773,"lng":-77.74638,"zip":"21767","miles_from_dt":29.58},{"city":"Waterford","state_name":"Virginia","lat":39.19379,"lng":-77.62252,"zip":"20197","miles_from_dt":29.62},{"city":"Big Cove Tannery","state_name":"Pennsylvania","lat":39.81,"lng":-78.07073,"zip":"17212","miles_from_dt":29.71},{"city":"Hamilton","state_name":"Virginia","lat":39.13425,"lng":-77.66495,"zip":"20159","miles_from_dt":29.74},{"city":"Warfordsburg","state_name":"Pennsylvania","lat":39.80389,"lng":-78.23958,"zip":"17267","miles_from_dt":29.87},{"city":"Hamilton","state_name":"Virginia","lat":39.14126,"lng":-77.65514,"zip":"20158","miles_from_dt":29.9}],"targetCityZipCode":"25420","targetCityState":"West Virginia"},"__N_SSG":true}