{"pageProps":{"stateName":"West-virginia","cityName":"hanover","nearbyCities":[{"city":"Simon","state_name":"West Virginia","lat":37.62771,"lng":-81.76623,"zip":"24882","miles_from_dt":3.14},{"city":"North Spring","state_name":"West Virginia","lat":37.56133,"lng":-81.82315,"zip":"24869","miles_from_dt":3.5},{"city":"Justice","state_name":"West Virginia","lat":37.59922,"lng":-81.83805,"zip":"24851","miles_from_dt":4.18},{"city":"Ikes Fork","state_name":"West Virginia","lat":37.52643,"lng":-81.80041,"zip":"24845","miles_from_dt":4.31},{"city":"Clear Fork","state_name":"West Virginia","lat":37.62908,"lng":-81.68755,"zip":"24822","miles_from_dt":5.34},{"city":"Coal Mountain","state_name":"West Virginia","lat":37.66761,"lng":-81.74105,"zip":"24823","miles_from_dt":6.04},{"city":"Fanrock","state_name":"West Virginia","lat":37.54313,"lng":-81.66093,"zip":"24834","miles_from_dt":6.32},{"city":"Iaeger","state_name":"West Virginia","lat":37.48554,"lng":-81.78703,"zip":"24844","miles_from_dt":6.77},{"city":"Baisden","state_name":"West Virginia","lat":37.57512,"lng":-81.89165,"zip":"25608","miles_from_dt":6.97},{"city":"Verner","state_name":"West Virginia","lat":37.68358,"lng":-81.78773,"zip":"25650","miles_from_dt":7.1},{"city":"Hensley","state_name":"West Virginia","lat":37.48378,"lng":-81.70923,"zip":"24843","miles_from_dt":7.44},{"city":"Isaban","state_name":"West Virginia","lat":37.52611,"lng":-81.89175,"zip":"24846","miles_from_dt":7.96},{"city":"Gilbert","state_name":"West Virginia","lat":37.63149,"lng":-81.89643,"zip":"25621","miles_from_dt":7.97},{"city":"Brenton","state_name":"West Virginia","lat":37.60809,"lng":-81.62275,"zip":"24818","miles_from_dt":8.01},{"city":"Davy","state_name":"West Virginia","lat":37.49975,"lng":-81.6553,"zip":"24828","miles_from_dt":8.28},{"city":"Big Sandy","state_name":"West Virginia","lat":37.46139,"lng":-81.70516,"zip":"24816","miles_from_dt":8.95},{"city":"Bruno","state_name":"West Virginia","lat":37.6832,"lng":-81.87068,"zip":"25611","miles_from_dt":9.06},{"city":"Lynco","state_name":"West Virginia","lat":37.69591,"lng":-81.67557,"zip":"24857","miles_from_dt":9.25},{"city":"Roderfield","state_name":"West Virginia","lat":37.44435,"lng":-81.68785,"zip":"24881","miles_from_dt":10.41},{"city":"Wyoming","state_name":"West Virginia","lat":37.58752,"lng":-81.57504,"zip":"24898","miles_from_dt":10.43},{"city":"Marianna","state_name":"West Virginia","lat":37.61732,"lng":-81.57824,"zip":"24859","miles_from_dt":10.53},{"city":"Mallory","state_name":"West Virginia","lat":37.73017,"lng":-81.82461,"zip":"25634","miles_from_dt":10.72},{"city":"Matheny","state_name":"West Virginia","lat":37.65919,"lng":-81.59075,"zip":"24860","miles_from_dt":10.94},{"city":"Wharncliffe","state_name":"West Virginia","lat":37.57142,"lng":-81.9662,"zip":"25651","miles_from_dt":11.07},{"city":"Man","state_name":"West Virginia","lat":37.71937,"lng":-81.87261,"zip":"25635","miles_from_dt":11.15},{"city":"Davin","state_name":"West Virginia","lat":37.74549,"lng":-81.80275,"zip":"25617","miles_from_dt":11.45},{"city":"Panther","state_name":"West Virginia","lat":37.44986,"lng":-81.8932,"zip":"24872","miles_from_dt":11.52},{"city":"Avondale","state_name":"West Virginia","lat":37.40881,"lng":-81.75381,"zip":"24811","miles_from_dt":11.97},{"city":"Mohawk","state_name":"West Virginia","lat":37.47905,"lng":-81.9489,"zip":"24862","miles_from_dt":12.35},{"city":"Premier","state_name":"West Virginia","lat":37.4321,"lng":-81.63086,"zip":"24878","miles_from_dt":12.71},{"city":"Pineville","state_name":"West Virginia","lat":37.60201,"lng":-81.53072,"zip":"24874","miles_from_dt":12.93},{"city":"Jesse","state_name":"West Virginia","lat":37.67435,"lng":-81.55848,"zip":"24849","miles_from_dt":12.99},{"city":"Cyclone","state_name":"West Virginia","lat":37.75186,"lng":-81.65997,"zip":"24827","miles_from_dt":13.04},{"city":"Accoville","state_name":"West Virginia","lat":37.76641,"lng":-81.82878,"zip":"25606","miles_from_dt":13.18},{"city":"Eckman","state_name":"West Virginia","lat":37.44285,"lng":-81.59544,"zip":"24829","miles_from_dt":13.38},{"city":"Rock View","state_name":"West Virginia","lat":37.64679,"lng":-81.53187,"zip":"24880","miles_from_dt":13.55},{"city":"Amherstdale","state_name":"West Virginia","lat":37.78125,"lng":-81.77081,"zip":"25607","miles_from_dt":13.73},{"city":"Kistler","state_name":"West Virginia","lat":37.7657,"lng":-81.86237,"zip":"25628","miles_from_dt":13.74},{"city":"Welch","state_name":"West Virginia","lat":37.46841,"lng":-81.55544,"zip":"24801","miles_from_dt":13.93},{"city":"Kopperston","state_name":"West Virginia","lat":37.73997,"lng":-81.5789,"zip":"24854","miles_from_dt":14.92},{"city":"Sarah Ann","state_name":"West Virginia","lat":37.70191,"lng":-82.00107,"zip":"25644","miles_from_dt":15.35},{"city":"Bartley","state_name":"West Virginia","lat":37.35954,"lng":-81.72489,"zip":"24813","miles_from_dt":15.51},{"city":"Jolo","state_name":"West Virginia","lat":37.37807,"lng":-81.88516,"zip":"24850","miles_from_dt":15.55},{"city":"Lorado","state_name":"West Virginia","lat":37.79821,"lng":-81.6816,"zip":"25630","miles_from_dt":15.59},{"city":"Lyburn","state_name":"West Virginia","lat":37.76292,"lng":-81.9368,"zip":"25632","miles_from_dt":15.62},{"city":"Glen Fork","state_name":"West Virginia","lat":37.70291,"lng":-81.51107,"zip":"25845","miles_from_dt":16.23},{"city":"Yolyn","state_name":"West Virginia","lat":37.80302,"lng":-81.87401,"zip":"25654","miles_from_dt":16.36},{"city":"Sabine","state_name":"West Virginia","lat":37.67818,"lng":-81.49019,"zip":"25916","miles_from_dt":16.47},{"city":"Paynesville","state_name":"West Virginia","lat":37.35734,"lng":-81.87415,"zip":"24873","miles_from_dt":16.62},{"city":"Oceana","state_name":"West Virginia","lat":37.73784,"lng":-81.53203,"zip":"24870","miles_from_dt":16.69},{"city":"Bradshaw","state_name":"West Virginia","lat":37.34206,"lng":-81.81721,"zip":"24817","miles_from_dt":16.8},{"city":"Stopover","state_name":"Kentucky","lat":37.50369,"lng":-82.05896,"zip":"41568","miles_from_dt":17.02},{"city":"Red Jacket","state_name":"West Virginia","lat":37.61804,"lng":-82.07375,"zip":"25692","miles_from_dt":17.12},{"city":"New Richmond","state_name":"West Virginia","lat":37.60432,"lng":-81.45261,"zip":"24867","miles_from_dt":17.21},{"city":"Chauncey","state_name":"West Virginia","lat":37.76396,"lng":-81.98064,"zip":"25612","miles_from_dt":17.23},{"city":"Kimball","state_name":"West Virginia","lat":37.42924,"lng":-81.51686,"zip":"24853","miles_from_dt":17.24},{"city":"Hurley","state_name":"Virginia","lat":37.43335,"lng":-82.01932,"zip":"24620","miles_from_dt":17.33},{"city":"Wilcoe","state_name":"West Virginia","lat":37.37718,"lng":-81.58208,"zip":"24895","miles_from_dt":17.35},{"city":"Matewan","state_name":"West Virginia","lat":37.59564,"lng":-82.08187,"zip":"25678","miles_from_dt":17.41},{"city":"Varney","state_name":"West Virginia","lat":37.66116,"lng":-82.07154,"zip":"25696","miles_from_dt":17.67},{"city":"McGraws","state_name":"West Virginia","lat":37.66907,"lng":-81.45956,"zip":"25875","miles_from_dt":17.8},{"city":"Saulsville","state_name":"West Virginia","lat":37.63677,"lng":-81.44731,"zip":"25876","miles_from_dt":17.83},{"city":"Blair","state_name":"West Virginia","lat":37.84157,"lng":-81.79241,"zip":"25022","miles_from_dt":17.95},{"city":"Ravencliff","state_name":"West Virginia","lat":37.70781,"lng":-81.47301,"zip":"25913","miles_from_dt":18.21},{"city":"Raysal","state_name":"West Virginia","lat":37.31639,"lng":-81.76725,"zip":"24879","miles_from_dt":18.33},{"city":"Majestic","state_name":"Kentucky","lat":37.53821,"lng":-82.09437,"zip":"41547","miles_from_dt":18.33},{"city":"Edgarton","state_name":"West Virginia","lat":37.57017,"lng":-82.10044,"zip":"25672","miles_from_dt":18.43},{"city":"Switzer","state_name":"West Virginia","lat":37.786,"lng":-81.98738,"zip":"25647","miles_from_dt":18.6},{"city":"Stollings","state_name":"West Virginia","lat":37.83187,"lng":-81.89349,"zip":"25646","miles_from_dt":18.6},{"city":"War","state_name":"West Virginia","lat":37.31691,"lng":-81.69699,"zip":"24892","miles_from_dt":18.67},{"city":"Gary","state_name":"West Virginia","lat":37.36846,"lng":-81.54908,"zip":"24836","miles_from_dt":18.92},{"city":"Itmann","state_name":"West Virginia","lat":37.57339,"lng":-81.41455,"zip":"24847","miles_from_dt":19.25},{"city":"Omar","state_name":"West Virginia","lat":37.74423,"lng":-82.05133,"zip":"25638","miles_from_dt":19.27},{"city":"Wharton","state_name":"West Virginia","lat":37.84579,"lng":-81.64282,"zip":"25208","miles_from_dt":19.38},{"city":"Mullens","state_name":"West Virginia","lat":37.60359,"lng":-81.39892,"zip":"25882","miles_from_dt":20.15},{"city":"Wolford","state_name":"Virginia","lat":37.35254,"lng":-81.99172,"zip":"24658","miles_from_dt":20.15},{"city":"Glen Rogers","state_name":"West Virginia","lat":37.71427,"lng":-81.43117,"zip":"25848","miles_from_dt":20.45},{"city":"Newtown","state_name":"West Virginia","lat":37.64902,"lng":-82.12839,"zip":"25686","miles_from_dt":20.46},{"city":"Elbert","state_name":"West Virginia","lat":37.33399,"lng":-81.55799,"zip":"24830","miles_from_dt":20.55},{"city":"Freeburn","state_name":"Kentucky","lat":37.55458,"lng":-82.13984,"zip":"41528","miles_from_dt":20.66},{"city":"Whitman","state_name":"West Virginia","lat":37.78702,"lng":-82.04865,"zip":"25652","miles_from_dt":21.01},{"city":"Wilkinson","state_name":"West Virginia","lat":37.8287,"lng":-81.9944,"zip":"25653","miles_from_dt":21.14},{"city":"Maben","state_name":"West Virginia","lat":37.63931,"lng":-81.3813,"zip":"25870","miles_from_dt":21.42},{"city":"Cucumber","state_name":"West Virginia","lat":37.29212,"lng":-81.62411,"zip":"24826","miles_from_dt":21.45},{"city":"Thorpe","state_name":"West Virginia","lat":37.36195,"lng":-81.48876,"zip":"24888","miles_from_dt":21.48},{"city":"Bud","state_name":"West Virginia","lat":37.53331,"lng":-81.37337,"zip":"24716","miles_from_dt":21.77},{"city":"Ethel","state_name":"West Virginia","lat":37.86889,"lng":-81.937,"zip":"25076","miles_from_dt":21.9},{"city":"Corinne","state_name":"West Virginia","lat":37.57291,"lng":-81.36565,"zip":"25826","miles_from_dt":21.93},{"city":"North Matewan","state_name":"West Virginia","lat":37.63952,"lng":-82.15832,"zip":"25688","miles_from_dt":21.94},{"city":"Herndon","state_name":"West Virginia","lat":37.52084,"lng":-81.37229,"zip":"24726","miles_from_dt":21.98},{"city":"Kyle","state_name":"West Virginia","lat":37.40882,"lng":-81.42499,"zip":"24855","miles_from_dt":22.18},{"city":"Cora","state_name":"West Virginia","lat":37.85103,"lng":-81.98783,"zip":"25614","miles_from_dt":22.2},{"city":"Elkhorn","state_name":"West Virginia","lat":37.38943,"lng":-81.44085,"zip":"24831","miles_from_dt":22.23},{"city":"McCarr","state_name":"Kentucky","lat":37.59602,"lng":-82.17368,"zip":"41544","miles_from_dt":22.45},{"city":"Sharples","state_name":"West Virginia","lat":37.9074,"lng":-81.79745,"zip":"25183","miles_from_dt":22.5},{"city":"Pilgrims Knob","state_name":"Virginia","lat":37.27411,"lng":-81.90253,"zip":"24634","miles_from_dt":22.55},{"city":"Bolt","state_name":"West Virginia","lat":37.76393,"lng":-81.42191,"zip":"25817","miles_from_dt":22.6},{"city":"Ragland","state_name":"West Virginia","lat":37.69124,"lng":-82.15505,"zip":"25690","miles_from_dt":22.67},{"city":"Northfork","state_name":"West Virginia","lat":37.42412,"lng":-81.40259,"zip":"24868","miles_from_dt":22.7},{"city":"Phelps","state_name":"Kentucky","lat":37.48057,"lng":-82.16025,"zip":"41553","miles_from_dt":22.81},{"city":"Allen Junction","state_name":"West Virginia","lat":37.58355,"lng":-81.34953,"zip":"25810","miles_from_dt":22.81},{"city":"Wyco","state_name":"West Virginia","lat":37.59657,"lng":-81.34914,"zip":"25943","miles_from_dt":22.85},{"city":"Warriormine","state_name":"West Virginia","lat":37.25186,"lng":-81.69052,"zip":"24894","miles_from_dt":23.14},{"city":"Saxon","state_name":"West Virginia","lat":37.78961,"lng":-81.43316,"zip":"25180","miles_from_dt":23.14},{"city":"Logan","state_name":"West Virginia","lat":37.86255,"lng":-82.0026,"zip":"25601","miles_from_dt":23.31},{"city":"Stephenson","state_name":"West Virginia","lat":37.55481,"lng":-81.34126,"zip":"25928","miles_from_dt":23.34},{"city":"Bim","state_name":"West Virginia","lat":37.91587,"lng":-81.68482,"zip":"25021","miles_from_dt":23.43},{"city":"Clothier","state_name":"West Virginia","lat":37.9219,"lng":-81.76027,"zip":"25047","miles_from_dt":23.43},{"city":"Mount Gay","state_name":"West Virginia","lat":37.85086,"lng":-82.02805,"zip":"25637","miles_from_dt":23.47},{"city":"Peach Creek","state_name":"West Virginia","lat":37.88674,"lng":-81.95905,"zip":"25639","miles_from_dt":23.54},{"city":"Lake","state_name":"West Virginia","lat":37.91167,"lng":-81.87787,"zip":"25121","miles_from_dt":23.55},{"city":"Pageton","state_name":"West Virginia","lat":37.31693,"lng":-81.48552,"zip":"24871","miles_from_dt":23.89},{"city":"Squire","state_name":"West Virginia","lat":37.27943,"lng":-81.55048,"zip":"24884","miles_from_dt":23.98},{"city":"Delbarton","state_name":"West Virginia","lat":37.7385,"lng":-82.15588,"zip":"25670","miles_from_dt":23.99},{"city":"Holden","state_name":"West Virginia","lat":37.82237,"lng":-82.09206,"zip":"25625","miles_from_dt":24.4},{"city":"Ransom","state_name":"Kentucky","lat":37.53953,"lng":-82.20819,"zip":"41558","miles_from_dt":24.51},{"city":"Newhall","state_name":"West Virginia","lat":37.25216,"lng":-81.59925,"zip":"24866","miles_from_dt":24.52},{"city":"Twilight","state_name":"West Virginia","lat":37.91546,"lng":-81.60914,"zip":"25204","miles_from_dt":24.52},{"city":"Naoma","state_name":"West Virginia","lat":37.86738,"lng":-81.49733,"zip":"25140","miles_from_dt":24.54},{"city":"Slab Fork","state_name":"West Virginia","lat":37.68646,"lng":-81.33661,"zip":"25920","miles_from_dt":24.57},{"city":"Lester","state_name":"West Virginia","lat":37.73076,"lng":-81.35212,"zip":"25865","miles_from_dt":24.85},{"city":"Henlawson","state_name":"West Virginia","lat":37.90393,"lng":-81.97162,"zip":"25624","miles_from_dt":24.91},{"city":"Arnett","state_name":"West Virginia","lat":37.8252,"lng":-81.42766,"zip":"25007","miles_from_dt":24.95},{"city":"Covel","state_name":"West Virginia","lat":37.48722,"lng":-81.32652,"zip":"24719","miles_from_dt":24.96},{"city":"Grundy","state_name":"Virginia","lat":37.31466,"lng":-82.07181,"zip":"24614","miles_from_dt":25},{"city":"Jewell Ridge","state_name":"Virginia","lat":37.22005,"lng":-81.79638,"zip":"24622","miles_from_dt":25.03},{"city":"Fairdale","state_name":"West Virginia","lat":37.78091,"lng":-81.38228,"zip":"25839","miles_from_dt":25.06},{"city":"Switchback","state_name":"West Virginia","lat":37.37808,"lng":-81.38664,"zip":"24887","miles_from_dt":25.11},{"city":"Whitewood","state_name":"Virginia","lat":37.22363,"lng":-81.84737,"zip":"24657","miles_from_dt":25.14},{"city":"Amigo","state_name":"West Virginia","lat":37.60835,"lng":-81.3065,"zip":"25811","miles_from_dt":25.23},{"city":"Rawl","state_name":"West Virginia","lat":37.64753,"lng":-82.21831,"zip":"25691","miles_from_dt":25.27},{"city":"Hardy","state_name":"Kentucky","lat":37.59509,"lng":-82.23131,"zip":"41531","miles_from_dt":25.6},{"city":"Ottawa","state_name":"West Virginia","lat":37.9558,"lng":-81.7745,"zip":"25149","miles_from_dt":25.77},{"city":"Bob White","state_name":"West Virginia","lat":37.95598,"lng":-81.72535,"zip":"25028","miles_from_dt":25.87},{"city":"Pecks Mill","state_name":"West Virginia","lat":37.92627,"lng":-81.9537,"zip":"25547","miles_from_dt":25.88},{"city":"Berwind","state_name":"West Virginia","lat":37.22036,"lng":-81.63026,"zip":"24815","miles_from_dt":26.03},{"city":"Anawalt","state_name":"West Virginia","lat":37.33142,"lng":-81.41048,"zip":"24808","miles_from_dt":26.06},{"city":"Van","state_name":"West Virginia","lat":37.9596,"lng":-81.69296,"zip":"25206","miles_from_dt":26.33},{"city":"Rhodell","state_name":"West Virginia","lat":37.61575,"lng":-81.28691,"zip":"25915","miles_from_dt":26.34},{"city":"Steele","state_name":"Kentucky","lat":37.40836,"lng":-82.1922,"zip":"41566","miles_from_dt":26.36},{"city":"Verdunville","state_name":"West Virginia","lat":37.87166,"lng":-82.08489,"zip":"25649","miles_from_dt":26.56},{"city":"Maybeury","state_name":"West Virginia","lat":37.36182,"lng":-81.36525,"zip":"24861","miles_from_dt":26.72},{"city":"Glen Daniel","state_name":"West Virginia","lat":37.81056,"lng":-81.37022,"zip":"25844","miles_from_dt":26.76},{"city":"Dry Creek","state_name":"West Virginia","lat":37.87549,"lng":-81.44411,"zip":"25062","miles_from_dt":26.8},{"city":"Helen","state_name":"West Virginia","lat":37.64616,"lng":-81.27827,"zip":"25853","miles_from_dt":27.07},{"city":"Hewett","state_name":"West Virginia","lat":37.9655,"lng":-81.87289,"zip":"25108","miles_from_dt":27.09},{"city":"Rock Creek","state_name":"West Virginia","lat":37.86115,"lng":-81.41376,"zip":"25174","miles_from_dt":27.21},{"city":"Gordon","state_name":"West Virginia","lat":37.9653,"lng":-81.64137,"zip":"25093","miles_from_dt":27.28},{"city":"Pinsonfork","state_name":"Kentucky","lat":37.53816,"lng":-82.2589,"zip":"41555","miles_from_dt":27.28},{"city":"Matoaka","state_name":"West Virginia","lat":37.45045,"lng":-81.29589,"zip":"24736","miles_from_dt":27.33},{"city":"Jenkinjones","state_name":"West Virginia","lat":37.28206,"lng":-81.43413,"zip":"24848","miles_from_dt":27.56},{"city":"Jeffrey","state_name":"West Virginia","lat":37.98199,"lng":-81.7986,"zip":"25114","miles_from_dt":27.64},{"city":"Fedscreek","state_name":"Kentucky","lat":37.43345,"lng":-82.23444,"zip":"41524","miles_from_dt":27.75},{"city":"Amonate","state_name":"Virginia","lat":37.19068,"lng":-81.64049,"zip":"24601","miles_from_dt":27.85},{"city":"Horsepen","state_name":"Virginia","lat":37.22745,"lng":-81.51732,"zip":"24619","miles_from_dt":28},{"city":"Surveyor","state_name":"West Virginia","lat":37.75623,"lng":-81.30282,"zip":"25932","miles_from_dt":28.04},{"city":"Oakwood","state_name":"Virginia","lat":37.2202,"lng":-81.99714,"zip":"24631","miles_from_dt":28.04},{"city":"Bandy","state_name":"Virginia","lat":37.18383,"lng":-81.65762,"zip":"24602","miles_from_dt":28.1},{"city":"Big Rock","state_name":"Virginia","lat":37.35607,"lng":-82.1914,"zip":"24603","miles_from_dt":28.15},{"city":"Williamson","state_name":"West Virginia","lat":37.71062,"lng":-82.25377,"zip":"25661","miles_from_dt":28.23},{"city":"Bishop","state_name":"Virginia","lat":37.21088,"lng":-81.54378,"zip":"24604","miles_from_dt":28.35},{"city":"McAndrews","state_name":"Kentucky","lat":37.54837,"lng":-82.28226,"zip":"41543","miles_from_dt":28.49},{"city":"Huddy","state_name":"Kentucky","lat":37.59368,"lng":-82.28422,"zip":"41535","miles_from_dt":28.5},{"city":"Stone","state_name":"Kentucky","lat":37.56897,"lng":-82.28621,"zip":"41567","miles_from_dt":28.62},{"city":"Glen White","state_name":"West Virginia","lat":37.73175,"lng":-81.27799,"zip":"25849","miles_from_dt":28.63},{"city":"Sophia","state_name":"West Virginia","lat":37.69181,"lng":-81.25882,"zip":"25921","miles_from_dt":28.77},{"city":"Keen Mountain","state_name":"Virginia","lat":37.20438,"lng":-81.98706,"zip":"24624","miles_from_dt":28.77},{"city":"Boissevain","state_name":"Virginia","lat":37.28814,"lng":-81.39183,"zip":"24606","miles_from_dt":28.85},{"city":"South Williamson","state_name":"Kentucky","lat":37.66079,"lng":-82.28446,"zip":"41503","miles_from_dt":29},{"city":"Princewick","state_name":"West Virginia","lat":37.66782,"lng":-81.24434,"zip":"25908","miles_from_dt":29.17},{"city":"Chattaroy","state_name":"West Virginia","lat":37.70619,"lng":-82.2738,"zip":"25667","miles_from_dt":29.18},{"city":"Forest Hills","state_name":"Kentucky","lat":37.63187,"lng":-82.29378,"zip":"41527","miles_from_dt":29.21},{"city":"Raven","state_name":"Virginia","lat":37.17357,"lng":-81.90461,"zip":"24639","miles_from_dt":29.21},{"city":"Whitesville","state_name":"West Virginia","lat":37.96271,"lng":-81.52861,"zip":"25209","miles_from_dt":29.26},{"city":"Josephine","state_name":"West Virginia","lat":37.61443,"lng":-81.23288,"zip":"25857","miles_from_dt":29.29},{"city":"Bramwell","state_name":"West Virginia","lat":37.33408,"lng":-81.32933,"zip":"24715","miles_from_dt":29.44},{"city":"Maxie","state_name":"Virginia","lat":37.30347,"lng":-82.17337,"zip":"24628","miles_from_dt":29.56},{"city":"Chapmanville","state_name":"West Virginia","lat":37.96388,"lng":-82.01394,"zip":"25508","miles_from_dt":29.64},{"city":"Pocahontas","state_name":"Virginia","lat":37.30683,"lng":-81.34962,"zip":"24635","miles_from_dt":29.7},{"city":"Shortt Gap","state_name":"Virginia","lat":37.15848,"lng":-81.87377,"zip":"24647","miles_from_dt":29.82},{"city":"Hiawatha","state_name":"West Virginia","lat":37.44759,"lng":-81.24699,"zip":"24729","miles_from_dt":29.93},{"city":"Freeman","state_name":"West Virginia","lat":37.33603,"lng":-81.31579,"zip":"24724","miles_from_dt":29.97}],"targetCityZipCode":"24839","targetCityState":"West Virginia"},"__N_SSG":true}