{"pageProps":{"stateName":"California","cityName":"douglas-city","nearbyCities":[{"city":"Lewiston","state_name":"California","lat":40.68515,"lng":-122.80342,"zip":"96052","miles_from_dt":8.47},{"city":"Weaverville","state_name":"California","lat":40.77237,"lng":-122.94329,"zip":"96093","miles_from_dt":12.93},{"city":"Igo","state_name":"California","lat":40.47695,"lng":-122.69889,"zip":"96047","miles_from_dt":13.12},{"city":"Platina","state_name":"California","lat":40.37547,"lng":-122.92996,"zip":"96076","miles_from_dt":14.72},{"city":"Hayfork","state_name":"California","lat":40.52059,"lng":-123.19991,"zip":"96041","miles_from_dt":16.38},{"city":"Shasta","state_name":"California","lat":40.63296,"lng":-122.58067,"zip":"96087","miles_from_dt":17.15},{"city":"Whiskeytown","state_name":"California","lat":40.7116,"lng":-122.60178,"zip":"96095","miles_from_dt":17.92},{"city":"Junction City","state_name":"California","lat":40.82613,"lng":-123.05594,"zip":"96048","miles_from_dt":18.35},{"city":"French Gulch","state_name":"California","lat":40.75076,"lng":-122.60004,"zip":"96033","miles_from_dt":19.43},{"city":"Redding","state_name":"California","lat":40.64146,"lng":-122.5061,"zip":"96099","miles_from_dt":21.12},{"city":"Redding","state_name":"California","lat":40.57731,"lng":-122.45443,"zip":"96001","miles_from_dt":23.53},{"city":"Shasta Lake","state_name":"California","lat":40.6831,"lng":-122.40046,"zip":"96089","miles_from_dt":27.14},{"city":"Shasta Lake","state_name":"California","lat":40.68729,"lng":-122.39927,"zip":"96019","miles_from_dt":27.28},{"city":"Big Bar","state_name":"California","lat":40.89735,"lng":-123.24365,"zip":"96010","miles_from_dt":27.91},{"city":"Hyampom","state_name":"California","lat":40.61118,"lng":-123.43151,"zip":"96046","miles_from_dt":27.93},{"city":"Cottonwood","state_name":"California","lat":40.34232,"lng":-122.44814,"zip":"96022","miles_from_dt":29.28}],"targetCityZipCode":"96024","targetCityState":"California"},"__N_SSG":true}