{"pageProps":{"stateName":"California","cityName":"indio","nearbyCities":[{"city":"Indio","state_name":"California","lat":33.75159,"lng":-116.24139,"zip":"92203","miles_from_dt":3.02},{"city":"La Quinta","state_name":"California","lat":33.67365,"lng":-116.29509,"zip":"92247","miles_from_dt":4.19},{"city":"La Quinta","state_name":"California","lat":33.676,"lng":-116.304,"zip":"92248","miles_from_dt":4.55},{"city":"La Quinta","state_name":"California","lat":33.65562,"lng":-116.28785,"zip":"92253","miles_from_dt":4.72},{"city":"Indio","state_name":"California","lat":33.66134,"lng":-116.2978,"zip":"92202","miles_from_dt":4.84},{"city":"Indian Wells","state_name":"California","lat":33.70357,"lng":-116.33953,"zip":"92210","miles_from_dt":6.03},{"city":"Palm Desert","state_name":"California","lat":33.76593,"lng":-116.33241,"zip":"92211","miles_from_dt":6.88},{"city":"Palm Desert","state_name":"California","lat":33.74676,"lng":-116.36651,"zip":"92255","miles_from_dt":8.03},{"city":"Coachella","state_name":"California","lat":33.70276,"lng":-116.07254,"zip":"92236","miles_from_dt":9.37},{"city":"Palm Desert","state_name":"California","lat":33.69841,"lng":-116.40519,"zip":"92260","miles_from_dt":9.82},{"city":"Desert Hot Springs","state_name":"California","lat":33.84634,"lng":-116.28342,"zip":"92241","miles_from_dt":9.93},{"city":"Rancho Mirage","state_name":"California","lat":33.76399,"lng":-116.42705,"zip":"92270","miles_from_dt":11.71},{"city":"Thousand Palms","state_name":"California","lat":33.83234,"lng":-116.38648,"zip":"92276","miles_from_dt":12.22},{"city":"Palm Desert","state_name":"California","lat":33.61768,"lng":-116.43026,"zip":"92261","miles_from_dt":12.86},{"city":"Cathedral City","state_name":"California","lat":33.78061,"lng":-116.46127,"zip":"92235","miles_from_dt":13.95},{"city":"Cathedral City","state_name":"California","lat":33.81386,"lng":-116.46663,"zip":"92234","miles_from_dt":15.2},{"city":"Palm Springs","state_name":"California","lat":33.73575,"lng":-116.50544,"zip":"92264","miles_from_dt":15.69},{"city":"Mecca","state_name":"California","lat":33.54371,"lng":-115.99995,"zip":"92254","miles_from_dt":17.66},{"city":"Thermal","state_name":"California","lat":33.47031,"lng":-116.11387,"zip":"92274","miles_from_dt":17.81},{"city":"Mountain Center","state_name":"California","lat":33.63704,"lng":-116.57441,"zip":"92561","miles_from_dt":20.16},{"city":"Palm Springs","state_name":"California","lat":33.86287,"lng":-116.55736,"zip":"92262","miles_from_dt":21.4},{"city":"Palm Springs","state_name":"California","lat":33.87589,"lng":-116.56629,"zip":"92263","miles_from_dt":22.3},{"city":"Desert Hot Springs","state_name":"California","lat":33.95291,"lng":-116.5194,"zip":"92240","miles_from_dt":23.5},{"city":"North Palm Springs","state_name":"California","lat":33.91791,"lng":-116.56002,"zip":"92258","miles_from_dt":23.64},{"city":"Anza","state_name":"California","lat":33.51579,"lng":-116.64432,"zip":"92539","miles_from_dt":27.07},{"city":"Idyllwild","state_name":"California","lat":33.80886,"lng":-116.71212,"zip":"92549","miles_from_dt":28.33}],"targetCityZipCode":"92201","targetCityState":"California"},"__N_SSG":true}