{"pageProps":{"stateName":"California","cityName":"paskenta","nearbyCities":[{"city":"Flournoy","state_name":"California","lat":39.94003,"lng":-122.48743,"zip":"96029","miles_from_dt":7.03},{"city":"Corning","state_name":"California","lat":39.91871,"lng":-122.26813,"zip":"96021","miles_from_dt":17.2},{"city":"Orland","state_name":"California","lat":39.73682,"lng":-122.30329,"zip":"95963","miles_from_dt":17.7},{"city":"Elk Creek","state_name":"California","lat":39.56755,"lng":-122.60224,"zip":"95939","miles_from_dt":21.02},{"city":"Red Bluff","state_name":"California","lat":40.16386,"lng":-122.39171,"zip":"96080","miles_from_dt":22.62},{"city":"Gerber","state_name":"California","lat":40.04168,"lng":-122.18254,"zip":"96035","miles_from_dt":24.41},{"city":"Proberta","state_name":"California","lat":40.08245,"lng":-122.17607,"zip":"96078","miles_from_dt":26.16},{"city":"Tehama","state_name":"California","lat":40.00681,"lng":-122.12142,"zip":"96090","miles_from_dt":26.37},{"city":"Artois","state_name":"California","lat":39.62899,"lng":-122.19215,"zip":"95913","miles_from_dt":26.85}],"targetCityZipCode":"96074","targetCityState":"California"},"__N_SSG":true}