{"pageProps":{"stateName":"California","cityName":"stratford","nearbyCities":[{"city":"Lemoore","state_name":"California","lat":36.28614,"lng":-119.83405,"zip":"93245","miles_from_dt":7.98},{"city":"Hanford","state_name":"California","lat":36.23565,"lng":-119.70719,"zip":"93232","miles_from_dt":9.42},{"city":"Lemoore","state_name":"California","lat":36.31921,"lng":-119.93135,"zip":"93246","miles_from_dt":11},{"city":"Kettleman City","state_name":"California","lat":36.03293,"lng":-119.98645,"zip":"93239","miles_from_dt":12.03},{"city":"Huron","state_name":"California","lat":36.19608,"lng":-120.08477,"zip":"93234","miles_from_dt":12.88},{"city":"Armona","state_name":"California","lat":36.3187,"lng":-119.7076,"zip":"93202","miles_from_dt":13.1},{"city":"Hanford","state_name":"California","lat":36.28967,"lng":-119.62514,"zip":"93230","miles_from_dt":15.26},{"city":"Corcoran","state_name":"California","lat":36.01649,"lng":-119.56937,"zip":"93212","miles_from_dt":19.3},{"city":"Waukena","state_name":"California","lat":36.1494,"lng":-119.50607,"zip":"93282","miles_from_dt":19.64},{"city":"Riverdale","state_name":"California","lat":36.45173,"lng":-119.93615,"zip":"93656","miles_from_dt":19.81},{"city":"Laton","state_name":"California","lat":36.44115,"lng":-119.73024,"zip":"93242","miles_from_dt":19.86},{"city":"Five Points","state_name":"California","lat":36.37258,"lng":-120.12125,"zip":"93624","miles_from_dt":20.26},{"city":"Avenal","state_name":"California","lat":35.90819,"lng":-120.06776,"zip":"93204","miles_from_dt":21.69},{"city":"Burrel","state_name":"California","lat":36.48833,"lng":-119.98417,"zip":"93607","miles_from_dt":22.96},{"city":"Caruthers","state_name":"California","lat":36.52616,"lng":-119.86388,"zip":"93609","miles_from_dt":24.44},{"city":"Tulare","state_name":"California","lat":36.17978,"lng":-119.37949,"zip":"93274","miles_from_dt":26.66},{"city":"Goshen","state_name":"California","lat":36.34441,"lng":-119.41856,"zip":"93227","miles_from_dt":27.19},{"city":"Helm","state_name":"California","lat":36.51568,"lng":-120.10635,"zip":"93627","miles_from_dt":27.51},{"city":"Visalia","state_name":"California","lat":36.29963,"lng":-119.38139,"zip":"93277","miles_from_dt":27.95},{"city":"Selma","state_name":"California","lat":36.53963,"lng":-119.64287,"zip":"93662","miles_from_dt":28.02},{"city":"Kingsburg","state_name":"California","lat":36.47653,"lng":-119.52131,"zip":"93631","miles_from_dt":28.12},{"city":"Traver","state_name":"California","lat":36.45229,"lng":-119.48232,"zip":"93673","miles_from_dt":28.45},{"city":"Tulare","state_name":"California","lat":36.20753,"lng":-119.34371,"zip":"93275","miles_from_dt":28.75},{"city":"Raisin City","state_name":"California","lat":36.59502,"lng":-119.90458,"zip":"93652","miles_from_dt":29.31},{"city":"Tipton","state_name":"California","lat":36.04818,"lng":-119.34535,"zip":"93272","miles_from_dt":29.83}],"targetCityZipCode":"93266","targetCityState":"California"},"__N_SSG":true}