{"pageProps":{"stateName":"California","cityName":"wendel","nearbyCities":[{"city":"Herlong","state_name":"California","lat":40.18577,"lng":-120.14609,"zip":"96113","miles_from_dt":8.83},{"city":"Standish","state_name":"California","lat":40.34948,"lng":-120.40198,"zip":"96128","miles_from_dt":14.88},{"city":"Milford","state_name":"California","lat":40.16938,"lng":-120.37659,"zip":"96121","miles_from_dt":16.6},{"city":"Litchfield","state_name":"California","lat":40.54556,"lng":-120.23978,"zip":"96117","miles_from_dt":17.19},{"city":"Janesville","state_name":"California","lat":40.2945,"lng":-120.49359,"zip":"96114","miles_from_dt":19.55},{"city":"Doyle","state_name":"California","lat":39.99747,"lng":-120.09521,"zip":"96109","miles_from_dt":21.8},{"city":"Susanville","state_name":"California","lat":40.41737,"lng":-120.64901,"zip":"96127","miles_from_dt":28.62}],"targetCityZipCode":"96136","targetCityState":"California"},"__N_SSG":true}