{"pageProps":{"stateName":"Mississippi","cityName":"montpelier","nearbyCities":[{"city":"Woodland","state_name":"Mississippi","lat":33.78517,"lng":-89.03239,"zip":"39776","miles_from_dt":6.81},{"city":"Cedarbluff","state_name":"Mississippi","lat":33.65254,"lng":-88.85536,"zip":"39741","miles_from_dt":6.9},{"city":"Pheba","state_name":"Mississippi","lat":33.61275,"lng":-88.95138,"zip":"39755","miles_from_dt":7.11},{"city":"Mantee","state_name":"Mississippi","lat":33.70444,"lng":-89.10004,"zip":"39751","miles_from_dt":8.78},{"city":"Maben","state_name":"Mississippi","lat":33.56331,"lng":-89.05751,"zip":"39750","miles_from_dt":12.25},{"city":"Prairie","state_name":"Mississippi","lat":33.78356,"lng":-88.74266,"zip":"39756","miles_from_dt":12.72},{"city":"Houston","state_name":"Mississippi","lat":33.90763,"lng":-88.9637,"zip":"38851","miles_from_dt":13.25},{"city":"Van Vleet","state_name":"Mississippi","lat":33.91057,"lng":-88.93139,"zip":"38877","miles_from_dt":13.46},{"city":"Trebloc","state_name":"Mississippi","lat":33.91076,"lng":-88.93008,"zip":"38875","miles_from_dt":13.48},{"city":"West Point","state_name":"Mississippi","lat":33.63892,"lng":-88.67558,"zip":"39773","miles_from_dt":16.58},{"city":"Mathiston","state_name":"Mississippi","lat":33.5198,"lng":-89.15427,"zip":"39752","miles_from_dt":17.99},{"city":"Vardaman","state_name":"Mississippi","lat":33.88179,"lng":-89.19231,"zip":"38878","miles_from_dt":18.11},{"city":"Starkville","state_name":"Mississippi","lat":33.44994,"lng":-88.82,"zip":"39760","miles_from_dt":19.76},{"city":"Walthall","state_name":"Mississippi","lat":33.60694,"lng":-89.27873,"zip":"39771","miles_from_dt":20.47},{"city":"Mississippi State","state_name":"Mississippi","lat":33.44648,"lng":-88.79576,"zip":"39762","miles_from_dt":20.54},{"city":"Starkville","state_name":"Mississippi","lat":33.43491,"lng":-88.82631,"zip":"39759","miles_from_dt":20.6},{"city":"Okolona","state_name":"Mississippi","lat":33.97649,"lng":-88.75879,"zip":"38860","miles_from_dt":21.01},{"city":"Derma","state_name":"Mississippi","lat":33.8558,"lng":-89.28404,"zip":"38839","miles_from_dt":21.6},{"city":"Eupora","state_name":"Mississippi","lat":33.58344,"lng":-89.30374,"zip":"39744","miles_from_dt":22.43},{"city":"Bellefontaine","state_name":"Mississippi","lat":33.65211,"lng":-89.33573,"zip":"39737","miles_from_dt":22.75},{"city":"Aberdeen","state_name":"Mississippi","lat":33.83926,"lng":-88.56267,"zip":"39730","miles_from_dt":23.77},{"city":"Houlka","state_name":"Mississippi","lat":34.04792,"lng":-89.06705,"zip":"38850","miles_from_dt":23.89},{"city":"Calhoun City","state_name":"Mississippi","lat":33.81815,"lng":-89.35158,"zip":"38916","miles_from_dt":24.26},{"city":"Mayhew","state_name":"Mississippi","lat":33.48441,"lng":-88.63052,"zip":"39753","miles_from_dt":24.29},{"city":"Slate Spring","state_name":"Mississippi","lat":33.74056,"lng":-89.37111,"zip":"38955","miles_from_dt":24.41},{"city":"Pittsboro","state_name":"Mississippi","lat":33.97605,"lng":-89.28802,"zip":"38951","miles_from_dt":26.52},{"city":"Artesia","state_name":"Mississippi","lat":33.4169,"lng":-88.64178,"zip":"39736","miles_from_dt":27.15},{"city":"Sturgis","state_name":"Mississippi","lat":33.31867,"lng":-89.01136,"zip":"39769","miles_from_dt":27.61},{"city":"Columbus","state_name":"Mississippi","lat":33.63637,"lng":-88.45507,"zip":"39710","miles_from_dt":28.94},{"city":"Ackerman","state_name":"Mississippi","lat":33.34511,"lng":-89.18998,"zip":"39735","miles_from_dt":29.11}],"targetCityZipCode":"39754","targetCityState":"Mississippi"},"__N_SSG":true}