{"pageProps":{"stateName":"Mississippi","cityName":"nicholson","nearbyCities":[{"city":"Picayune","state_name":"Mississippi","lat":30.53328,"lng":-89.63424,"zip":"39466","miles_from_dt":1.78},{"city":"Carriere","state_name":"Mississippi","lat":30.65375,"lng":-89.65709,"zip":"39426","miles_from_dt":6.66},{"city":"McNeill","state_name":"Mississippi","lat":30.66848,"lng":-89.63896,"zip":"39457","miles_from_dt":7.64},{"city":"Pearl River","state_name":"Louisiana","lat":30.41424,"lng":-89.76048,"zip":"70452","miles_from_dt":12.07},{"city":"Stennis Space Center","state_name":"Mississippi","lat":30.37734,"lng":-89.60211,"zip":"39529","miles_from_dt":12.67},{"city":"Talisheek","state_name":"Louisiana","lat":30.54416,"lng":-89.89221,"zip":"70464","miles_from_dt":14.81},{"city":"Kiln","state_name":"Mississippi","lat":30.44457,"lng":-89.42747,"zip":"39556","miles_from_dt":15.1},{"city":"Sun","state_name":"Louisiana","lat":30.6551,"lng":-89.90162,"zip":"70463","miles_from_dt":16.74},{"city":"Stennis Space Center","state_name":"Mississippi","lat":30.33503,"lng":-89.50914,"zip":"39522","miles_from_dt":17.33},{"city":"Poplarville","state_name":"Mississippi","lat":30.81602,"lng":-89.57581,"zip":"39470","miles_from_dt":18.26},{"city":"Abita Springs","state_name":"Louisiana","lat":30.48767,"lng":-89.95907,"zip":"70420","miles_from_dt":19.38},{"city":"Bush","state_name":"Louisiana","lat":30.61211,"lng":-89.97215,"zip":"70431","miles_from_dt":19.9},{"city":"Bogalusa","state_name":"Louisiana","lat":30.78778,"lng":-89.84833,"zip":"70429","miles_from_dt":19.97},{"city":"Slidell","state_name":"Louisiana","lat":30.28635,"lng":-89.77264,"zip":"70459","miles_from_dt":20.2},{"city":"Diamondhead","state_name":"Mississippi","lat":30.38123,"lng":-89.37065,"zip":"39525","miles_from_dt":20.36},{"city":"Bogalusa","state_name":"Louisiana","lat":30.74587,"lng":-89.9125,"zip":"70427","miles_from_dt":20.57},{"city":"Slidell","state_name":"Louisiana","lat":30.28026,"lng":-89.77657,"zip":"70469","miles_from_dt":20.68},{"city":"Lacombe","state_name":"Louisiana","lat":30.36352,"lng":-89.91265,"zip":"70445","miles_from_dt":20.86},{"city":"Slidell","state_name":"Louisiana","lat":30.29925,"lng":-89.83455,"zip":"70460","miles_from_dt":21.11},{"city":"Pearlington","state_name":"Mississippi","lat":30.25089,"lng":-89.60127,"zip":"39572","miles_from_dt":21.29},{"city":"Bay Saint Louis","state_name":"Mississippi","lat":30.26885,"lng":-89.47132,"zip":"39520","miles_from_dt":22.42},{"city":"Slidell","state_name":"Louisiana","lat":30.25864,"lng":-89.79441,"zip":"70458","miles_from_dt":22.46},{"city":"Bay Saint Louis","state_name":"Mississippi","lat":30.32914,"lng":-89.37067,"zip":"39521","miles_from_dt":22.68},{"city":"Slidell","state_name":"Louisiana","lat":30.2326,"lng":-89.70931,"zip":"70461","miles_from_dt":22.73},{"city":"Pass Christian","state_name":"Mississippi","lat":30.41662,"lng":-89.28125,"zip":"39571","miles_from_dt":23.74},{"city":"Waveland","state_name":"Mississippi","lat":30.28699,"lng":-89.38511,"zip":"39576","miles_from_dt":24.23},{"city":"Lakeshore","state_name":"Mississippi","lat":30.24187,"lng":-89.43473,"zip":"39558","miles_from_dt":25.1},{"city":"Varnado","state_name":"Louisiana","lat":30.89361,"lng":-89.82944,"zip":"70467","miles_from_dt":25.63},{"city":"Mandeville","state_name":"Louisiana","lat":30.407,"lng":-90.06346,"zip":"70471","miles_from_dt":27.08},{"city":"Mandeville","state_name":"Louisiana","lat":30.36278,"lng":-90.03943,"zip":"70448","miles_from_dt":27.13},{"city":"Covington","state_name":"Louisiana","lat":30.55955,"lng":-90.101,"zip":"70435","miles_from_dt":27.23},{"city":"Covington","state_name":"Louisiana","lat":30.46636,"lng":-90.09263,"zip":"70434","miles_from_dt":27.47},{"city":"Saint Benedict","state_name":"Louisiana","lat":30.52743,"lng":-90.11332,"zip":"70457","miles_from_dt":28.04},{"city":"Mandeville","state_name":"Louisiana","lat":30.38819,"lng":-90.08131,"zip":"70470","miles_from_dt":28.57},{"city":"Angie","state_name":"Louisiana","lat":30.93142,"lng":-89.85807,"zip":"70426","miles_from_dt":28.72}],"targetCityZipCode":"39463","targetCityState":"Mississippi"},"__N_SSG":true}