{"pageProps":{"stateName":"Mississippi","cityName":"richton","nearbyCities":[{"city":"Ovett","state_name":"Mississippi","lat":31.49268,"lng":-89.06129,"zip":"39464","miles_from_dt":13.88},{"city":"Beaumont","state_name":"Mississippi","lat":31.17553,"lng":-88.91103,"zip":"39423","miles_from_dt":14.22},{"city":"Neely","state_name":"Mississippi","lat":31.18703,"lng":-88.73992,"zip":"39461","miles_from_dt":15.21},{"city":"New Augusta","state_name":"Mississippi","lat":31.22105,"lng":-89.05738,"zip":"39462","miles_from_dt":15.61},{"city":"Clara","state_name":"Mississippi","lat":31.58032,"lng":-88.69755,"zip":"39324","miles_from_dt":17.15},{"city":"Petal","state_name":"Mississippi","lat":31.34456,"lng":-89.18751,"zip":"39465","miles_from_dt":19.05},{"city":"State Line","state_name":"Mississippi","lat":31.39326,"lng":-88.53988,"zip":"39362","miles_from_dt":19.4},{"city":"Leakesville","state_name":"Mississippi","lat":31.16722,"lng":-88.61757,"zip":"39451","miles_from_dt":20.76},{"city":"Waynesboro","state_name":"Mississippi","lat":31.68219,"lng":-88.6644,"zip":"39367","miles_from_dt":24.11},{"city":"McLain","state_name":"Mississippi","lat":31.0282,"lng":-88.81819,"zip":"39456","miles_from_dt":24.31},{"city":"Buckatunna","state_name":"Mississippi","lat":31.58344,"lng":-88.53203,"zip":"39322","miles_from_dt":24.33},{"city":"Hattiesburg","state_name":"Mississippi","lat":31.32237,"lng":-89.27897,"zip":"39403","miles_from_dt":24.63},{"city":"Ellisville","state_name":"Mississippi","lat":31.57883,"lng":-89.21981,"zip":"39437","miles_from_dt":24.96},{"city":"Brooklyn","state_name":"Mississippi","lat":31.05633,"lng":-89.06322,"zip":"39425","miles_from_dt":25.04},{"city":"Hattiesburg","state_name":"Mississippi","lat":31.23496,"lng":-89.26912,"zip":"39401","miles_from_dt":25.73},{"city":"Hattiesburg","state_name":"Mississippi","lat":31.31353,"lng":-89.30539,"zip":"39407","miles_from_dt":26.27},{"city":"Laurel","state_name":"Mississippi","lat":31.71932,"lng":-89.07376,"zip":"39443","miles_from_dt":26.44},{"city":"Moselle","state_name":"Mississippi","lat":31.49021,"lng":-89.30216,"zip":"39459","miles_from_dt":26.8},{"city":"Laurel","state_name":"Mississippi","lat":31.70494,"lng":-89.12324,"zip":"39441","miles_from_dt":27.08},{"city":"Laurel","state_name":"Mississippi","lat":31.69316,"lng":-89.14322,"zip":"39442","miles_from_dt":27.1},{"city":"Laurel","state_name":"Mississippi","lat":31.694,"lng":-89.14791,"zip":"39440","miles_from_dt":27.31},{"city":"Hattiesburg","state_name":"Mississippi","lat":31.32895,"lng":-89.33515,"zip":"39406","miles_from_dt":27.85},{"city":"Eastabuchie","state_name":"Mississippi","lat":31.47293,"lng":-89.3263,"zip":"39436","miles_from_dt":27.87},{"city":"Fruitdale","state_name":"Alabama","lat":31.3475,"lng":-88.39358,"zip":"36539","miles_from_dt":28.11}],"targetCityZipCode":"39476","targetCityState":"Mississippi"},"__N_SSG":true}