{"pageProps":{"stateName":"Mississippi","cityName":"stewart","nearbyCities":[{"city":"Kilmichael","state_name":"Mississippi","lat":33.42283,"lng":-89.5538,"zip":"39747","miles_from_dt":6.91},{"city":"Eupora","state_name":"Mississippi","lat":33.58344,"lng":-89.30374,"zip":"39744","miles_from_dt":11.38},{"city":"French Camp","state_name":"Mississippi","lat":33.29984,"lng":-89.46277,"zip":"39745","miles_from_dt":11.93},{"city":"Walthall","state_name":"Mississippi","lat":33.60694,"lng":-89.27873,"zip":"39771","miles_from_dt":13.54},{"city":"Bellefontaine","state_name":"Mississippi","lat":33.65211,"lng":-89.33573,"zip":"39737","miles_from_dt":14.02},{"city":"Weir","state_name":"Mississippi","lat":33.30509,"lng":-89.29893,"zip":"39772","miles_from_dt":14.48},{"city":"Duck Hill","state_name":"Mississippi","lat":33.62917,"lng":-89.61961,"zip":"38925","miles_from_dt":14.57},{"city":"Winona","state_name":"Mississippi","lat":33.45832,"lng":-89.72026,"zip":"38967","miles_from_dt":15.64},{"city":"Mathiston","state_name":"Mississippi","lat":33.5198,"lng":-89.15427,"zip":"39752","miles_from_dt":17.38},{"city":"Ackerman","state_name":"Mississippi","lat":33.34511,"lng":-89.18998,"zip":"39735","miles_from_dt":17.41},{"city":"Gore Springs","state_name":"Mississippi","lat":33.74014,"lng":-89.52425,"zip":"38929","miles_from_dt":18.93},{"city":"Slate Spring","state_name":"Mississippi","lat":33.74056,"lng":-89.37111,"zip":"38955","miles_from_dt":19.02},{"city":"Vaiden","state_name":"Mississippi","lat":33.30398,"lng":-89.74859,"zip":"39176","miles_from_dt":20.81},{"city":"McCool","state_name":"Mississippi","lat":33.15684,"lng":-89.33033,"zip":"39108","miles_from_dt":22.84},{"city":"McCarley","state_name":"Mississippi","lat":33.52033,"lng":-89.84525,"zip":"38943","miles_from_dt":23.06},{"city":"Maben","state_name":"Mississippi","lat":33.56331,"lng":-89.05751,"zip":"39750","miles_from_dt":23.5},{"city":"Calhoun City","state_name":"Mississippi","lat":33.81815,"lng":-89.35158,"zip":"38916","miles_from_dt":24.48},{"city":"Ethel","state_name":"Mississippi","lat":33.11574,"lng":-89.44853,"zip":"39067","miles_from_dt":24.6},{"city":"Mantee","state_name":"Mississippi","lat":33.70444,"lng":-89.10004,"zip":"39751","miles_from_dt":25.74},{"city":"West","state_name":"Mississippi","lat":33.19153,"lng":-89.75324,"zip":"39192","miles_from_dt":26.13},{"city":"Tie Plant","state_name":"Mississippi","lat":33.73882,"lng":-89.78941,"zip":"38960","miles_from_dt":26.83},{"city":"Big Creek","state_name":"Mississippi","lat":33.86466,"lng":-89.46453,"zip":"38914","miles_from_dt":27.03},{"city":"North Carrollton","state_name":"Mississippi","lat":33.51718,"lng":-89.92128,"zip":"38947","miles_from_dt":27.39},{"city":"Sturgis","state_name":"Mississippi","lat":33.31867,"lng":-89.01136,"zip":"39769","miles_from_dt":27.49},{"city":"Derma","state_name":"Mississippi","lat":33.8558,"lng":-89.28404,"zip":"38839","miles_from_dt":28.09},{"city":"Grenada","state_name":"Mississippi","lat":33.76275,"lng":-89.79799,"zip":"38901","miles_from_dt":28.33},{"city":"Carrollton","state_name":"Mississippi","lat":33.54902,"lng":-89.95501,"zip":"38917","miles_from_dt":29.63},{"city":"Grenada","state_name":"Mississippi","lat":33.77883,"lng":-89.81228,"zip":"38902","miles_from_dt":29.69}],"targetCityZipCode":"39767","targetCityState":"Mississippi"},"__N_SSG":true}