{"pageProps":{"stateName":"Mississippi","cityName":"washington","nearbyCities":[{"city":"Natchez","state_name":"Mississippi","lat":31.51148,"lng":-91.35206,"zip":"39120","miles_from_dt":5.43},{"city":"Natchez","state_name":"Mississippi","lat":31.50832,"lng":-91.36173,"zip":"39121","miles_from_dt":5.95},{"city":"Natchez","state_name":"Mississippi","lat":31.56205,"lng":-91.40125,"zip":"39122","miles_from_dt":6.1},{"city":"Roxie","state_name":"Mississippi","lat":31.48704,"lng":-91.07952,"zip":"39661","miles_from_dt":14.34},{"city":"Sibley","state_name":"Mississippi","lat":31.38595,"lng":-91.40602,"zip":"39165","miles_from_dt":14.54},{"city":"Fayette","state_name":"Mississippi","lat":31.6836,"lng":-91.04038,"zip":"39069","miles_from_dt":16.96},{"city":"Ferriday","state_name":"Louisiana","lat":31.66978,"lng":-91.56864,"zip":"71334","miles_from_dt":17.15},{"city":"Fayette","state_name":"Mississippi","lat":31.71806,"lng":-91.03849,"zip":"39081","miles_from_dt":18.21},{"city":"Lorman","state_name":"Mississippi","lat":31.82508,"lng":-91.11672,"zip":"39096","miles_from_dt":20.24},{"city":"Waterproof","state_name":"Louisiana","lat":31.84632,"lng":-91.47226,"zip":"71375","miles_from_dt":21.23},{"city":"Crosby","state_name":"Mississippi","lat":31.287,"lng":-91.16663,"zip":"39633","miles_from_dt":21.4},{"city":"Clayton","state_name":"Louisiana","lat":31.77363,"lng":-91.58702,"zip":"71326","miles_from_dt":21.75},{"city":"Vidalia","state_name":"Louisiana","lat":31.35934,"lng":-91.58607,"zip":"71373","miles_from_dt":22.58},{"city":"Saint Joseph","state_name":"Louisiana","lat":31.95051,"lng":-91.35591,"zip":"71366","miles_from_dt":26.01},{"city":"Meadville","state_name":"Mississippi","lat":31.46055,"lng":-90.86727,"zip":"39653","miles_from_dt":26.7},{"city":"Bude","state_name":"Mississippi","lat":31.45939,"lng":-90.84544,"zip":"39630","miles_from_dt":27.96},{"city":"Wildsville","state_name":"Louisiana","lat":31.61489,"lng":-91.78157,"zip":"71377","miles_from_dt":28.57},{"city":"Monterey","state_name":"Louisiana","lat":31.38364,"lng":-91.73548,"zip":"71354","miles_from_dt":28.97},{"city":"Woodville","state_name":"Mississippi","lat":31.14966,"lng":-91.39547,"zip":"39669","miles_from_dt":29.92}],"targetCityZipCode":"39190","targetCityState":"Mississippi"},"__N_SSG":true}