{"pageProps":{"stateName":"Mississippi","cityName":"wesson","nearbyCities":[{"city":"Hazlehurst","state_name":"Mississippi","lat":31.83467,"lng":-90.46997,"zip":"39083","miles_from_dt":9.03},{"city":"Brookhaven","state_name":"Mississippi","lat":31.59307,"lng":-90.46996,"zip":"39602","miles_from_dt":9.16},{"city":"Brookhaven","state_name":"Mississippi","lat":31.57769,"lng":-90.4776,"zip":"39603","miles_from_dt":10.31},{"city":"Brookhaven","state_name":"Mississippi","lat":31.56548,"lng":-90.47762,"zip":"39601","miles_from_dt":11.09},{"city":"Sontag","state_name":"Mississippi","lat":31.64125,"lng":-90.21404,"zip":"39665","miles_from_dt":12.49},{"city":"Gallman","state_name":"Mississippi","lat":31.93368,"lng":-90.38689,"zip":"39077","miles_from_dt":15.12},{"city":"Georgetown","state_name":"Mississippi","lat":31.87901,"lng":-90.19596,"zip":"39078","miles_from_dt":16.82},{"city":"Crystal Springs","state_name":"Mississippi","lat":31.98194,"lng":-90.35141,"zip":"39059","miles_from_dt":18.69},{"city":"Bogue Chitto","state_name":"Mississippi","lat":31.43729,"lng":-90.45737,"zip":"39629","miles_from_dt":19.35},{"city":"Monticello","state_name":"Mississippi","lat":31.53716,"lng":-90.13831,"zip":"39654","miles_from_dt":20.05},{"city":"Union Church","state_name":"Mississippi","lat":31.69126,"lng":-90.79126,"zip":"39668","miles_from_dt":22.66},{"city":"McCall Creek","state_name":"Mississippi","lat":31.51498,"lng":-90.7143,"zip":"39647","miles_from_dt":22.73},{"city":"Harrisville","state_name":"Mississippi","lat":31.94663,"lng":-90.12369,"zip":"39082","miles_from_dt":23.11},{"city":"Ruth","state_name":"Mississippi","lat":31.38778,"lng":-90.29838,"zip":"39662","miles_from_dt":23.44},{"city":"Newhebron","state_name":"Mississippi","lat":31.75211,"lng":-90.00512,"zip":"39140","miles_from_dt":23.84},{"city":"Silver Creek","state_name":"Mississippi","lat":31.58615,"lng":-90.02955,"zip":"39663","miles_from_dt":23.98},{"city":"Pattison","state_name":"Mississippi","lat":31.82971,"lng":-90.80155,"zip":"39144","miles_from_dt":24.5},{"city":"Pinola","state_name":"Mississippi","lat":31.83354,"lng":-90.00985,"zip":"39149","miles_from_dt":24.8},{"city":"Hermanville","state_name":"Mississippi","lat":31.96275,"lng":-90.75964,"zip":"39086","miles_from_dt":26.84},{"city":"Terry","state_name":"Mississippi","lat":32.11182,"lng":-90.3377,"zip":"39170","miles_from_dt":27.65},{"city":"Jayess","state_name":"Mississippi","lat":31.35717,"lng":-90.17042,"zip":"39641","miles_from_dt":28.35},{"city":"Utica","state_name":"Mississippi","lat":32.09238,"lng":-90.62097,"zip":"39175","miles_from_dt":28.87},{"city":"Summit","state_name":"Mississippi","lat":31.2853,"lng":-90.48857,"zip":"39666","miles_from_dt":29.98}],"targetCityZipCode":"39191","targetCityState":"Mississippi"},"__N_SSG":true}