{"pageProps":{"stateName":"Nebraska","cityName":"butte","nearbyCities":[{"city":"Spencer","state_name":"Nebraska","lat":42.86088,"lng":-98.68504,"zip":"68777","miles_from_dt":10.31},{"city":"Fairfax","state_name":"South Dakota","lat":43.06005,"lng":-98.77255,"zip":"57335","miles_from_dt":10.84},{"city":"Naper","state_name":"Nebraska","lat":42.92329,"lng":-99.12963,"zip":"68755","miles_from_dt":13.11},{"city":"Saint Charles","state_name":"South Dakota","lat":43.04152,"lng":-99.09042,"zip":"57571","miles_from_dt":13.89},{"city":"Bristow","state_name":"Nebraska","lat":42.96446,"lng":-98.57426,"zip":"68719","miles_from_dt":15.36},{"city":"Bonesteel","state_name":"South Dakota","lat":43.13153,"lng":-98.97891,"zip":"57317","miles_from_dt":15.54},{"city":"Herrick","state_name":"South Dakota","lat":43.12167,"lng":-99.15551,"zip":"57538","miles_from_dt":19.99},{"city":"Pickstown","state_name":"South Dakota","lat":43.06348,"lng":-98.5133,"zip":"57367","miles_from_dt":20.64},{"city":"Marty","state_name":"South Dakota","lat":42.99459,"lng":-98.43463,"zip":"57361","miles_from_dt":22.72},{"city":"Stuart","state_name":"Nebraska","lat":42.64621,"lng":-99.14062,"zip":"68780","miles_from_dt":23.38},{"city":"Lynch","state_name":"Nebraska","lat":42.80726,"lng":-98.4354,"zip":"68746","miles_from_dt":23.48},{"city":"Lake Andes","state_name":"South Dakota","lat":43.1468,"lng":-98.51803,"zip":"57356","miles_from_dt":23.74},{"city":"Geddes","state_name":"South Dakota","lat":43.24561,"lng":-98.70054,"zip":"57342","miles_from_dt":24.03},{"city":"Newport","state_name":"Nebraska","lat":42.75096,"lng":-99.33762,"zip":"68759","miles_from_dt":26.43},{"city":"Atkinson","state_name":"Nebraska","lat":42.54061,"lng":-98.9718,"zip":"68713","miles_from_dt":26.73},{"city":"Burke","state_name":"South Dakota","lat":43.24437,"lng":-99.23795,"zip":"57523","miles_from_dt":29.04}],"targetCityZipCode":"68722","targetCityState":"Nebraska"},"__N_SSG":true}