{"pageProps":{"stateName":"Nebraska","cityName":"stamford","nearbyCities":[{"city":"Long Island","state_name":"Kansas","lat":39.93794,"lng":-99.53162,"zip":"67647","miles_from_dt":10.33},{"city":"Orleans","state_name":"Nebraska","lat":40.15765,"lng":-99.46262,"zip":"68966","miles_from_dt":10.87},{"city":"Beaver City","state_name":"Nebraska","lat":40.09311,"lng":-99.85139,"zip":"68926","miles_from_dt":11.85},{"city":"Almena","state_name":"Kansas","lat":39.89983,"lng":-99.72522,"zip":"67622","miles_from_dt":12.58},{"city":"Oxford","state_name":"Nebraska","lat":40.25263,"lng":-99.63085,"zip":"68967","miles_from_dt":12.81},{"city":"Alma","state_name":"Nebraska","lat":40.15482,"lng":-99.33521,"zip":"68920","miles_from_dt":16.77},{"city":"Prairie View","state_name":"Kansas","lat":39.81609,"lng":-99.5875,"zip":"67664","miles_from_dt":17.46},{"city":"Edison","state_name":"Nebraska","lat":40.31655,"lng":-99.77868,"zip":"68936","miles_from_dt":18.92},{"city":"Hendley","state_name":"Nebraska","lat":40.1067,"lng":-99.99048,"zip":"68946","miles_from_dt":19.28},{"city":"Republican City","state_name":"Nebraska","lat":40.11931,"lng":-99.24478,"zip":"68971","miles_from_dt":20.75},{"city":"Atlanta","state_name":"Nebraska","lat":40.36835,"lng":-99.47314,"zip":"68923","miles_from_dt":22.4},{"city":"Phillipsburg","state_name":"Kansas","lat":39.82546,"lng":-99.33039,"zip":"67661","miles_from_dt":23.05},{"city":"Arapahoe","state_name":"Nebraska","lat":40.33653,"lng":-99.89976,"zip":"68922","miles_from_dt":23.43},{"city":"Norton","state_name":"Kansas","lat":39.83067,"lng":-99.95573,"zip":"67654","miles_from_dt":23.75},{"city":"Wilsonville","state_name":"Nebraska","lat":40.06821,"lng":-100.10403,"zip":"69046","miles_from_dt":25.1},{"city":"Ragan","state_name":"Nebraska","lat":40.31084,"lng":-99.25462,"zip":"68969","miles_from_dt":26.05},{"city":"Naponee","state_name":"Nebraska","lat":40.08549,"lng":-99.13866,"zip":"68960","miles_from_dt":26.1},{"city":"Holdrege","state_name":"Nebraska","lat":40.43193,"lng":-99.39481,"zip":"68949","miles_from_dt":28.09},{"city":"Holbrook","state_name":"Nebraska","lat":40.34151,"lng":-100.02639,"zip":"68948","miles_from_dt":28.24},{"city":"Wilcox","state_name":"Nebraska","lat":40.33081,"lng":-99.19521,"zip":"68982","miles_from_dt":29.35},{"city":"Logan","state_name":"Kansas","lat":39.63921,"lng":-99.58654,"zip":"67646","miles_from_dt":29.6}],"targetCityZipCode":"68977","targetCityState":"Nebraska"},"__N_SSG":true}