{"pageProps":{"stateName":"New-york","cityName":"allegany","nearbyCities":[{"city":"Saint Bonaventure","state_name":"New York","lat":42.07759,"lng":-78.4827,"zip":"14778","miles_from_dt":3.07},{"city":"Kill Buck","state_name":"New York","lat":42.1392,"lng":-78.63636,"zip":"14748","miles_from_dt":6.01},{"city":"Olean","state_name":"New York","lat":42.07098,"lng":-78.41421,"zip":"14760","miles_from_dt":6.34},{"city":"Limestone","state_name":"New York","lat":42.03899,"lng":-78.63516,"zip":"14753","miles_from_dt":7.22},{"city":"Derrick City","state_name":"Pennsylvania","lat":41.98501,"lng":-78.5338,"zip":"16727","miles_from_dt":8.4},{"city":"Westons Mills","state_name":"New York","lat":42.06012,"lng":-78.37661,"zip":"14788","miles_from_dt":8.42},{"city":"Great Valley","state_name":"New York","lat":42.21868,"lng":-78.5963,"zip":"14741","miles_from_dt":8.49},{"city":"Hinsdale","state_name":"New York","lat":42.20532,"lng":-78.40631,"zip":"14743","miles_from_dt":9.24},{"city":"Duke Center","state_name":"Pennsylvania","lat":41.96501,"lng":-78.4788,"zip":"16729","miles_from_dt":10.1},{"city":"Salamanca","state_name":"New York","lat":42.10703,"lng":-78.76977,"zip":"14779","miles_from_dt":12.43},{"city":"Portville","state_name":"New York","lat":42.0468,"lng":-78.29963,"zip":"14770","miles_from_dt":12.45},{"city":"Rixford","state_name":"Pennsylvania","lat":41.92578,"lng":-78.49042,"zip":"16745","miles_from_dt":12.63},{"city":"Eldred","state_name":"Pennsylvania","lat":41.94625,"lng":-78.37126,"zip":"16731","miles_from_dt":13.69},{"city":"Cuba","state_name":"New York","lat":42.2129,"lng":-78.29358,"zip":"14727","miles_from_dt":14.09},{"city":"Ceres","state_name":"New York","lat":42.01645,"lng":-78.26801,"zip":"14721","miles_from_dt":14.75},{"city":"Ellicottville","state_name":"New York","lat":42.30063,"lng":-78.65092,"zip":"14731","miles_from_dt":14.8},{"city":"West Clarksville","state_name":"New York","lat":42.12521,"lng":-78.22988,"zip":"14786","miles_from_dt":15.37},{"city":"Custer City","state_name":"Pennsylvania","lat":41.89881,"lng":-78.66328,"zip":"16725","miles_from_dt":15.95},{"city":"Rew","state_name":"Pennsylvania","lat":41.87567,"lng":-78.56941,"zip":"16744","miles_from_dt":16.08},{"city":"Franklinville","state_name":"New York","lat":42.33524,"lng":-78.42926,"zip":"14737","miles_from_dt":16.57},{"city":"Little Valley","state_name":"New York","lat":42.23477,"lng":-78.81398,"zip":"14755","miles_from_dt":17.14},{"city":"Gifford","state_name":"Pennsylvania","lat":41.85921,"lng":-78.60843,"zip":"16732","miles_from_dt":17.57},{"city":"Little Genesee","state_name":"New York","lat":42.02385,"lng":-78.19799,"zip":"14754","miles_from_dt":17.91},{"city":"Bradford","state_name":"Pennsylvania","lat":41.91105,"lng":-78.77385,"zip":"16701","miles_from_dt":18.5},{"city":"Turtlepoint","state_name":"Pennsylvania","lat":41.88796,"lng":-78.29682,"zip":"16750","miles_from_dt":19.22},{"city":"Machias","state_name":"New York","lat":42.3863,"lng":-78.54292,"zip":"14101","miles_from_dt":19.32},{"city":"Black Creek","state_name":"New York","lat":42.28368,"lng":-78.23493,"zip":"14714","miles_from_dt":19.38},{"city":"Richburg","state_name":"New York","lat":42.08875,"lng":-78.14658,"zip":"14774","miles_from_dt":19.64},{"city":"Bolivar","state_name":"New York","lat":42.07323,"lng":-78.14832,"zip":"14715","miles_from_dt":19.65},{"city":"Steamburg","state_name":"New York","lat":42.06014,"lng":-78.91816,"zip":"14783","miles_from_dt":20.32},{"city":"Friendship","state_name":"New York","lat":42.1925,"lng":-78.14932,"zip":"14739","miles_from_dt":20.33},{"city":"East Smethport","state_name":"Pennsylvania","lat":41.81339,"lng":-78.42309,"zip":"16730","miles_from_dt":20.95},{"city":"Cyclone","state_name":"Pennsylvania","lat":41.80456,"lng":-78.57787,"zip":"16726","miles_from_dt":21.01},{"city":"Randolph","state_name":"New York","lat":42.15383,"lng":-78.95086,"zip":"14772","miles_from_dt":21.97},{"city":"East Randolph","state_name":"New York","lat":42.17125,"lng":-78.94814,"zip":"14730","miles_from_dt":22.04},{"city":"West Valley","state_name":"New York","lat":42.42491,"lng":-78.64286,"zip":"14171","miles_from_dt":22.74},{"city":"Shinglehouse","state_name":"Pennsylvania","lat":41.9427,"lng":-78.14425,"zip":"16748","miles_from_dt":22.76},{"city":"Otto","state_name":"New York","lat":42.34931,"lng":-78.8288,"zip":"14766","miles_from_dt":22.78},{"city":"East Otto","state_name":"New York","lat":42.40404,"lng":-78.73628,"zip":"14729","miles_from_dt":23.14},{"city":"Lewis Run","state_name":"Pennsylvania","lat":41.80511,"lng":-78.73929,"zip":"16738","miles_from_dt":23.49},{"city":"Rushford","state_name":"New York","lat":42.38999,"lng":-78.26167,"zip":"14777","miles_from_dt":23.85},{"city":"Allentown","state_name":"New York","lat":42.08256,"lng":-78.06196,"zip":"14707","miles_from_dt":24.01},{"city":"Cattaraugus","state_name":"New York","lat":42.34323,"lng":-78.87198,"zip":"14719","miles_from_dt":24.04},{"city":"Alma","state_name":"New York","lat":42.01424,"lng":-78.06988,"zip":"14708","miles_from_dt":24.41},{"city":"Smethport","state_name":"Pennsylvania","lat":41.75578,"lng":-78.4214,"zip":"16749","miles_from_dt":24.83},{"city":"Caneadea","state_name":"New York","lat":42.36258,"lng":-78.18235,"zip":"14717","miles_from_dt":25.03},{"city":"Delevan","state_name":"New York","lat":42.46882,"lng":-78.48377,"zip":"14042","miles_from_dt":25.1},{"city":"Belfast","state_name":"New York","lat":42.32088,"lng":-78.12625,"zip":"14711","miles_from_dt":25.37},{"city":"Farmersville Station","state_name":"New York","lat":42.43986,"lng":-78.30884,"zip":"14060","miles_from_dt":25.6},{"city":"Crosby","state_name":"Pennsylvania","lat":41.74674,"lng":-78.39022,"zip":"16724","miles_from_dt":25.83},{"city":"Port Allegany","state_name":"Pennsylvania","lat":41.7888,"lng":-78.26016,"zip":"16743","miles_from_dt":25.91},{"city":"Houghton","state_name":"New York","lat":42.4219,"lng":-78.21516,"zip":"14744","miles_from_dt":27.03},{"city":"Conewango Valley","state_name":"New York","lat":42.25255,"lng":-79.02221,"zip":"14726","miles_from_dt":27.3},{"city":"Frewsburg","state_name":"New York","lat":42.04539,"lng":-79.05926,"zip":"14738","miles_from_dt":27.64},{"city":"Hazel Hurst","state_name":"Pennsylvania","lat":41.70303,"lng":-78.59514,"zip":"16733","miles_from_dt":28.07},{"city":"Sandusky","state_name":"New York","lat":42.49965,"lng":-78.37889,"zip":"14133","miles_from_dt":28.18},{"city":"Leon","state_name":"New York","lat":42.29368,"lng":-79.01798,"zip":"14751","miles_from_dt":28.27},{"city":"Freedom","state_name":"New York","lat":42.48741,"lng":-78.31158,"zip":"14065","miles_from_dt":28.52},{"city":"Mount Jewett","state_name":"Pennsylvania","lat":41.69255,"lng":-78.54998,"zip":"16740","miles_from_dt":28.6},{"city":"Centerville","state_name":"New York","lat":42.47293,"lng":-78.26346,"zip":"14029","miles_from_dt":28.69},{"city":"Scio","state_name":"New York","lat":42.17363,"lng":-77.97334,"zip":"14880","miles_from_dt":28.86},{"city":"Yorkshire","state_name":"New York","lat":42.52594,"lng":-78.47306,"zip":"14173","miles_from_dt":29.08},{"city":"Kennedy","state_name":"New York","lat":42.15346,"lng":-79.09061,"zip":"14747","miles_from_dt":29.09},{"city":"Belmont","state_name":"New York","lat":42.24638,"lng":-77.99209,"zip":"14813","miles_from_dt":29.15},{"city":"Sardinia","state_name":"New York","lat":42.53057,"lng":-78.51738,"zip":"14134","miles_from_dt":29.27},{"city":"Roulette","state_name":"Pennsylvania","lat":41.79064,"lng":-78.13858,"zip":"16746","miles_from_dt":29.63}],"targetCityZipCode":"14706","targetCityState":"New York"},"__N_SSG":true}