{"pageProps":{"stateName":"South-dakota","cityName":"hoven","nearbyCities":[{"city":"Tolstoy","state_name":"South Dakota","lat":45.22843,"lng":-99.62031,"zip":"57475","miles_from_dt":10.61},{"city":"Akaska","state_name":"South Dakota","lat":45.2852,"lng":-100.14319,"zip":"57420","miles_from_dt":15.68},{"city":"Lebanon","state_name":"South Dakota","lat":44.99301,"lng":-99.74011,"zip":"57455","miles_from_dt":16.11},{"city":"Bowdle","state_name":"South Dakota","lat":45.44984,"lng":-99.67922,"zip":"57428","miles_from_dt":17.88},{"city":"Onaka","state_name":"South Dakota","lat":45.20045,"lng":-99.45885,"zip":"57466","miles_from_dt":18.49},{"city":"Gettysburg","state_name":"South Dakota","lat":45.05721,"lng":-100.14997,"zip":"57442","miles_from_dt":18.82},{"city":"Selby","state_name":"South Dakota","lat":45.4284,"lng":-100.10393,"zip":"57472","miles_from_dt":19.6},{"city":"Java","state_name":"South Dakota","lat":45.52873,"lng":-99.87334,"zip":"57452","miles_from_dt":21.67},{"city":"Seneca","state_name":"South Dakota","lat":44.98993,"lng":-99.483,"zip":"57473","miles_from_dt":23.31},{"city":"Roscoe","state_name":"South Dakota","lat":45.40967,"lng":-99.31359,"zip":"57471","miles_from_dt":28.8}],"targetCityZipCode":"57450","targetCityState":"South Dakota"},"__N_SSG":true}