{"pageProps":{"stateName":"Iowa","cityName":"charter-oak","nearbyCities":[{"city":"Ricketts","state_name":"Iowa","lat":42.1324,"lng":-95.571,"zip":"51460","miles_from_dt":3.47},{"city":"Ute","state_name":"Iowa","lat":42.04189,"lng":-95.69844,"zip":"51060","miles_from_dt":6.56},{"city":"Schleswig","state_name":"Iowa","lat":42.172,"lng":-95.47579,"zip":"51461","miles_from_dt":8.27},{"city":"Arion","state_name":"Iowa","lat":41.9692,"lng":-95.4593,"zip":"51520","miles_from_dt":10.12},{"city":"Dow City","state_name":"Iowa","lat":41.92724,"lng":-95.50185,"zip":"51528","miles_from_dt":11.54},{"city":"Mapleton","state_name":"Iowa","lat":42.16241,"lng":-95.78947,"zip":"51034","miles_from_dt":11.92},{"city":"Denison","state_name":"Iowa","lat":42.02696,"lng":-95.35915,"zip":"51442","miles_from_dt":12.17},{"city":"Soldier","state_name":"Iowa","lat":41.9896,"lng":-95.79053,"zip":"51572","miles_from_dt":12.45},{"city":"Deloit","state_name":"Iowa","lat":42.11784,"lng":-95.3157,"zip":"51441","miles_from_dt":13.97},{"city":"Danbury","state_name":"Iowa","lat":42.2721,"lng":-95.72615,"zip":"51019","miles_from_dt":14.97},{"city":"Dunlap","state_name":"Iowa","lat":41.8618,"lng":-95.62591,"zip":"51529","miles_from_dt":15.42},{"city":"Battle Creek","state_name":"Iowa","lat":42.31088,"lng":-95.61299,"zip":"51006","miles_from_dt":15.8},{"city":"Kiron","state_name":"Iowa","lat":42.20238,"lng":-95.30839,"zip":"51448","miles_from_dt":16.36},{"city":"Castana","state_name":"Iowa","lat":42.09309,"lng":-95.92044,"zip":"51010","miles_from_dt":17.34},{"city":"Ida Grove","state_name":"Iowa","lat":42.32719,"lng":-95.46724,"zip":"51445","miles_from_dt":17.88},{"city":"Moorhead","state_name":"Iowa","lat":41.91497,"lng":-95.87023,"zip":"51558","miles_from_dt":18.77},{"city":"Vail","state_name":"Iowa","lat":42.08964,"lng":-95.19872,"zip":"51465","miles_from_dt":19.79},{"city":"Defiance","state_name":"Iowa","lat":41.82875,"lng":-95.348,"zip":"51527","miles_from_dt":21.33},{"city":"Rodney","state_name":"Iowa","lat":42.20443,"lng":-95.96988,"zip":"51051","miles_from_dt":21.55},{"city":"Arthur","state_name":"Iowa","lat":42.34446,"lng":-95.35146,"zip":"51431","miles_from_dt":21.62},{"city":"Smithland","state_name":"Iowa","lat":42.23443,"lng":-95.95391,"zip":"51056","miles_from_dt":21.71},{"city":"Earling","state_name":"Iowa","lat":41.78247,"lng":-95.42613,"zip":"51530","miles_from_dt":22.27},{"city":"Oto","state_name":"Iowa","lat":42.30113,"lng":-95.91716,"zip":"51044","miles_from_dt":22.8},{"city":"Woodbine","state_name":"Iowa","lat":41.75171,"lng":-95.7069,"zip":"51579","miles_from_dt":23.73},{"city":"Manilla","state_name":"Iowa","lat":41.8798,"lng":-95.2072,"zip":"51454","miles_from_dt":23.92},{"city":"Odebolt","state_name":"Iowa","lat":42.32141,"lng":-95.23524,"zip":"51458","miles_from_dt":24.29},{"city":"Westside","state_name":"Iowa","lat":42.07377,"lng":-95.10919,"zip":"51467","miles_from_dt":24.39},{"city":"Panama","state_name":"Iowa","lat":41.72591,"lng":-95.50128,"zip":"51562","miles_from_dt":25.01},{"city":"Pisgah","state_name":"Iowa","lat":41.81309,"lng":-95.90801,"zip":"51564","miles_from_dt":25.03},{"city":"Onawa","state_name":"Iowa","lat":42.03073,"lng":-96.0706,"zip":"51040","miles_from_dt":25.31},{"city":"Cushing","state_name":"Iowa","lat":42.44884,"lng":-95.67814,"zip":"51018","miles_from_dt":25.71},{"city":"Aspinwall","state_name":"Iowa","lat":41.91009,"lng":-95.13795,"zip":"51432","miles_from_dt":25.86},{"city":"Anthon","state_name":"Iowa","lat":42.3762,"lng":-95.916,"zip":"51004","miles_from_dt":26.47},{"city":"Westphalia","state_name":"Iowa","lat":41.72002,"lng":-95.39508,"zip":"51578","miles_from_dt":26.87},{"city":"Wall Lake","state_name":"Iowa","lat":42.25302,"lng":-95.09837,"zip":"51466","miles_from_dt":27.53},{"city":"Hornick","state_name":"Iowa","lat":42.24857,"lng":-96.07592,"zip":"51026","miles_from_dt":27.75},{"city":"Blencoe","state_name":"Iowa","lat":41.9122,"lng":-96.07172,"zip":"51523","miles_from_dt":27.76},{"city":"Little Sioux","state_name":"Iowa","lat":41.83897,"lng":-96.02072,"zip":"51545","miles_from_dt":28.12},{"city":"Holstein","state_name":"Iowa","lat":42.4973,"lng":-95.55853,"zip":"51025","miles_from_dt":28.63},{"city":"Arcadia","state_name":"Iowa","lat":42.0869,"lng":-95.02633,"zip":"51430","miles_from_dt":28.65},{"city":"Correctionville","state_name":"Iowa","lat":42.46907,"lng":-95.80113,"zip":"51016","miles_from_dt":28.89},{"city":"Irwin","state_name":"Iowa","lat":41.77663,"lng":-95.19277,"zip":"51446","miles_from_dt":29.2},{"city":"Manning","state_name":"Iowa","lat":41.90829,"lng":-95.0559,"zip":"51455","miles_from_dt":29.72}],"targetCityZipCode":"51439","targetCityState":"Iowa"},"__N_SSG":true}