{"pageProps":{"stateName":"Iowa","cityName":"unionville","nearbyCities":[{"city":"Drakesville","state_name":"Iowa","lat":40.83552,"lng":-92.53633,"zip":"52552","miles_from_dt":5.93},{"city":"Udell","state_name":"Iowa","lat":40.77363,"lng":-92.73955,"zip":"52593","miles_from_dt":6.37},{"city":"Blakesburg","state_name":"Iowa","lat":40.95291,"lng":-92.61802,"zip":"52536","miles_from_dt":8.26},{"city":"Moravia","state_name":"Iowa","lat":40.87739,"lng":-92.83114,"zip":"52571","miles_from_dt":9.94},{"city":"Moulton","state_name":"Iowa","lat":40.67795,"lng":-92.69163,"zip":"52572","miles_from_dt":11.1},{"city":"Bloomfield","state_name":"Iowa","lat":40.7355,"lng":-92.41426,"zip":"52537","miles_from_dt":14.14},{"city":"Albia","state_name":"Iowa","lat":41.02684,"lng":-92.81562,"zip":"52531","miles_from_dt":15.8},{"city":"Centerville","state_name":"Iowa","lat":40.71774,"lng":-92.90831,"zip":"52544","miles_from_dt":15.82},{"city":"Exline","state_name":"Iowa","lat":40.63905,"lng":-92.81046,"zip":"52555","miles_from_dt":15.98},{"city":"Mystic","state_name":"Iowa","lat":40.80822,"lng":-92.96948,"zip":"52574","miles_from_dt":16.88},{"city":"Ottumwa","state_name":"Iowa","lat":41.03828,"lng":-92.43252,"zip":"52501","miles_from_dt":18.02},{"city":"Coatsville","state_name":"Missouri","lat":40.57244,"lng":-92.67946,"zip":"63535","miles_from_dt":18.23},{"city":"Chillicothe","state_name":"Iowa","lat":41.0855,"lng":-92.5306,"zip":"52548","miles_from_dt":18.33},{"city":"Floris","state_name":"Iowa","lat":40.85491,"lng":-92.25312,"zip":"52560","miles_from_dt":20.82},{"city":"Agency","state_name":"Iowa","lat":40.98953,"lng":-92.29492,"zip":"52530","miles_from_dt":21.39},{"city":"Kirkville","state_name":"Iowa","lat":41.12887,"lng":-92.50547,"zip":"52566","miles_from_dt":21.59},{"city":"Eddyville","state_name":"Iowa","lat":41.14865,"lng":-92.65668,"zip":"52553","miles_from_dt":21.6},{"city":"Plano","state_name":"Iowa","lat":40.80504,"lng":-93.06265,"zip":"52581","miles_from_dt":21.76},{"city":"Cincinnati","state_name":"Iowa","lat":40.61392,"lng":-92.94602,"zip":"52549","miles_from_dt":21.82},{"city":"Lancaster","state_name":"Missouri","lat":40.53405,"lng":-92.4953,"zip":"63548","miles_from_dt":22.33},{"city":"Eldon","state_name":"Iowa","lat":40.92562,"lng":-92.23387,"zip":"52554","miles_from_dt":22.64},{"city":"Glenwood","state_name":"Missouri","lat":40.50355,"lng":-92.63331,"zip":"63541","miles_from_dt":22.93},{"city":"Melrose","state_name":"Iowa","lat":40.97968,"lng":-93.04939,"zip":"52569","miles_from_dt":23.17},{"city":"Livonia","state_name":"Missouri","lat":40.49921,"lng":-92.74252,"zip":"63551","miles_from_dt":23.72},{"city":"Pulaski","state_name":"Iowa","lat":40.65273,"lng":-92.24936,"zip":"52584","miles_from_dt":24.5},{"city":"Selma","state_name":"Iowa","lat":40.86325,"lng":-92.16315,"zip":"52588","miles_from_dt":25.56},{"city":"Cedar","state_name":"Iowa","lat":41.20065,"lng":-92.51773,"zip":"52543","miles_from_dt":26.12},{"city":"Lovilia","state_name":"Iowa","lat":41.12771,"lng":-92.97404,"zip":"50150","miles_from_dt":26.35},{"city":"Promise City","state_name":"Iowa","lat":40.80284,"lng":-93.1555,"zip":"52583","miles_from_dt":26.62},{"city":"Seymour","state_name":"Iowa","lat":40.6654,"lng":-93.13594,"zip":"52590","miles_from_dt":28.1},{"city":"Milton","state_name":"Iowa","lat":40.68656,"lng":-92.14853,"zip":"52570","miles_from_dt":28.23},{"city":"Bussey","state_name":"Iowa","lat":41.20247,"lng":-92.88907,"zip":"50044","miles_from_dt":28.24},{"city":"Douds","state_name":"Iowa","lat":40.81877,"lng":-92.1058,"zip":"52551","miles_from_dt":28.53},{"city":"Downing","state_name":"Missouri","lat":40.48423,"lng":-92.3574,"zip":"63536","miles_from_dt":28.7},{"city":"Fremont","state_name":"Iowa","lat":41.22135,"lng":-92.44081,"zip":"52561","miles_from_dt":28.77},{"city":"Batavia","state_name":"Iowa","lat":41.01228,"lng":-92.15043,"zip":"52533","miles_from_dt":28.83},{"city":"Russell","state_name":"Iowa","lat":40.97124,"lng":-93.17502,"zip":"50238","miles_from_dt":29.06},{"city":"Unionville","state_name":"Missouri","lat":40.48263,"lng":-92.95447,"zip":"63565","miles_from_dt":29.15},{"city":"Worthington","state_name":"Missouri","lat":40.41332,"lng":-92.70461,"zip":"63567","miles_from_dt":29.28},{"city":"Hamilton","state_name":"Iowa","lat":41.17812,"lng":-92.98247,"zip":"50116","miles_from_dt":29.35},{"city":"Queen City","state_name":"Missouri","lat":40.41408,"lng":-92.54317,"zip":"63561","miles_from_dt":29.62}],"targetCityZipCode":"52594","targetCityState":"Iowa"},"__N_SSG":true}