{"pageProps":{"stateName":"Illinois","cityName":"aurora","nearbyCities":[{"city":"Aurora","state_name":"Illinois","lat":41.77478,"lng":-88.25068,"zip":"60598","miles_from_dt":1.09},{"city":"Eola","state_name":"Illinois","lat":41.77724,"lng":-88.24255,"zip":"60519","miles_from_dt":1.2},{"city":"Aurora","state_name":"Illinois","lat":41.77339,"lng":-88.24738,"zip":"60568","miles_from_dt":1.25},{"city":"Aurora","state_name":"Illinois","lat":41.76527,"lng":-88.29576,"zip":"60505","miles_from_dt":2.49},{"city":"Aurora","state_name":"Illinois","lat":41.81211,"lng":-88.21715,"zip":"60569","miles_from_dt":2.7},{"city":"Aurora","state_name":"Illinois","lat":41.78532,"lng":-88.31845,"zip":"60507","miles_from_dt":3.06},{"city":"Aurora","state_name":"Illinois","lat":41.74649,"lng":-88.23957,"zip":"60504","miles_from_dt":3.12},{"city":"Aurora","state_name":"Illinois","lat":41.76606,"lng":-88.32002,"zip":"60572","miles_from_dt":3.51},{"city":"Warrenville","state_name":"Illinois","lat":41.82261,"lng":-88.18854,"zip":"60555","miles_from_dt":4.33},{"city":"Batavia","state_name":"Illinois","lat":41.84283,"lng":-88.31189,"zip":"60510","miles_from_dt":4.59},{"city":"Mooseheart","state_name":"Illinois","lat":41.825,"lng":-88.33529,"zip":"60539","miles_from_dt":4.63},{"city":"Naperville","state_name":"Illinois","lat":41.79933,"lng":-88.16884,"zip":"60563","miles_from_dt":4.74},{"city":"North Aurora","state_name":"Illinois","lat":41.80878,"lng":-88.3489,"zip":"60542","miles_from_dt":4.81},{"city":"Fox Valley","state_name":"Illinois","lat":41.7721,"lng":-88.3574,"zip":"60599","miles_from_dt":5.19},{"city":"Aurora","state_name":"Illinois","lat":41.7079,"lng":-88.25475,"zip":"60503","miles_from_dt":5.61},{"city":"Naperville","state_name":"Illinois","lat":41.78382,"lng":-88.1469,"zip":"60567","miles_from_dt":5.83},{"city":"Aurora","state_name":"Illinois","lat":41.76176,"lng":-88.37125,"zip":"60506","miles_from_dt":6.07},{"city":"Naperville","state_name":"Illinois","lat":41.76361,"lng":-88.14476,"zip":"60540","miles_from_dt":6.18},{"city":"Naperville","state_name":"Illinois","lat":41.70901,"lng":-88.19961,"zip":"60564","miles_from_dt":6.34},{"city":"Montgomery","state_name":"Illinois","lat":41.72165,"lng":-88.35637,"zip":"60538","miles_from_dt":6.84},{"city":"West Chicago","state_name":"Illinois","lat":41.88491,"lng":-88.20651,"zip":"60186","miles_from_dt":7.16},{"city":"Naperville","state_name":"Illinois","lat":41.74494,"lng":-88.12727,"zip":"60566","miles_from_dt":7.48},{"city":"Geneva","state_name":"Illinois","lat":41.8784,"lng":-88.34189,"zip":"60134","miles_from_dt":7.49},{"city":"West Chicago","state_name":"Illinois","lat":41.89308,"lng":-88.21498,"zip":"60185","miles_from_dt":7.53},{"city":"Winfield","state_name":"Illinois","lat":41.87319,"lng":-88.1576,"zip":"60190","miles_from_dt":7.83},{"city":"Wheaton","state_name":"Illinois","lat":41.83957,"lng":-88.12128,"zip":"60189","miles_from_dt":7.94},{"city":"Naperville","state_name":"Illinois","lat":41.7297,"lng":-88.12312,"zip":"60565","miles_from_dt":8.15},{"city":"Lisle","state_name":"Illinois","lat":41.79153,"lng":-88.08576,"zip":"60532","miles_from_dt":8.98},{"city":"Oswego","state_name":"Illinois","lat":41.66537,"lng":-88.32442,"zip":"60543","miles_from_dt":9.18},{"city":"Plainfield","state_name":"Illinois","lat":41.65864,"lng":-88.22339,"zip":"60585","miles_from_dt":9.2},{"city":"Wheaton","state_name":"Illinois","lat":41.87231,"lng":-88.1126,"zip":"60187","miles_from_dt":9.51},{"city":"Saint Charles","state_name":"Illinois","lat":41.92759,"lng":-88.29906,"zip":"60174","miles_from_dt":9.77},{"city":"Bolingbrook","state_name":"Illinois","lat":41.67575,"lng":-88.14118,"zip":"60490","miles_from_dt":9.93},{"city":"Sugar Grove","state_name":"Illinois","lat":41.77852,"lng":-88.45838,"zip":"60554","miles_from_dt":10.3},{"city":"Carol Stream","state_name":"Illinois","lat":41.91446,"lng":-88.13831,"zip":"60197","miles_from_dt":10.68},{"city":"Carol Stream","state_name":"Illinois","lat":41.9137,"lng":-88.13383,"zip":"60116","miles_from_dt":10.77},{"city":"Carol Stream","state_name":"Illinois","lat":41.91562,"lng":-88.12958,"zip":"60188","miles_from_dt":11.01},{"city":"Lafox","state_name":"Illinois","lat":41.88416,"lng":-88.43245,"zip":"60147","miles_from_dt":11.08},{"city":"Bristol","state_name":"Illinois","lat":41.70134,"lng":-88.43986,"zip":"60512","miles_from_dt":11.12},{"city":"Wayne","state_name":"Illinois","lat":41.95208,"lng":-88.25323,"zip":"60184","miles_from_dt":11.25},{"city":"Bolingbrook","state_name":"Illinois","lat":41.70125,"lng":-88.07572,"zip":"60440","miles_from_dt":11.27},{"city":"Glen Ellyn","state_name":"Illinois","lat":41.86539,"lng":-88.06225,"zip":"60137","miles_from_dt":11.46},{"city":"Woodridge","state_name":"Illinois","lat":41.73913,"lng":-88.04161,"zip":"60517","miles_from_dt":11.78},{"city":"Glen Ellyn","state_name":"Illinois","lat":41.87982,"lng":-88.06434,"zip":"60138","miles_from_dt":11.86},{"city":"Carol Stream","state_name":"Illinois","lat":41.91685,"lng":-88.10577,"zip":"60128","miles_from_dt":11.86},{"city":"Carol Stream","state_name":"Illinois","lat":41.91612,"lng":-88.10308,"zip":"60199","miles_from_dt":11.92},{"city":"Carol Stream","state_name":"Illinois","lat":41.91951,"lng":-88.10095,"zip":"60132","miles_from_dt":12.16},{"city":"Downers Grove","state_name":"Illinois","lat":41.80991,"lng":-88.0247,"zip":"60515","miles_from_dt":12.21},{"city":"Plainfield","state_name":"Illinois","lat":41.61393,"lng":-88.21777,"zip":"60544","miles_from_dt":12.28},{"city":"Elburn","state_name":"Illinois","lat":41.86154,"lng":-88.47702,"zip":"60119","miles_from_dt":12.29},{"city":"Saint Charles","state_name":"Illinois","lat":41.94695,"lng":-88.3913,"zip":"60175","miles_from_dt":12.84},{"city":"Downers Grove","state_name":"Illinois","lat":41.76327,"lng":-88.01314,"zip":"60516","miles_from_dt":12.85},{"city":"Wasco","state_name":"Illinois","lat":41.94019,"lng":-88.40908,"zip":"60183","miles_from_dt":12.97},{"city":"Glendale Heights","state_name":"Illinois","lat":41.91916,"lng":-88.07735,"zip":"60139","miles_from_dt":13},{"city":"Bartlett","state_name":"Illinois","lat":41.97816,"lng":-88.20511,"zip":"60103","miles_from_dt":13.35},{"city":"Romeoville","state_name":"Illinois","lat":41.63304,"lng":-88.09855,"zip":"60446","miles_from_dt":13.61},{"city":"Lombard","state_name":"Illinois","lat":41.87505,"lng":-88.01859,"zip":"60148","miles_from_dt":13.78},{"city":"Kaneville","state_name":"Illinois","lat":41.83507,"lng":-88.51984,"zip":"60144","miles_from_dt":13.81},{"city":"Bloomingdale","state_name":"Illinois","lat":41.94905,"lng":-88.09232,"zip":"60108","miles_from_dt":14.01},{"city":"South Elgin","state_name":"Illinois","lat":41.98931,"lng":-88.30987,"zip":"60177","miles_from_dt":14.06},{"city":"Bloomingdale","state_name":"Illinois","lat":41.94579,"lng":-88.08482,"zip":"60117","miles_from_dt":14.08},{"city":"Hanover Park","state_name":"Illinois","lat":41.97805,"lng":-88.14291,"zip":"60133","miles_from_dt":14.36},{"city":"Darien","state_name":"Illinois","lat":41.74518,"lng":-87.98174,"zip":"60561","miles_from_dt":14.67},{"city":"Westmont","state_name":"Illinois","lat":41.79496,"lng":-87.97464,"zip":"60559","miles_from_dt":14.72},{"city":"Plainfield","state_name":"Illinois","lat":41.57036,"lng":-88.23162,"zip":"60586","miles_from_dt":15.17},{"city":"Yorkville","state_name":"Illinois","lat":41.60799,"lng":-88.42841,"zip":"60560","miles_from_dt":15.25},{"city":"Big Rock","state_name":"Illinois","lat":41.75778,"lng":-88.55601,"zip":"60511","miles_from_dt":15.47},{"city":"Clarendon Hills","state_name":"Illinois","lat":41.79655,"lng":-87.95683,"zip":"60514","miles_from_dt":15.64},{"city":"Roselle","state_name":"Illinois","lat":41.97976,"lng":-88.08937,"zip":"60172","miles_from_dt":15.82},{"city":"Villa Park","state_name":"Illinois","lat":41.87795,"lng":-87.97626,"zip":"60181","miles_from_dt":15.85},{"city":"Oak Brook","state_name":"Illinois","lat":41.83713,"lng":-87.95406,"zip":"60523","miles_from_dt":16.12},{"city":"Addison","state_name":"Illinois","lat":41.931,"lng":-88.01072,"zip":"60101","miles_from_dt":16.15},{"city":"Plano","state_name":"Illinois","lat":41.67815,"lng":-88.53587,"zip":"60545","miles_from_dt":16.21},{"city":"Medinah","state_name":"Illinois","lat":41.974,"lng":-88.05476,"zip":"60157","miles_from_dt":16.56},{"city":"Lemont","state_name":"Illinois","lat":41.67692,"lng":-87.97623,"zip":"60439","miles_from_dt":16.57},{"city":"Streamwood","state_name":"Illinois","lat":42.02148,"lng":-88.1783,"zip":"60107","miles_from_dt":16.58},{"city":"Crest Hill","state_name":"Illinois","lat":41.56696,"lng":-88.12438,"zip":"60403","miles_from_dt":16.85},{"city":"Elgin","state_name":"Illinois","lat":42.03317,"lng":-88.2374,"zip":"60120","miles_from_dt":16.88},{"city":"Willowbrook","state_name":"Illinois","lat":41.74472,"lng":-87.93383,"zip":"60527","miles_from_dt":17.1},{"city":"Hinsdale","state_name":"Illinois","lat":41.80019,"lng":-87.92883,"zip":"60521","miles_from_dt":17.1},{"city":"Carol Stream","state_name":"Illinois","lat":42.03672,"lng":-88.28834,"zip":"60122","miles_from_dt":17.15},{"city":"Elgin","state_name":"Illinois","lat":42.03786,"lng":-88.27964,"zip":"60121","miles_from_dt":17.2},{"city":"Lockport","state_name":"Illinois","lat":41.59238,"lng":-88.05106,"zip":"60441","miles_from_dt":17.34},{"city":"Hinsdale","state_name":"Illinois","lat":41.83278,"lng":-87.92889,"zip":"60522","miles_from_dt":17.34},{"city":"Elgin","state_name":"Illinois","lat":42.04011,"lng":-88.31166,"zip":"60123","miles_from_dt":17.53},{"city":"Schaumburg","state_name":"Illinois","lat":42.01195,"lng":-88.09552,"zip":"60193","miles_from_dt":17.55},{"city":"Itasca","state_name":"Illinois","lat":41.97351,"lng":-88.02071,"zip":"60143","miles_from_dt":17.71},{"city":"Elgin","state_name":"Illinois","lat":42.02621,"lng":-88.39691,"zip":"60124","miles_from_dt":17.83},{"city":"Joliet","state_name":"Illinois","lat":41.53355,"lng":-88.20568,"zip":"60431","miles_from_dt":17.86},{"city":"Elmhurst","state_name":"Illinois","lat":41.89627,"lng":-87.94194,"zip":"60126","miles_from_dt":17.98},{"city":"Maple Park","state_name":"Illinois","lat":41.9172,"lng":-88.56613,"zip":"60151","miles_from_dt":18.12},{"city":"Joliet","state_name":"Illinois","lat":41.54492,"lng":-88.1288,"zip":"60435","miles_from_dt":18.16},{"city":"Schaumburg","state_name":"Illinois","lat":42.03339,"lng":-88.11125,"zip":"60194","miles_from_dt":18.51},{"city":"Western Springs","state_name":"Illinois","lat":41.80207,"lng":-87.90076,"zip":"60558","miles_from_dt":18.55},{"city":"Wood Dale","state_name":"Illinois","lat":41.9647,"lng":-87.98087,"zip":"60191","miles_from_dt":18.8},{"city":"Schaumburg","state_name":"Illinois","lat":42.04543,"lng":-88.12663,"zip":"60168","miles_from_dt":18.97},{"city":"Hillside","state_name":"Illinois","lat":41.86753,"lng":-87.90196,"zip":"60162","miles_from_dt":19.23},{"city":"Berkeley","state_name":"Illinois","lat":41.88794,"lng":-87.90948,"zip":"60163","miles_from_dt":19.31},{"city":"Schaumburg","state_name":"Illinois","lat":42.03662,"lng":-88.0833,"zip":"60159","miles_from_dt":19.35},{"city":"Shorewood","state_name":"Illinois","lat":41.50864,"lng":-88.22269,"zip":"60404","miles_from_dt":19.45},{"city":"Westchester","state_name":"Illinois","lat":41.84923,"lng":-87.88986,"zip":"60154","miles_from_dt":19.53},{"city":"Hoffman Estates","state_name":"Illinois","lat":42.05192,"lng":-88.11656,"zip":"60169","miles_from_dt":19.58},{"city":"La Grange Park","state_name":"Illinois","lat":41.83002,"lng":-87.8836,"zip":"60526","miles_from_dt":19.61},{"city":"Joliet","state_name":"Illinois","lat":41.53929,"lng":-88.07693,"zip":"60434","miles_from_dt":19.66},{"city":"Millbrook","state_name":"Illinois","lat":41.59853,"lng":-88.55212,"zip":"60536","miles_from_dt":20.05},{"city":"Bensenville","state_name":"Illinois","lat":41.95686,"lng":-87.94182,"zip":"60105","miles_from_dt":20.06},{"city":"Hoffman Estates","state_name":"Illinois","lat":42.07265,"lng":-88.16797,"zip":"60192","miles_from_dt":20.13},{"city":"Hoffman Estates","state_name":"Illinois","lat":42.07971,"lng":-88.22425,"zip":"60179","miles_from_dt":20.14},{"city":"Homer Glen","state_name":"Illinois","lat":41.60313,"lng":-87.9595,"zip":"60491","miles_from_dt":20.14},{"city":"Wood Dale","state_name":"Illinois","lat":41.96,"lng":-87.94219,"zip":"60399","miles_from_dt":20.18},{"city":"Bensenville","state_name":"Illinois","lat":41.9611,"lng":-87.94194,"zip":"60106","miles_from_dt":20.23},{"city":"La Grange","state_name":"Illinois","lat":41.78371,"lng":-87.86778,"zip":"60525","miles_from_dt":20.24},{"city":"Willow Springs","state_name":"Illinois","lat":41.71909,"lng":-87.87675,"zip":"60480","miles_from_dt":20.36},{"city":"Melrose Park","state_name":"Illinois","lat":41.91667,"lng":-87.90112,"zip":"60164","miles_from_dt":20.48},{"city":"Elk Grove Village","state_name":"Illinois","lat":42.00838,"lng":-87.99153,"zip":"60009","miles_from_dt":20.49},{"city":"Joliet","state_name":"Illinois","lat":41.54087,"lng":-88.0406,"zip":"60432","miles_from_dt":20.54},{"city":"Elk Grove Village","state_name":"Illinois","lat":42.01431,"lng":-87.99828,"zip":"60007","miles_from_dt":20.57},{"city":"Hinckley","state_name":"Illinois","lat":41.7826,"lng":-88.65808,"zip":"60520","miles_from_dt":20.59},{"city":"Bellwood","state_name":"Illinois","lat":41.88256,"lng":-87.87646,"zip":"60104","miles_from_dt":20.8},{"city":"Schaumburg","state_name":"Illinois","lat":42.06541,"lng":-88.08657,"zip":"60195","miles_from_dt":21.05},{"city":"Minooka","state_name":"Illinois","lat":41.48796,"lng":-88.32498,"zip":"60447","miles_from_dt":21.06},{"city":"Stone Park","state_name":"Illinois","lat":41.90328,"lng":-87.88056,"zip":"60165","miles_from_dt":21.08},{"city":"Schaumburg","state_name":"Illinois","lat":42.05287,"lng":-88.0526,"zip":"60173","miles_from_dt":21.1},{"city":"Broadview","state_name":"Illinois","lat":41.8578,"lng":-87.85631,"zip":"60155","miles_from_dt":21.35},{"city":"Brookfield","state_name":"Illinois","lat":41.82459,"lng":-87.8469,"zip":"60513","miles_from_dt":21.45},{"city":"Sandwich","state_name":"Illinois","lat":41.64811,"lng":-88.63471,"zip":"60548","miles_from_dt":21.7},{"city":"Palos Park","state_name":"Illinois","lat":41.67088,"lng":-87.86869,"zip":"60464","miles_from_dt":21.79},{"city":"Joliet","state_name":"Illinois","lat":41.48973,"lng":-88.12392,"zip":"60436","miles_from_dt":21.82},{"city":"Franklin Park","state_name":"Illinois","lat":41.9378,"lng":-87.88304,"zip":"60131","miles_from_dt":21.97},{"city":"Melrose Park","state_name":"Illinois","lat":41.90348,"lng":-87.86176,"zip":"60160","miles_from_dt":21.99},{"city":"Melrose Park","state_name":"Illinois","lat":41.90403,"lng":-87.86113,"zip":"60161","miles_from_dt":22.04},{"city":"Justice","state_name":"Illinois","lat":41.74892,"lng":-87.83484,"zip":"60458","miles_from_dt":22.12},{"city":"Dundee","state_name":"Illinois","lat":42.10793,"lng":-88.30614,"zip":"60118","miles_from_dt":22.13},{"city":"Hines","state_name":"Illinois","lat":41.85834,"lng":-87.8379,"zip":"60141","miles_from_dt":22.28},{"city":"Schaumburg","state_name":"Illinois","lat":42.07148,"lng":-88.04924,"zip":"60196","miles_from_dt":22.3},{"city":"Maywood","state_name":"Illinois","lat":41.87984,"lng":-87.84389,"zip":"60153","miles_from_dt":22.35},{"city":"Summit Argo","state_name":"Illinois","lat":41.77979,"lng":-87.82393,"zip":"60501","miles_from_dt":22.51},{"city":"Chicago","state_name":"Illinois","lat":41.97148,"lng":-87.89757,"zip":"60688","miles_from_dt":22.52},{"city":"Hickory Hills","state_name":"Illinois","lat":41.72475,"lng":-87.82987,"zip":"60457","miles_from_dt":22.64},{"city":"Chicago","state_name":"Illinois","lat":41.97241,"lng":-87.89506,"zip":"60666","miles_from_dt":22.66},{"city":"Gilberts","state_name":"Illinois","lat":42.1053,"lng":-88.37808,"zip":"60136","miles_from_dt":22.66},{"city":"Lyons","state_name":"Illinois","lat":41.81311,"lng":-87.82066,"zip":"60534","miles_from_dt":22.72},{"city":"Riverside","state_name":"Illinois","lat":41.83834,"lng":-87.82132,"zip":"60546","miles_from_dt":22.88},{"city":"Joliet","state_name":"Illinois","lat":41.49895,"lng":-88.04248,"zip":"60433","miles_from_dt":22.96},{"city":"Palatine","state_name":"Illinois","lat":42.09915,"lng":-88.09751,"zip":"60094","miles_from_dt":22.97},{"city":"Carpentersville","state_name":"Illinois","lat":42.12296,"lng":-88.2883,"zip":"60110","miles_from_dt":23.09},{"city":"Rolling Meadows","state_name":"Illinois","lat":42.0739,"lng":-88.0229,"zip":"60008","miles_from_dt":23.13},{"city":"Newark","state_name":"Illinois","lat":41.5193,"lng":-88.52552,"zip":"60541","miles_from_dt":23.16},{"city":"Palos Hills","state_name":"Illinois","lat":41.69878,"lng":-87.8267,"zip":"60465","miles_from_dt":23.22},{"city":"Schiller Park","state_name":"Illinois","lat":41.9583,"lng":-87.8697,"zip":"60176","miles_from_dt":23.25},{"city":"Orland Park","state_name":"Illinois","lat":41.59855,"lng":-87.88848,"zip":"60467","miles_from_dt":23.27},{"city":"Forest Park","state_name":"Illinois","lat":41.86704,"lng":-87.81795,"zip":"60130","miles_from_dt":23.42},{"city":"Des Plaines","state_name":"Illinois","lat":41.99629,"lng":-87.89846,"zip":"60018","miles_from_dt":23.48},{"city":"Burlington","state_name":"Illinois","lat":42.04448,"lng":-88.56261,"zip":"60109","miles_from_dt":23.55},{"city":"Chicago","state_name":"Illinois","lat":41.86,"lng":-87.81219,"zip":"60682","miles_from_dt":23.6},{"city":"Bridgeview","state_name":"Illinois","lat":41.74102,"lng":-87.8068,"zip":"60455","miles_from_dt":23.63},{"city":"River Grove","state_name":"Illinois","lat":41.92504,"lng":-87.83832,"zip":"60171","miles_from_dt":23.67},{"city":"Arlington Heights","state_name":"Illinois","lat":42.06518,"lng":-87.98676,"zip":"60005","miles_from_dt":23.68},{"city":"Millington","state_name":"Illinois","lat":41.56158,"lng":-88.60246,"zip":"60537","miles_from_dt":23.69},{"city":"Hampshire","state_name":"Illinois","lat":42.08003,"lng":-88.5086,"zip":"60140","miles_from_dt":23.83},{"city":"River Forest","state_name":"Illinois","lat":41.89501,"lng":-87.81943,"zip":"60305","miles_from_dt":23.86},{"city":"Cortland","state_name":"Illinois","lat":41.92391,"lng":-88.68994,"zip":"60112","miles_from_dt":24.08},{"city":"Oak Lawn","state_name":"Illinois","lat":41.7106,"lng":-87.80534,"zip":"60454","miles_from_dt":24.09},{"city":"Palatine","state_name":"Illinois","lat":42.10773,"lng":-88.06478,"zip":"60067","miles_from_dt":24.17},{"city":"Berwyn","state_name":"Illinois","lat":41.83237,"lng":-87.78983,"zip":"60402","miles_from_dt":24.43},{"city":"Des Plaines","state_name":"Illinois","lat":42.02445,"lng":-87.90286,"zip":"60017","miles_from_dt":24.53},{"city":"Somonauk","state_name":"Illinois","lat":41.66144,"lng":-88.70343,"zip":"60552","miles_from_dt":24.58},{"city":"Orland Park","state_name":"Illinois","lat":41.62527,"lng":-87.83548,"zip":"60462","miles_from_dt":24.67},{"city":"Des Plaines","state_name":"Illinois","lat":42.02498,"lng":-87.89961,"zip":"60019","miles_from_dt":24.68},{"city":"Palatine","state_name":"Illinois","lat":42.0966,"lng":-88.01131,"zip":"60038","miles_from_dt":24.78},{"city":"New Lenox","state_name":"Illinois","lat":41.50717,"lng":-87.96088,"zip":"60451","miles_from_dt":24.85},{"city":"Oak Park","state_name":"Illinois","lat":41.88865,"lng":-87.79648,"zip":"60301","miles_from_dt":24.87},{"city":"Palatine","state_name":"Illinois","lat":42.09808,"lng":-88.01065,"zip":"60095","miles_from_dt":24.88},{"city":"Oak Park","state_name":"Illinois","lat":41.87249,"lng":-87.78933,"zip":"60304","miles_from_dt":24.94},{"city":"Elmwood Park","state_name":"Illinois","lat":41.92175,"lng":-87.80744,"zip":"60707","miles_from_dt":25.06},{"city":"Palatine","state_name":"Illinois","lat":42.12521,"lng":-88.07503,"zip":"60055","miles_from_dt":25.07},{"city":"Arlington Heights","state_name":"Illinois","lat":42.13061,"lng":-88.09234,"zip":"60006","miles_from_dt":25.09},{"city":"Worth","state_name":"Illinois","lat":41.68737,"lng":-87.79239,"zip":"60482","miles_from_dt":25.15},{"city":"Oak Park","state_name":"Illinois","lat":41.88925,"lng":-87.79085,"zip":"60303","miles_from_dt":25.16},{"city":"Chicago","state_name":"Illinois","lat":41.78175,"lng":-87.77057,"zip":"60638","miles_from_dt":25.26},{"city":"Oak Park","state_name":"Illinois","lat":41.8948,"lng":-87.78983,"zip":"60302","miles_from_dt":25.31},{"city":"Bedford Park","state_name":"Illinois","lat":41.78232,"lng":-87.76794,"zip":"60499","miles_from_dt":25.4},{"city":"Mount Prospect","state_name":"Illinois","lat":42.06618,"lng":-87.93473,"zip":"60056","miles_from_dt":25.41},{"city":"Channahon","state_name":"Illinois","lat":41.42119,"lng":-88.2171,"zip":"60410","miles_from_dt":25.49},{"city":"Chicago Ridge","state_name":"Illinois","lat":41.70341,"lng":-87.77953,"zip":"60415","miles_from_dt":25.5},{"city":"Burbank","state_name":"Illinois","lat":41.74436,"lng":-87.76872,"zip":"60459","miles_from_dt":25.55},{"city":"Barrington","state_name":"Illinois","lat":42.15255,"lng":-88.16519,"zip":"60010","miles_from_dt":25.55},{"city":"Mokena","state_name":"Illinois","lat":41.53821,"lng":-87.89396,"zip":"60448","miles_from_dt":25.65},{"city":"Chicago","state_name":"Illinois","lat":41.97424,"lng":-87.82709,"zip":"60656","miles_from_dt":25.7},{"city":"Chicago","state_name":"Illinois","lat":41.94627,"lng":-87.80639,"zip":"60634","miles_from_dt":25.77},{"city":"Palos Heights","state_name":"Illinois","lat":41.66084,"lng":-87.79033,"zip":"60463","miles_from_dt":25.82},{"city":"Harwood Heights","state_name":"Illinois","lat":41.96384,"lng":-87.81672,"zip":"60706","miles_from_dt":25.83},{"city":"Algonquin","state_name":"Illinois","lat":42.16406,"lng":-88.30928,"zip":"60102","miles_from_dt":26},{"city":"Sycamore","state_name":"Illinois","lat":42.00625,"lng":-88.67205,"zip":"60178","miles_from_dt":26.02},{"city":"Cicero","state_name":"Illinois","lat":41.84005,"lng":-87.75925,"zip":"60804","miles_from_dt":26.07},{"city":"Des Plaines","state_name":"Illinois","lat":42.05232,"lng":-87.8899,"zip":"60016","miles_from_dt":26.32},{"city":"Park Ridge","state_name":"Illinois","lat":42.01276,"lng":-87.84435,"zip":"60068","miles_from_dt":26.39},{"city":"Palatine","state_name":"Illinois","lat":42.13179,"lng":-88.02658,"zip":"60074","miles_from_dt":26.52},{"city":"Arlington Heights","state_name":"Illinois","lat":42.11206,"lng":-87.97895,"zip":"60004","miles_from_dt":26.57},{"city":"Waterman","state_name":"Illinois","lat":41.76507,"lng":-88.77373,"zip":"60556","miles_from_dt":26.62},{"city":"Chicago","state_name":"Illinois","lat":41.88013,"lng":-87.75756,"zip":"60644","miles_from_dt":26.66},{"city":"Oak Lawn","state_name":"Illinois","lat":41.71412,"lng":-87.75278,"zip":"60453","miles_from_dt":26.7},{"city":"Dekalb","state_name":"Illinois","lat":41.90109,"lng":-88.75469,"zip":"60115","miles_from_dt":26.7},{"city":"Chicago","state_name":"Illinois","lat":41.99473,"lng":-87.8131,"zip":"60631","miles_from_dt":27.04},{"city":"Tinley Park","state_name":"Illinois","lat":41.56236,"lng":-87.83095,"zip":"60487","miles_from_dt":27.14},{"city":"Barrington","state_name":"Illinois","lat":42.18603,"lng":-88.22026,"zip":"60011","miles_from_dt":27.47},{"city":"Chicago","state_name":"Illinois","lat":41.9206,"lng":-87.75593,"zip":"60639","miles_from_dt":27.52},{"city":"Hometown","state_name":"Illinois","lat":41.73125,"lng":-87.73111,"zip":"60456","miles_from_dt":27.6},{"city":"Prospect Heights","state_name":"Illinois","lat":42.10406,"lng":-87.92768,"zip":"60070","miles_from_dt":27.66},{"city":"Elwood","state_name":"Illinois","lat":41.40851,"lng":-88.08936,"zip":"60421","miles_from_dt":27.71},{"city":"Chicago","state_name":"Illinois","lat":41.90202,"lng":-87.74104,"zip":"60651","miles_from_dt":27.87},{"city":"Fox River Grove","state_name":"Illinois","lat":42.19511,"lng":-88.21768,"zip":"60021","miles_from_dt":28.1},{"city":"Lake In The Hills","state_name":"Illinois","lat":42.19121,"lng":-88.34788,"zip":"60156","miles_from_dt":28.12},{"city":"Alsip","state_name":"Illinois","lat":41.67233,"lng":-87.73652,"zip":"60803","miles_from_dt":28.21},{"city":"Chicago","state_name":"Illinois","lat":41.81141,"lng":-87.71348,"zip":"60632","miles_from_dt":28.24},{"city":"Chicago","state_name":"Illinois","lat":41.84793,"lng":-87.71753,"zip":"60623","miles_from_dt":28.27},{"city":"Chicago","state_name":"Illinois","lat":41.7754,"lng":-87.71239,"zip":"60629","miles_from_dt":28.28},{"city":"Huntley","state_name":"Illinois","lat":42.17517,"lng":-88.44486,"zip":"60142","miles_from_dt":28.3},{"city":"Chicago","state_name":"Illinois","lat":41.74744,"lng":-87.71445,"zip":"60652","miles_from_dt":28.31},{"city":"Chicago","state_name":"Illinois","lat":41.88045,"lng":-87.72366,"zip":"60624","miles_from_dt":28.37},{"city":"Niles","state_name":"Illinois","lat":42.02834,"lng":-87.81131,"zip":"60714","miles_from_dt":28.4},{"city":"Chicago","state_name":"Illinois","lat":41.94667,"lng":-87.74693,"zip":"60641","miles_from_dt":28.59},{"city":"Crestwood","state_name":"Illinois","lat":41.64568,"lng":-87.74084,"zip":"60418","miles_from_dt":28.59},{"city":"Chicago","state_name":"Illinois","lat":42.02939,"lng":-87.80755,"zip":"60701","miles_from_dt":28.6},{"city":"Tinley Park","state_name":"Illinois","lat":41.57347,"lng":-87.78597,"zip":"60477","miles_from_dt":28.67},{"city":"Sheridan","state_name":"Illinois","lat":41.52463,"lng":-88.68992,"zip":"60551","miles_from_dt":28.8},{"city":"Chicago","state_name":"Illinois","lat":41.97222,"lng":-87.75758,"zip":"60630","miles_from_dt":28.81},{"city":"Oak Forest","state_name":"Illinois","lat":41.60851,"lng":-87.75434,"zip":"60452","miles_from_dt":28.95},{"city":"Evergreen Park","state_name":"Illinois","lat":41.72201,"lng":-87.70243,"zip":"60805","miles_from_dt":29.16},{"city":"Wheeling","state_name":"Illinois","lat":42.13031,"lng":-87.92268,"zip":"60090","miles_from_dt":29.25},{"city":"Midlothian","state_name":"Illinois","lat":41.62833,"lng":-87.73542,"zip":"60445","miles_from_dt":29.29},{"city":"Chicago","state_name":"Illinois","lat":41.99365,"lng":-87.76128,"zip":"60646","miles_from_dt":29.32},{"city":"Chicago","state_name":"Illinois","lat":41.69479,"lng":-87.70374,"zip":"60655","miles_from_dt":29.46},{"city":"Leland","state_name":"Illinois","lat":41.61563,"lng":-88.78639,"zip":"60531","miles_from_dt":29.76},{"city":"Cary","state_name":"Illinois","lat":42.22027,"lng":-88.23568,"zip":"60013","miles_from_dt":29.78},{"city":"Morton Grove","state_name":"Illinois","lat":42.04224,"lng":-87.78895,"zip":"60053","miles_from_dt":29.89},{"city":"Palatine","state_name":"Illinois","lat":42.14196,"lng":-87.92246,"zip":"60078","miles_from_dt":29.91}],"targetCityZipCode":"60502","targetCityState":"Illinois"},"__N_SSG":true}