{"pageProps":{"stateName":"Illinois","cityName":"deer-creek","nearbyCities":[{"city":"Goodfield","state_name":"Illinois","lat":40.63341,"lng":-89.27322,"zip":"61742","miles_from_dt":3.35},{"city":"Morton","state_name":"Illinois","lat":40.61054,"lng":-89.44049,"zip":"61550","miles_from_dt":5.59},{"city":"Congerville","state_name":"Illinois","lat":40.62799,"lng":-89.22393,"zip":"61729","miles_from_dt":5.88},{"city":"Mackinaw","state_name":"Illinois","lat":40.52661,"lng":-89.33909,"zip":"61755","miles_from_dt":6.74},{"city":"Eureka","state_name":"Illinois","lat":40.71146,"lng":-89.26287,"zip":"61530","miles_from_dt":7.13},{"city":"Washington","state_name":"Illinois","lat":40.70506,"lng":-89.42294,"zip":"61571","miles_from_dt":7.22},{"city":"Peoria","state_name":"Illinois","lat":40.6375,"lng":-89.49684,"zip":"61650","miles_from_dt":8.52},{"city":"Danvers","state_name":"Illinois","lat":40.53123,"lng":-89.20646,"zip":"61732","miles_from_dt":9.35},{"city":"Groveland","state_name":"Illinois","lat":40.58578,"lng":-89.52316,"zip":"61535","miles_from_dt":10.21},{"city":"Tremont","state_name":"Illinois","lat":40.50484,"lng":-89.47876,"zip":"61568","miles_from_dt":11.16},{"city":"East Peoria","state_name":"Illinois","lat":40.7083,"lng":-89.52238,"zip":"61635","miles_from_dt":11.39},{"city":"Carlock","state_name":"Illinois","lat":40.61201,"lng":-89.11717,"zip":"61725","miles_from_dt":11.52},{"city":"Secor","state_name":"Illinois","lat":40.70725,"lng":-89.14184,"zip":"61771","miles_from_dt":11.69},{"city":"East Peoria","state_name":"Illinois","lat":40.71185,"lng":-89.53469,"zip":"61611","miles_from_dt":12.08},{"city":"Minier","state_name":"Illinois","lat":40.4347,"lng":-89.32418,"zip":"61759","miles_from_dt":13.09},{"city":"Metamora","state_name":"Illinois","lat":40.80887,"lng":-89.41311,"zip":"61548","miles_from_dt":13.37},{"city":"Peoria","state_name":"Illinois","lat":40.70966,"lng":-89.5664,"zip":"61639","miles_from_dt":13.48},{"city":"Peoria","state_name":"Illinois","lat":40.72414,"lng":-89.55686,"zip":"61643","miles_from_dt":13.51},{"city":"Creve Coeur","state_name":"Illinois","lat":40.64294,"lng":-89.59882,"zip":"61610","miles_from_dt":13.89},{"city":"Peoria","state_name":"Illinois","lat":40.7122,"lng":-89.57465,"zip":"61603","miles_from_dt":13.94},{"city":"Peoria","state_name":"Illinois","lat":40.69138,"lng":-89.58871,"zip":"61634","miles_from_dt":14.08},{"city":"Peoria","state_name":"Illinois","lat":40.68166,"lng":-89.59449,"zip":"61612","miles_from_dt":14.16},{"city":"Peoria","state_name":"Illinois","lat":40.69401,"lng":-89.59085,"zip":"61601","miles_from_dt":14.24},{"city":"Peoria","state_name":"Illinois","lat":40.68366,"lng":-89.59519,"zip":"61655","miles_from_dt":14.24},{"city":"Roanoke","state_name":"Illinois","lat":40.80582,"lng":-89.20475,"zip":"61561","miles_from_dt":14.29},{"city":"Peoria","state_name":"Illinois","lat":40.693,"lng":-89.59305,"zip":"61629","miles_from_dt":14.33},{"city":"Peoria","state_name":"Illinois","lat":40.69951,"lng":-89.59014,"zip":"61637","miles_from_dt":14.34},{"city":"Peoria","state_name":"Illinois","lat":40.67987,"lng":-89.60219,"zip":"61651","miles_from_dt":14.52},{"city":"Peoria","state_name":"Illinois","lat":40.68284,"lng":-89.60181,"zip":"61630","miles_from_dt":14.56},{"city":"Peoria","state_name":"Illinois","lat":40.67769,"lng":-89.60371,"zip":"61654","miles_from_dt":14.56},{"city":"Peoria","state_name":"Illinois","lat":40.68005,"lng":-89.60395,"zip":"61602","miles_from_dt":14.61},{"city":"Peoria","state_name":"Illinois","lat":40.68,"lng":-89.60427,"zip":"61653","miles_from_dt":14.63},{"city":"Peoria","state_name":"Illinois","lat":40.7002,"lng":-89.59859,"zip":"61636","miles_from_dt":14.77},{"city":"Peoria","state_name":"Illinois","lat":40.67885,"lng":-89.6076,"zip":"61652","miles_from_dt":14.78},{"city":"Peoria","state_name":"Illinois","lat":40.68351,"lng":-89.60653,"zip":"61656","miles_from_dt":14.81},{"city":"Peoria Heights","state_name":"Illinois","lat":40.74682,"lng":-89.57195,"zip":"61616","miles_from_dt":15.02},{"city":"Hopedale","state_name":"Illinois","lat":40.4174,"lng":-89.43295,"zip":"61747","miles_from_dt":15.16},{"city":"Stanford","state_name":"Illinois","lat":40.42945,"lng":-89.20145,"zip":"61774","miles_from_dt":15.18},{"city":"Peoria","state_name":"Illinois","lat":40.70011,"lng":-89.61187,"zip":"61606","miles_from_dt":15.43},{"city":"Peoria","state_name":"Illinois","lat":40.6978,"lng":-89.61455,"zip":"61625","miles_from_dt":15.51},{"city":"Pekin","state_name":"Illinois","lat":40.54441,"lng":-89.62181,"zip":"61554","miles_from_dt":16.03},{"city":"Peoria","state_name":"Illinois","lat":40.6765,"lng":-89.63317,"zip":"61605","miles_from_dt":16.04},{"city":"Pekin","state_name":"Illinois","lat":40.56747,"lng":-89.63825,"zip":"61558","miles_from_dt":16.39},{"city":"Pekin","state_name":"Illinois","lat":40.56675,"lng":-89.64293,"zip":"61555","miles_from_dt":16.64},{"city":"Lowpoint","state_name":"Illinois","lat":40.86837,"lng":-89.35253,"zip":"61545","miles_from_dt":16.87},{"city":"Peoria","state_name":"Illinois","lat":40.75872,"lng":-89.60486,"zip":"61614","miles_from_dt":16.91},{"city":"Peoria","state_name":"Illinois","lat":40.74237,"lng":-89.62819,"zip":"61613","miles_from_dt":17.39},{"city":"Peoria","state_name":"Illinois","lat":40.70525,"lng":-89.65297,"zip":"61604","miles_from_dt":17.58},{"city":"Peoria","state_name":"Illinois","lat":40.70828,"lng":-89.66265,"zip":"61633","miles_from_dt":18.13},{"city":"Mossville","state_name":"Illinois","lat":40.82133,"lng":-89.56496,"zip":"61552","miles_from_dt":18.16},{"city":"Hudson","state_name":"Illinois","lat":40.61483,"lng":-88.98898,"zip":"61748","miles_from_dt":18.24},{"city":"El Paso","state_name":"Illinois","lat":40.74925,"lng":-89.02821,"zip":"61738","miles_from_dt":18.31},{"city":"Peoria","state_name":"Illinois","lat":40.65306,"lng":-89.68375,"zip":"61641","miles_from_dt":18.4},{"city":"Peoria","state_name":"Illinois","lat":40.62895,"lng":-89.68627,"zip":"61607","miles_from_dt":18.43},{"city":"Bloomington","state_name":"Illinois","lat":40.6061,"lng":-88.98251,"zip":"61702","miles_from_dt":18.62},{"city":"Armington","state_name":"Illinois","lat":40.35349,"lng":-89.32238,"zip":"61721","miles_from_dt":18.69},{"city":"Peoria","state_name":"Illinois","lat":40.78088,"lng":-89.63102,"zip":"61615","miles_from_dt":18.9},{"city":"South Pekin","state_name":"Illinois","lat":40.49848,"lng":-89.65624,"zip":"61564","miles_from_dt":18.97},{"city":"Normal","state_name":"Illinois","lat":40.51729,"lng":-88.99916,"zip":"61790","miles_from_dt":19.18},{"city":"Benson","state_name":"Illinois","lat":40.85555,"lng":-89.13197,"zip":"61516","miles_from_dt":19.21},{"city":"Rome","state_name":"Illinois","lat":40.88102,"lng":-89.50144,"zip":"61562","miles_from_dt":19.74},{"city":"Peoria","state_name":"Illinois","lat":40.80424,"lng":-89.62971,"zip":"61638","miles_from_dt":19.81},{"city":"Delavan","state_name":"Illinois","lat":40.37431,"lng":-89.52549,"zip":"61734","miles_from_dt":19.93},{"city":"Washburn","state_name":"Illinois","lat":40.91933,"lng":-89.31578,"zip":"61570","miles_from_dt":20.39},{"city":"Bloomington","state_name":"Illinois","lat":40.47697,"lng":-88.99278,"zip":"61701","miles_from_dt":20.71},{"city":"Bloomington","state_name":"Illinois","lat":40.46099,"lng":-88.99981,"zip":"61705","miles_from_dt":20.96},{"city":"Mapleton","state_name":"Illinois","lat":40.60962,"lng":-89.73847,"zip":"61547","miles_from_dt":21.2},{"city":"Normal","state_name":"Illinois","lat":40.52503,"lng":-88.95152,"zip":"61761","miles_from_dt":21.34},{"city":"Shirley","state_name":"Illinois","lat":40.386,"lng":-89.06351,"zip":"61772","miles_from_dt":21.81},{"city":"McLean","state_name":"Illinois","lat":40.3287,"lng":-89.15744,"zip":"61754","miles_from_dt":22.45},{"city":"Bloomington","state_name":"Illinois","lat":40.47427,"lng":-88.95577,"zip":"61791","miles_from_dt":22.52},{"city":"Bloomington","state_name":"Illinois","lat":40.47829,"lng":-88.95273,"zip":"61710","miles_from_dt":22.53},{"city":"Green Valley","state_name":"Illinois","lat":40.41499,"lng":-89.66464,"zip":"61534","miles_from_dt":22.55},{"city":"Bloomington","state_name":"Illinois","lat":40.45862,"lng":-88.96112,"zip":"61709","miles_from_dt":22.79},{"city":"Chillicothe","state_name":"Illinois","lat":40.91751,"lng":-89.53562,"zip":"61523","miles_from_dt":22.79},{"city":"Bloomington","state_name":"Illinois","lat":40.42847,"lng":-88.98691,"zip":"61799","miles_from_dt":22.8},{"city":"Edwards","state_name":"Illinois","lat":40.7757,"lng":-89.7227,"zip":"61528","miles_from_dt":22.85},{"city":"Bloomington","state_name":"Illinois","lat":40.46951,"lng":-88.94281,"zip":"61704","miles_from_dt":23.27},{"city":"Dunlap","state_name":"Illinois","lat":40.84776,"lng":-89.67047,"zip":"61525","miles_from_dt":23.38},{"city":"Emden","state_name":"Illinois","lat":40.29653,"lng":-89.46573,"zip":"62635","miles_from_dt":23.62},{"city":"Kingston Mines","state_name":"Illinois","lat":40.55375,"lng":-89.77561,"zip":"61539","miles_from_dt":23.64},{"city":"Minonk","state_name":"Illinois","lat":40.88713,"lng":-89.03263,"zip":"61760","miles_from_dt":24.13},{"city":"Hanna City","state_name":"Illinois","lat":40.69051,"lng":-89.78688,"zip":"61536","miles_from_dt":24.14},{"city":"Towanda","state_name":"Illinois","lat":40.5713,"lng":-88.86706,"zip":"61776","miles_from_dt":24.92},{"city":"La Rose","state_name":"Illinois","lat":40.98039,"lng":-89.23497,"zip":"61541","miles_from_dt":25.14},{"city":"Gridley","state_name":"Illinois","lat":40.74377,"lng":-88.88118,"zip":"61744","miles_from_dt":25.26},{"city":"Atlanta","state_name":"Illinois","lat":40.26139,"lng":-89.26703,"zip":"61723","miles_from_dt":25.29},{"city":"Edelstein","state_name":"Illinois","lat":40.92899,"lng":-89.62599,"zip":"61526","miles_from_dt":25.96},{"city":"Toluca","state_name":"Illinois","lat":40.9827,"lng":-89.15397,"zip":"61369","miles_from_dt":26.51},{"city":"Glasford","state_name":"Illinois","lat":40.58736,"lng":-89.84029,"zip":"61533","miles_from_dt":26.66},{"city":"Hartsburg","state_name":"Illinois","lat":40.24154,"lng":-89.45774,"zip":"62643","miles_from_dt":27.18},{"city":"Manito","state_name":"Illinois","lat":40.45212,"lng":-89.80172,"zip":"61546","miles_from_dt":27.25},{"city":"Lacon","state_name":"Illinois","lat":41.01856,"lng":-89.36867,"zip":"61540","miles_from_dt":27.27},{"city":"San Jose","state_name":"Illinois","lat":40.29487,"lng":-89.63541,"zip":"62682","miles_from_dt":27.67},{"city":"Merna","state_name":"Illinois","lat":40.51426,"lng":-88.82616,"zip":"61758","miles_from_dt":27.87},{"city":"Lawndale","state_name":"Illinois","lat":40.21455,"lng":-89.29926,"zip":"61751","miles_from_dt":28.33},{"city":"Heyworth","state_name":"Illinois","lat":40.32152,"lng":-88.96684,"zip":"61745","miles_from_dt":28.53},{"city":"Varna","state_name":"Illinois","lat":41.03254,"lng":-89.24688,"zip":"61375","miles_from_dt":28.56},{"city":"Lexington","state_name":"Illinois","lat":40.63568,"lng":-88.78883,"zip":"61753","miles_from_dt":28.76},{"city":"Rutland","state_name":"Illinois","lat":40.98166,"lng":-89.04299,"zip":"61358","miles_from_dt":29.05},{"city":"Trivoli","state_name":"Illinois","lat":40.67788,"lng":-89.89324,"zip":"61569","miles_from_dt":29.53},{"city":"Sparland","state_name":"Illinois","lat":41.032,"lng":-89.50718,"zip":"61565","miles_from_dt":29.54}],"targetCityZipCode":"61733","targetCityState":"Illinois"},"__N_SSG":true}