{"pageProps":{"stateName":"Illinois","cityName":"ferris","nearbyCities":[{"city":"Carthage","state_name":"Illinois","lat":40.40948,"lng":-91.10606,"zip":"62321","miles_from_dt":5.35},{"city":"Elvaston","state_name":"Illinois","lat":40.39598,"lng":-91.24912,"zip":"62334","miles_from_dt":6.35},{"city":"Hamilton","state_name":"Illinois","lat":40.42566,"lng":-91.30555,"zip":"62341","miles_from_dt":7.55},{"city":"Dallas City","state_name":"Illinois","lat":40.57217,"lng":-91.12187,"zip":"62330","miles_from_dt":7.71},{"city":"Nauvoo","state_name":"Illinois","lat":40.52087,"lng":-91.33305,"zip":"62354","miles_from_dt":9.18},{"city":"Colusa","state_name":"Illinois","lat":40.59863,"lng":-91.13788,"zip":"62329","miles_from_dt":9.23},{"city":"Niota","state_name":"Illinois","lat":40.58527,"lng":-91.26113,"zip":"62358","miles_from_dt":9.34},{"city":"Basco","state_name":"Illinois","lat":40.31782,"lng":-91.2251,"zip":"62313","miles_from_dt":10.69},{"city":"La Harpe","state_name":"Illinois","lat":40.57629,"lng":-90.98088,"zip":"61450","miles_from_dt":12.61},{"city":"Keokuk","state_name":"Iowa","lat":40.44072,"lng":-91.43973,"zip":"52632","miles_from_dt":14.16},{"city":"Tennessee","state_name":"Illinois","lat":40.40765,"lng":-90.91052,"zip":"62374","miles_from_dt":14.46},{"city":"West Point","state_name":"Illinois","lat":40.24249,"lng":-91.19174,"zip":"62380","miles_from_dt":15.56},{"city":"Montrose","state_name":"Iowa","lat":40.52763,"lng":-91.46409,"zip":"52639","miles_from_dt":15.87},{"city":"Lomax","state_name":"Illinois","lat":40.68152,"lng":-91.04535,"zip":"61454","miles_from_dt":16.22},{"city":"Fort Madison","state_name":"Iowa","lat":40.65973,"lng":-91.35145,"zip":"52627","miles_from_dt":16.24},{"city":"Wever","state_name":"Iowa","lat":40.69998,"lng":-91.22657,"zip":"52658","miles_from_dt":16.28},{"city":"Blandinsville","state_name":"Illinois","lat":40.5491,"lng":-90.86679,"zip":"61420","miles_from_dt":17.1},{"city":"Bowen","state_name":"Illinois","lat":40.23341,"lng":-91.05495,"zip":"62316","miles_from_dt":17.32},{"city":"Warsaw","state_name":"Illinois","lat":40.26867,"lng":-91.4061,"zip":"62379","miles_from_dt":18.42},{"city":"Sutter","state_name":"Illinois","lat":40.23643,"lng":-91.35863,"zip":"62373","miles_from_dt":18.71},{"city":"Colchester","state_name":"Illinois","lat":40.42248,"lng":-90.81501,"zip":"62326","miles_from_dt":19.14},{"city":"Plymouth","state_name":"Illinois","lat":40.30325,"lng":-90.86687,"zip":"62367","miles_from_dt":19.75},{"city":"Alexandria","state_name":"Missouri","lat":40.38972,"lng":-91.53958,"zip":"63430","miles_from_dt":20.05},{"city":"Denmark","state_name":"Iowa","lat":40.7348,"lng":-91.33609,"zip":"52624","miles_from_dt":20.33},{"city":"Loraine","state_name":"Illinois","lat":40.16958,"lng":-91.19986,"zip":"62349","miles_from_dt":20.61},{"city":"Argyle","state_name":"Iowa","lat":40.5246,"lng":-91.56566,"zip":"52619","miles_from_dt":21.04},{"city":"Carman","state_name":"Illinois","lat":40.76297,"lng":-91.04575,"zip":"61425","miles_from_dt":21.46},{"city":"Augusta","state_name":"Illinois","lat":40.22195,"lng":-90.9212,"zip":"62311","miles_from_dt":21.55},{"city":"Wayland","state_name":"Missouri","lat":40.4053,"lng":-91.57734,"zip":"63472","miles_from_dt":21.73},{"city":"Lima","state_name":"Illinois","lat":40.18836,"lng":-91.37126,"zip":"62348","miles_from_dt":21.92},{"city":"Stronghurst","state_name":"Illinois","lat":40.72323,"lng":-90.91827,"zip":"61480","miles_from_dt":22.16},{"city":"Middletown","state_name":"Iowa","lat":40.79864,"lng":-91.24577,"zip":"52638","miles_from_dt":23.16},{"city":"Sciota","state_name":"Illinois","lat":40.5969,"lng":-90.7527,"zip":"61475","miles_from_dt":23.87},{"city":"West Point","state_name":"Iowa","lat":40.73844,"lng":-91.4611,"zip":"52656","miles_from_dt":24.05},{"city":"Raritan","state_name":"Illinois","lat":40.69583,"lng":-90.82507,"zip":"61471","miles_from_dt":24.16},{"city":"Golden","state_name":"Illinois","lat":40.12898,"lng":-91.04196,"zip":"62339","miles_from_dt":24.37},{"city":"Mendon","state_name":"Illinois","lat":40.11374,"lng":-91.26751,"zip":"62351","miles_from_dt":24.92},{"city":"Donnellson","state_name":"Iowa","lat":40.66604,"lng":-91.57094,"zip":"52625","miles_from_dt":25},{"city":"Media","state_name":"Illinois","lat":40.72159,"lng":-90.82774,"zip":"61460","miles_from_dt":25.25},{"city":"La Prairie","state_name":"Illinois","lat":40.14367,"lng":-90.93418,"zip":"62346","miles_from_dt":25.67},{"city":"West Burlington","state_name":"Iowa","lat":40.84768,"lng":-91.21174,"zip":"52655","miles_from_dt":26.3},{"city":"Burlington","state_name":"Iowa","lat":40.8551,"lng":-91.111,"zip":"52601","miles_from_dt":26.94},{"city":"Huntsville","state_name":"Illinois","lat":40.1799,"lng":-90.82497,"zip":"62344","miles_from_dt":27.06},{"city":"Saint Patrick","state_name":"Missouri","lat":40.26627,"lng":-91.61751,"zip":"63466","miles_from_dt":27.25},{"city":"Ursa","state_name":"Illinois","lat":40.1148,"lng":-91.40662,"zip":"62376","miles_from_dt":27.28},{"city":"Saint Paul","state_name":"Iowa","lat":40.76784,"lng":-91.5164,"zip":"52657","miles_from_dt":27.47},{"city":"Revere","state_name":"Missouri","lat":40.52307,"lng":-91.6898,"zip":"63465","miles_from_dt":27.47},{"city":"Macomb","state_name":"Illinois","lat":40.44047,"lng":-90.65115,"zip":"61455","miles_from_dt":27.59},{"city":"Gladstone","state_name":"Illinois","lat":40.84911,"lng":-90.98905,"zip":"61437","miles_from_dt":28.05},{"city":"Danville","state_name":"Iowa","lat":40.85569,"lng":-91.33998,"zip":"52623","miles_from_dt":28.17},{"city":"Canton","state_name":"Missouri","lat":40.20299,"lng":-91.58267,"zip":"63435","miles_from_dt":28.29},{"city":"Coatsburg","state_name":"Illinois","lat":40.05307,"lng":-91.16564,"zip":"62325","miles_from_dt":28.6},{"city":"Pilot Grove","state_name":"Iowa","lat":40.7703,"lng":-91.54758,"zip":"52648","miles_from_dt":28.7},{"city":"Good Hope","state_name":"Illinois","lat":40.58538,"lng":-90.64942,"zip":"61438","miles_from_dt":28.76},{"city":"Kahoka","state_name":"Missouri","lat":40.39681,"lng":-91.72044,"zip":"63445","miles_from_dt":29.26},{"city":"Smithshire","state_name":"Illinois","lat":40.75633,"lng":-90.76035,"zip":"61478","miles_from_dt":29.47}],"targetCityZipCode":"62336","targetCityState":"Illinois"},"__N_SSG":true}