{"pageProps":{"stateName":"Illinois","cityName":"maquon","nearbyCities":[{"city":"Gilson","state_name":"Illinois","lat":40.86067,"lng":-90.21739,"zip":"61436","miles_from_dt":5.87},{"city":"London Mills","state_name":"Illinois","lat":40.69753,"lng":-90.24273,"zip":"61544","miles_from_dt":6.56},{"city":"Yates City","state_name":"Illinois","lat":40.79768,"lng":-90.0343,"zip":"61572","miles_from_dt":7.79},{"city":"Fairview","state_name":"Illinois","lat":40.65055,"lng":-90.16086,"zip":"61432","miles_from_dt":9.01},{"city":"Farmington","state_name":"Illinois","lat":40.68291,"lng":-90.03482,"zip":"61531","miles_from_dt":10.2},{"city":"Knoxville","state_name":"Illinois","lat":40.93385,"lng":-90.24374,"zip":"61448","miles_from_dt":11.09},{"city":"Dahinda","state_name":"Illinois","lat":40.93262,"lng":-90.10977,"zip":"61428","miles_from_dt":11.16},{"city":"Saint Augustine","state_name":"Illinois","lat":40.73419,"lng":-90.39724,"zip":"61474","miles_from_dt":11.78},{"city":"Abingdon","state_name":"Illinois","lat":40.79779,"lng":-90.40703,"zip":"61410","miles_from_dt":11.91},{"city":"Elmwood","state_name":"Illinois","lat":40.7809,"lng":-89.93673,"zip":"61529","miles_from_dt":12.82},{"city":"East Galesburg","state_name":"Illinois","lat":40.94393,"lng":-90.31135,"zip":"61430","miles_from_dt":13.2},{"city":"Ellisville","state_name":"Illinois","lat":40.60315,"lng":-90.2776,"zip":"61431","miles_from_dt":13.23},{"city":"Williamsfield","state_name":"Illinois","lat":40.93462,"lng":-90.02664,"zip":"61489","miles_from_dt":13.38},{"city":"Norris","state_name":"Illinois","lat":40.62136,"lng":-90.02686,"zip":"61553","miles_from_dt":13.63},{"city":"Fiatt","state_name":"Illinois","lat":40.55749,"lng":-90.16866,"zip":"61433","miles_from_dt":15.39},{"city":"Avon","state_name":"Illinois","lat":40.65425,"lng":-90.42801,"zip":"61415","miles_from_dt":15.61},{"city":"Galesburg","state_name":"Illinois","lat":40.94451,"lng":-90.38888,"zip":"61401","miles_from_dt":15.72},{"city":"Galesburg","state_name":"Illinois","lat":40.93993,"lng":-90.40627,"zip":"61402","miles_from_dt":16.14},{"city":"Trivoli","state_name":"Illinois","lat":40.67788,"lng":-89.89324,"zip":"61569","miles_from_dt":16.68},{"city":"Victoria","state_name":"Illinois","lat":41.01677,"lng":-90.09764,"zip":"61485","miles_from_dt":16.89},{"city":"Laura","state_name":"Illinois","lat":40.94117,"lng":-89.93555,"zip":"61451","miles_from_dt":16.99},{"city":"Brimfield","state_name":"Illinois","lat":40.823,"lng":-89.85155,"zip":"61517","miles_from_dt":17.53},{"city":"Cameron","state_name":"Illinois","lat":40.8855,"lng":-90.50232,"zip":"61423","miles_from_dt":18.34},{"city":"Canton","state_name":"Illinois","lat":40.54197,"lng":-90.02156,"zip":"61520","miles_from_dt":18.46},{"city":"Wataga","state_name":"Illinois","lat":41.03004,"lng":-90.32071,"zip":"61488","miles_from_dt":18.72},{"city":"Berwick","state_name":"Illinois","lat":40.77222,"lng":-90.54413,"zip":"61417","miles_from_dt":19.05},{"city":"Henderson","state_name":"Illinois","lat":41.02923,"lng":-90.35019,"zip":"61439","miles_from_dt":19.33},{"city":"Cuba","state_name":"Illinois","lat":40.49823,"lng":-90.19319,"zip":"61427","miles_from_dt":19.47},{"city":"Oneida","state_name":"Illinois","lat":41.07115,"lng":-90.24338,"zip":"61467","miles_from_dt":20.34},{"city":"Prairie City","state_name":"Illinois","lat":40.60613,"lng":-90.50623,"zip":"61470","miles_from_dt":20.88},{"city":"Smithfield","state_name":"Illinois","lat":40.4945,"lng":-90.31402,"zip":"61477","miles_from_dt":20.92},{"city":"Saint David","state_name":"Illinois","lat":40.4931,"lng":-90.05108,"zip":"61563","miles_from_dt":20.96},{"city":"Dunfermline","state_name":"Illinois","lat":40.49125,"lng":-90.03468,"zip":"61524","miles_from_dt":21.38},{"city":"Hanna City","state_name":"Illinois","lat":40.69051,"lng":-89.78688,"zip":"61536","miles_from_dt":21.6},{"city":"Bryant","state_name":"Illinois","lat":40.46463,"lng":-90.09309,"zip":"61519","miles_from_dt":22.27},{"city":"Glasford","state_name":"Illinois","lat":40.58736,"lng":-89.84029,"zip":"61533","miles_from_dt":22.31},{"city":"Marietta","state_name":"Illinois","lat":40.50497,"lng":-90.41453,"zip":"61459","miles_from_dt":22.61},{"city":"Princeville","state_name":"Illinois","lat":40.92101,"lng":-89.77438,"zip":"61559","miles_from_dt":23.42},{"city":"Altona","state_name":"Illinois","lat":41.12597,"lng":-90.15495,"zip":"61414","miles_from_dt":23.89},{"city":"La Fayette","state_name":"Illinois","lat":41.08926,"lng":-89.97051,"zip":"61449","miles_from_dt":24},{"city":"Edwards","state_name":"Illinois","lat":40.7757,"lng":-89.7227,"zip":"61528","miles_from_dt":24.05},{"city":"Bushnell","state_name":"Illinois","lat":40.55084,"lng":-90.53113,"zip":"61422","miles_from_dt":24.27},{"city":"Rio","state_name":"Illinois","lat":41.10327,"lng":-90.38345,"zip":"61472","miles_from_dt":24.68},{"city":"Roseville","state_name":"Illinois","lat":40.70914,"lng":-90.64975,"zip":"61473","miles_from_dt":25.08},{"city":"Gerlaw","state_name":"Illinois","lat":40.99559,"lng":-90.5686,"zip":"61435","miles_from_dt":25.15},{"city":"Mapleton","state_name":"Illinois","lat":40.60962,"lng":-89.73847,"zip":"61547","miles_from_dt":26.06},{"city":"Monmouth","state_name":"Illinois","lat":40.91014,"lng":-90.65176,"zip":"61462","miles_from_dt":26.24},{"city":"Toulon","state_name":"Illinois","lat":41.08157,"lng":-89.87186,"zip":"61483","miles_from_dt":26.35},{"city":"Kingston Mines","state_name":"Illinois","lat":40.55375,"lng":-89.77561,"zip":"61539","miles_from_dt":26.42},{"city":"Liverpool","state_name":"Illinois","lat":40.42213,"lng":-89.96842,"zip":"61543","miles_from_dt":27.12},{"city":"Dunlap","state_name":"Illinois","lat":40.84776,"lng":-89.67047,"zip":"61525","miles_from_dt":27.17},{"city":"Lewistown","state_name":"Illinois","lat":40.38487,"lng":-90.13402,"zip":"61542","miles_from_dt":27.39},{"city":"Peoria","state_name":"Illinois","lat":40.65306,"lng":-89.68375,"zip":"61641","miles_from_dt":27.55},{"city":"Peoria","state_name":"Illinois","lat":40.70828,"lng":-89.66265,"zip":"61633","miles_from_dt":27.66},{"city":"North Henderson","state_name":"Illinois","lat":41.11103,"lng":-90.48222,"zip":"61466","miles_from_dt":27.73},{"city":"Peoria","state_name":"Illinois","lat":40.62895,"lng":-89.68627,"zip":"61607","miles_from_dt":28},{"city":"Good Hope","state_name":"Illinois","lat":40.58538,"lng":-90.64942,"zip":"61438","miles_from_dt":28.04},{"city":"Bardolph","state_name":"Illinois","lat":40.49592,"lng":-90.56308,"zip":"61416","miles_from_dt":28.07},{"city":"Woodhull","state_name":"Illinois","lat":41.18263,"lng":-90.26518,"zip":"61490","miles_from_dt":28.11},{"city":"Peoria","state_name":"Illinois","lat":40.70525,"lng":-89.65297,"zip":"61604","miles_from_dt":28.19},{"city":"Galva","state_name":"Illinois","lat":41.17387,"lng":-90.03598,"zip":"61434","miles_from_dt":28.2},{"city":"Peoria","state_name":"Illinois","lat":40.78088,"lng":-89.63102,"zip":"61615","miles_from_dt":28.85},{"city":"Peoria","state_name":"Illinois","lat":40.80424,"lng":-89.62971,"zip":"61638","miles_from_dt":28.96},{"city":"Peoria","state_name":"Illinois","lat":40.74237,"lng":-89.62819,"zip":"61613","miles_from_dt":29.13},{"city":"Bishop Hill","state_name":"Illinois","lat":41.19982,"lng":-90.11751,"zip":"61419","miles_from_dt":29.14},{"city":"Table Grove","state_name":"Illinois","lat":40.39362,"lng":-90.40766,"zip":"61482","miles_from_dt":29.22},{"city":"Alexis","state_name":"Illinois","lat":41.07092,"lng":-90.58853,"zip":"61412","miles_from_dt":29.28},{"city":"Peoria","state_name":"Illinois","lat":40.6765,"lng":-89.63317,"zip":"61605","miles_from_dt":29.64}],"targetCityZipCode":"61458","targetCityState":"Illinois"},"__N_SSG":true}