{"pageProps":{"stateName":"Illinois","cityName":"monee","nearbyCities":[{"city":"University Park","state_name":"Illinois","lat":41.44317,"lng":-87.70948,"zip":"60484","miles_from_dt":3.73},{"city":"Richton Park","state_name":"Illinois","lat":41.48009,"lng":-87.72981,"zip":"60471","miles_from_dt":5.02},{"city":"Peotone","state_name":"Illinois","lat":41.33636,"lng":-87.80991,"zip":"60468","miles_from_dt":5.74},{"city":"Frankfort","state_name":"Illinois","lat":41.47922,"lng":-87.83961,"zip":"60423","miles_from_dt":5.78},{"city":"Matteson","state_name":"Illinois","lat":41.50369,"lng":-87.74637,"zip":"60443","miles_from_dt":6.31},{"city":"Park Forest","state_name":"Illinois","lat":41.47966,"lng":-87.68276,"zip":"60466","miles_from_dt":6.4},{"city":"Olympia Fields","state_name":"Illinois","lat":41.51752,"lng":-87.69148,"zip":"60461","miles_from_dt":8.22},{"city":"Steger","state_name":"Illinois","lat":41.47193,"lng":-87.6283,"zip":"60475","miles_from_dt":8.37},{"city":"Crete","state_name":"Illinois","lat":41.43056,"lng":-87.59268,"zip":"60417","miles_from_dt":9.27},{"city":"Beecher","state_name":"Illinois","lat":41.34683,"lng":-87.61306,"zip":"60401","miles_from_dt":9.37},{"city":"Chicago Heights","state_name":"Illinois","lat":41.51083,"lng":-87.63617,"zip":"60412","miles_from_dt":9.64},{"city":"Flossmoor","state_name":"Illinois","lat":41.53861,"lng":-87.68443,"zip":"60422","miles_from_dt":9.68},{"city":"Country Club Hills","state_name":"Illinois","lat":41.55381,"lng":-87.73588,"zip":"60478","miles_from_dt":9.81},{"city":"Manhattan","state_name":"Illinois","lat":41.39189,"lng":-87.96062,"zip":"60442","miles_from_dt":10.03},{"city":"Tinley Park","state_name":"Illinois","lat":41.56236,"lng":-87.83095,"zip":"60487","miles_from_dt":10.72},{"city":"Mokena","state_name":"Illinois","lat":41.53821,"lng":-87.89396,"zip":"60448","miles_from_dt":10.73},{"city":"Tinley Park","state_name":"Illinois","lat":41.57347,"lng":-87.78597,"zip":"60477","miles_from_dt":11.04},{"city":"Chicago Heights","state_name":"Illinois","lat":41.50791,"lng":-87.59031,"zip":"60411","miles_from_dt":11.35},{"city":"Homewood","state_name":"Illinois","lat":41.5584,"lng":-87.66214,"zip":"60430","miles_from_dt":11.43},{"city":"New Lenox","state_name":"Illinois","lat":41.50717,"lng":-87.96088,"zip":"60451","miles_from_dt":11.83},{"city":"Hazel Crest","state_name":"Illinois","lat":41.5737,"lng":-87.68331,"zip":"60429","miles_from_dt":11.9},{"city":"Glenwood","state_name":"Illinois","lat":41.54343,"lng":-87.61073,"zip":"60425","miles_from_dt":12.17},{"city":"Manteno","state_name":"Illinois","lat":41.25135,"lng":-87.88494,"zip":"60950","miles_from_dt":12.72},{"city":"Grant Park","state_name":"Illinois","lat":41.25188,"lng":-87.64259,"zip":"60940","miles_from_dt":12.99},{"city":"Oak Forest","state_name":"Illinois","lat":41.60851,"lng":-87.75434,"zip":"60452","miles_from_dt":13.45},{"city":"Markham","state_name":"Illinois","lat":41.5998,"lng":-87.69062,"zip":"60428","miles_from_dt":13.47},{"city":"Thornton","state_name":"Illinois","lat":41.5694,"lng":-87.60562,"zip":"60476","miles_from_dt":13.7},{"city":"Dyer","state_name":"Indiana","lat":41.46846,"lng":-87.50918,"zip":"46311","miles_from_dt":14.05},{"city":"Orland Park","state_name":"Illinois","lat":41.59855,"lng":-87.88848,"zip":"60467","miles_from_dt":14.15},{"city":"Harvey","state_name":"Illinois","lat":41.61026,"lng":-87.65309,"zip":"60426","miles_from_dt":14.84},{"city":"Midlothian","state_name":"Illinois","lat":41.62833,"lng":-87.73542,"zip":"60445","miles_from_dt":14.9},{"city":"Orland Park","state_name":"Illinois","lat":41.62527,"lng":-87.83548,"zip":"60462","miles_from_dt":14.98},{"city":"Joliet","state_name":"Illinois","lat":41.49895,"lng":-88.04248,"zip":"60433","miles_from_dt":15.33},{"city":"South Holland","state_name":"Illinois","lat":41.59733,"lng":-87.60115,"zip":"60473","miles_from_dt":15.39},{"city":"Posen","state_name":"Illinois","lat":41.62871,"lng":-87.68634,"zip":"60469","miles_from_dt":15.44},{"city":"Lansing","state_name":"Illinois","lat":41.56625,"lng":-87.55065,"zip":"60438","miles_from_dt":15.49},{"city":"Cedar Lake","state_name":"Indiana","lat":41.37198,"lng":-87.4765,"zip":"46303","miles_from_dt":15.51},{"city":"Saint John","state_name":"Indiana","lat":41.44578,"lng":-87.46954,"zip":"46373","miles_from_dt":15.75},{"city":"Crestwood","state_name":"Illinois","lat":41.64568,"lng":-87.74084,"zip":"60418","miles_from_dt":16.06},{"city":"Robbins","state_name":"Illinois","lat":41.6437,"lng":-87.70836,"zip":"60472","miles_from_dt":16.17},{"city":"Homer Glen","state_name":"Illinois","lat":41.60313,"lng":-87.9595,"zip":"60491","miles_from_dt":16.35},{"city":"Bourbonnais","state_name":"Illinois","lat":41.18706,"lng":-87.86194,"zip":"60914","miles_from_dt":16.37},{"city":"Joliet","state_name":"Illinois","lat":41.54087,"lng":-88.0406,"zip":"60432","miles_from_dt":16.56},{"city":"Munster","state_name":"Indiana","lat":41.54704,"lng":-87.50402,"zip":"46321","miles_from_dt":16.57},{"city":"Elwood","state_name":"Illinois","lat":41.40851,"lng":-88.08936,"zip":"60421","miles_from_dt":16.61},{"city":"Palos Heights","state_name":"Illinois","lat":41.66084,"lng":-87.79033,"zip":"60463","miles_from_dt":17.07},{"city":"Dolton","state_name":"Illinois","lat":41.62752,"lng":-87.59871,"zip":"60419","miles_from_dt":17.21},{"city":"Blue Island","state_name":"Illinois","lat":41.65509,"lng":-87.68184,"zip":"60406","miles_from_dt":17.26},{"city":"Schererville","state_name":"Indiana","lat":41.49162,"lng":-87.45193,"zip":"46375","miles_from_dt":17.35},{"city":"Calumet City","state_name":"Illinois","lat":41.61303,"lng":-87.55142,"zip":"60409","miles_from_dt":17.81},{"city":"Riverdale","state_name":"Illinois","lat":41.64967,"lng":-87.63013,"zip":"60827","miles_from_dt":17.81},{"city":"Alsip","state_name":"Illinois","lat":41.67233,"lng":-87.73652,"zip":"60803","miles_from_dt":17.92},{"city":"Joliet","state_name":"Illinois","lat":41.53929,"lng":-88.07693,"zip":"60434","miles_from_dt":18.14},{"city":"Hammond","state_name":"Indiana","lat":41.58324,"lng":-87.50155,"zip":"46324","miles_from_dt":18.17},{"city":"Palos Park","state_name":"Illinois","lat":41.67088,"lng":-87.86869,"zip":"60464","miles_from_dt":18.46},{"city":"Highland","state_name":"Indiana","lat":41.54818,"lng":-87.45884,"zip":"46322","miles_from_dt":18.61},{"city":"Worth","state_name":"Illinois","lat":41.68737,"lng":-87.79239,"zip":"60482","miles_from_dt":18.91},{"city":"Bradley","state_name":"Illinois","lat":41.14758,"lng":-87.86039,"zip":"60915","miles_from_dt":18.98},{"city":"Lockport","state_name":"Illinois","lat":41.59238,"lng":-88.05106,"zip":"60441","miles_from_dt":19.1},{"city":"Joliet","state_name":"Illinois","lat":41.48973,"lng":-88.12392,"zip":"60436","miles_from_dt":19.12},{"city":"Hammond","state_name":"Indiana","lat":41.61409,"lng":-87.51471,"zip":"46325","miles_from_dt":19.13},{"city":"Momence","state_name":"Illinois","lat":41.15446,"lng":-87.62827,"zip":"60954","miles_from_dt":19.36},{"city":"Hammond","state_name":"Indiana","lat":41.60893,"lng":-87.49754,"zip":"46320","miles_from_dt":19.51},{"city":"Griffith","state_name":"Indiana","lat":41.52217,"lng":-87.42091,"zip":"46319","miles_from_dt":19.59},{"city":"Chicago","state_name":"Illinois","lat":41.69479,"lng":-87.70374,"zip":"60655","miles_from_dt":19.68},{"city":"Palos Hills","state_name":"Illinois","lat":41.69878,"lng":-87.8267,"zip":"60465","miles_from_dt":19.88},{"city":"Chicago Ridge","state_name":"Illinois","lat":41.70341,"lng":-87.77953,"zip":"60415","miles_from_dt":19.98},{"city":"Chicago","state_name":"Illinois","lat":41.66315,"lng":-87.56044,"zip":"60633","miles_from_dt":20.34},{"city":"Hammond","state_name":"Indiana","lat":41.58961,"lng":-87.45323,"zip":"46323","miles_from_dt":20.41},{"city":"Chicago","state_name":"Illinois","lat":41.70026,"lng":-87.663,"zip":"60643","miles_from_dt":20.52},{"city":"Oak Lawn","state_name":"Illinois","lat":41.7106,"lng":-87.80534,"zip":"60454","miles_from_dt":20.56},{"city":"Wilmington","state_name":"Illinois","lat":41.28795,"lng":-88.12952,"zip":"60481","miles_from_dt":20.63},{"city":"Joliet","state_name":"Illinois","lat":41.54492,"lng":-88.1288,"zip":"60435","miles_from_dt":20.71},{"city":"Chicago","state_name":"Illinois","lat":41.69165,"lng":-87.61828,"zip":"60628","miles_from_dt":20.71},{"city":"Oak Lawn","state_name":"Illinois","lat":41.71412,"lng":-87.75278,"zip":"60453","miles_from_dt":20.74},{"city":"Hammond","state_name":"Indiana","lat":41.64048,"lng":-87.50677,"zip":"46327","miles_from_dt":20.75},{"city":"Merrillville","state_name":"Indiana","lat":41.47137,"lng":-87.37635,"zip":"46411","miles_from_dt":20.81},{"city":"Lemont","state_name":"Illinois","lat":41.67692,"lng":-87.97623,"zip":"60439","miles_from_dt":21.07},{"city":"Crown Point","state_name":"Indiana","lat":41.41715,"lng":-87.36393,"zip":"46308","miles_from_dt":21.08},{"city":"Lowell","state_name":"Indiana","lat":41.26117,"lng":-87.41863,"zip":"46356","miles_from_dt":21.09},{"city":"Crest Hill","state_name":"Illinois","lat":41.56696,"lng":-88.12438,"zip":"60403","miles_from_dt":21.22},{"city":"Evergreen Park","state_name":"Illinois","lat":41.72201,"lng":-87.70243,"zip":"60805","miles_from_dt":21.55},{"city":"Hickory Hills","state_name":"Illinois","lat":41.72475,"lng":-87.82987,"zip":"60457","miles_from_dt":21.68},{"city":"Willow Springs","state_name":"Illinois","lat":41.71909,"lng":-87.87675,"zip":"60480","miles_from_dt":21.78},{"city":"Hometown","state_name":"Illinois","lat":41.73125,"lng":-87.73111,"zip":"60456","miles_from_dt":21.99},{"city":"Kankakee","state_name":"Illinois","lat":41.11029,"lng":-87.90049,"zip":"60901","miles_from_dt":22.03},{"city":"Schneider","state_name":"Indiana","lat":41.1838,"lng":-87.47603,"zip":"46376","miles_from_dt":22.04},{"city":"Gary","state_name":"Indiana","lat":41.54468,"lng":-87.36941,"zip":"46408","miles_from_dt":22.65},{"city":"Bridgeview","state_name":"Illinois","lat":41.74102,"lng":-87.8068,"zip":"60455","miles_from_dt":22.66},{"city":"Romeoville","state_name":"Illinois","lat":41.63304,"lng":-88.09855,"zip":"60446","miles_from_dt":22.79},{"city":"Burbank","state_name":"Illinois","lat":41.74436,"lng":-87.76872,"zip":"60459","miles_from_dt":22.8},{"city":"Gary","state_name":"Indiana","lat":41.6022,"lng":-87.40804,"zip":"46406","miles_from_dt":22.82},{"city":"Whiting","state_name":"Indiana","lat":41.67733,"lng":-87.50279,"zip":"46394","miles_from_dt":22.85},{"city":"East Chicago","state_name":"Indiana","lat":41.64705,"lng":-87.45446,"zip":"46312","miles_from_dt":22.94},{"city":"Crown Point","state_name":"Indiana","lat":41.40215,"lng":-87.32693,"zip":"46307","miles_from_dt":23.02},{"city":"Merrillville","state_name":"Indiana","lat":41.48083,"lng":-87.33293,"zip":"46410","miles_from_dt":23.15},{"city":"Chicago","state_name":"Illinois","lat":41.74744,"lng":-87.71445,"zip":"60652","miles_from_dt":23.19},{"city":"Channahon","state_name":"Illinois","lat":41.42119,"lng":-88.2171,"zip":"60410","miles_from_dt":23.24},{"city":"Justice","state_name":"Illinois","lat":41.74892,"lng":-87.83484,"zip":"60458","miles_from_dt":23.36},{"city":"Chicago","state_name":"Illinois","lat":41.74096,"lng":-87.65257,"zip":"60620","miles_from_dt":23.37},{"city":"Chicago","state_name":"Illinois","lat":41.71337,"lng":-87.55618,"zip":"60617","miles_from_dt":23.44},{"city":"Gary","state_name":"Indiana","lat":41.58475,"lng":-87.37502,"zip":"46404","miles_from_dt":23.63},{"city":"Bonfield","state_name":"Illinois","lat":41.14835,"lng":-88.06206,"zip":"60913","miles_from_dt":23.82},{"city":"Joliet","state_name":"Illinois","lat":41.53355,"lng":-88.20568,"zip":"60431","miles_from_dt":24.08},{"city":"Aroma Park","state_name":"Illinois","lat":41.06426,"lng":-87.79991,"zip":"60910","miles_from_dt":24.18},{"city":"Chicago","state_name":"Illinois","lat":41.74346,"lng":-87.60532,"zip":"60619","miles_from_dt":24.29},{"city":"Willowbrook","state_name":"Illinois","lat":41.74472,"lng":-87.93383,"zip":"60527","miles_from_dt":24.36},{"city":"Shorewood","state_name":"Illinois","lat":41.50864,"lng":-88.22269,"zip":"60404","miles_from_dt":24.4},{"city":"Gary","state_name":"Indiana","lat":41.54828,"lng":-87.32422,"zip":"46409","miles_from_dt":24.91},{"city":"Hopkins Park","state_name":"Illinois","lat":41.07161,"lng":-87.61734,"zip":"60944","miles_from_dt":24.92},{"city":"Sumava Resorts","state_name":"Indiana","lat":41.15682,"lng":-87.4302,"zip":"46379","miles_from_dt":25.04},{"city":"Chicago","state_name":"Illinois","lat":41.7754,"lng":-87.71239,"zip":"60629","miles_from_dt":25.12},{"city":"Gary","state_name":"Indiana","lat":41.46091,"lng":-87.28537,"zip":"46401","miles_from_dt":25.36},{"city":"Darien","state_name":"Illinois","lat":41.74518,"lng":-87.98174,"zip":"60561","miles_from_dt":25.36},{"city":"Bolingbrook","state_name":"Illinois","lat":41.70125,"lng":-88.07572,"zip":"60440","miles_from_dt":25.39},{"city":"Braidwood","state_name":"Illinois","lat":41.26684,"lng":-88.21733,"zip":"60408","miles_from_dt":25.39},{"city":"Chicago","state_name":"Illinois","lat":41.78175,"lng":-87.77057,"zip":"60638","miles_from_dt":25.39},{"city":"Summit Argo","state_name":"Illinois","lat":41.77979,"lng":-87.82393,"zip":"60501","miles_from_dt":25.41},{"city":"Bedford Park","state_name":"Illinois","lat":41.78232,"lng":-87.76794,"zip":"60499","miles_from_dt":25.42},{"city":"Gary","state_name":"Indiana","lat":41.57844,"lng":-87.33047,"zip":"46407","miles_from_dt":25.46},{"city":"Chicago","state_name":"Illinois","lat":41.77578,"lng":-87.66909,"zip":"60636","miles_from_dt":25.51},{"city":"Pembroke Township","state_name":"Illinois","lat":41.06523,"lng":-87.5916,"zip":"60958","miles_from_dt":25.79},{"city":"Chicago","state_name":"Illinois","lat":41.77624,"lng":-87.63955,"zip":"60621","miles_from_dt":25.9},{"city":"La Grange","state_name":"Illinois","lat":41.78371,"lng":-87.86778,"zip":"60525","miles_from_dt":26.02},{"city":"Chicago","state_name":"Illinois","lat":41.75885,"lng":-87.56368,"zip":"60649","miles_from_dt":26.09},{"city":"Saint Anne","state_name":"Illinois","lat":41.03401,"lng":-87.7418,"zip":"60964","miles_from_dt":26.26},{"city":"Plainfield","state_name":"Illinois","lat":41.57036,"lng":-88.23162,"zip":"60586","miles_from_dt":26.28},{"city":"Leroy","state_name":"Indiana","lat":41.36397,"lng":-87.26721,"zip":"46355","miles_from_dt":26.35},{"city":"Gary","state_name":"Indiana","lat":41.61032,"lng":-87.33297,"zip":"46402","miles_from_dt":26.4},{"city":"Bolingbrook","state_name":"Illinois","lat":41.67575,"lng":-88.14118,"zip":"60490","miles_from_dt":26.41},{"city":"Woodridge","state_name":"Illinois","lat":41.73913,"lng":-88.04161,"zip":"60517","miles_from_dt":26.5},{"city":"Essex","state_name":"Illinois","lat":41.17165,"lng":-88.16853,"zip":"60935","miles_from_dt":26.65},{"city":"Shelby","state_name":"Indiana","lat":41.19432,"lng":-87.34777,"zip":"46377","miles_from_dt":26.68},{"city":"Chicago","state_name":"Illinois","lat":41.78156,"lng":-87.6032,"zip":"60637","miles_from_dt":26.8},{"city":"Plainfield","state_name":"Illinois","lat":41.61393,"lng":-88.21777,"zip":"60544","miles_from_dt":27.03},{"city":"Downers Grove","state_name":"Illinois","lat":41.76327,"lng":-88.01314,"zip":"60516","miles_from_dt":27.21},{"city":"Chicago","state_name":"Illinois","lat":41.81141,"lng":-87.71348,"zip":"60632","miles_from_dt":27.59},{"city":"Western Springs","state_name":"Illinois","lat":41.80207,"lng":-87.90076,"zip":"60558","miles_from_dt":27.63},{"city":"Lyons","state_name":"Illinois","lat":41.81311,"lng":-87.82066,"zip":"60534","miles_from_dt":27.68},{"city":"Lake Village","state_name":"Indiana","lat":41.10899,"lng":-87.42359,"zip":"46349","miles_from_dt":27.71},{"city":"Hinsdale","state_name":"Illinois","lat":41.80019,"lng":-87.92883,"zip":"60521","miles_from_dt":27.9},{"city":"Coal City","state_name":"Illinois","lat":41.29357,"lng":-88.28197,"zip":"60416","miles_from_dt":27.9},{"city":"Thayer","state_name":"Indiana","lat":41.17635,"lng":-87.33436,"zip":"46381","miles_from_dt":27.97},{"city":"Clarendon Hills","state_name":"Illinois","lat":41.79655,"lng":-87.95683,"zip":"60514","miles_from_dt":28.13},{"city":"Chicago","state_name":"Illinois","lat":41.81263,"lng":-87.65559,"zip":"60609","miles_from_dt":28.14},{"city":"Chicago","state_name":"Illinois","lat":41.80226,"lng":-87.60293,"zip":"60615","miles_from_dt":28.16},{"city":"Hobart","state_name":"Indiana","lat":41.51761,"lng":-87.24468,"zip":"46342","miles_from_dt":28.18},{"city":"Westmont","state_name":"Illinois","lat":41.79496,"lng":-87.97464,"zip":"60559","miles_from_dt":28.36},{"city":"Naperville","state_name":"Illinois","lat":41.7297,"lng":-88.12312,"zip":"60565","miles_from_dt":28.46},{"city":"Lake Station","state_name":"Indiana","lat":41.57409,"lng":-87.26285,"zip":"46405","miles_from_dt":28.53},{"city":"Brookfield","state_name":"Illinois","lat":41.82459,"lng":-87.8469,"zip":"60513","miles_from_dt":28.62},{"city":"Braceville","state_name":"Illinois","lat":41.23037,"lng":-88.26415,"zip":"60407","miles_from_dt":28.67},{"city":"Union Hill","state_name":"Illinois","lat":41.11101,"lng":-88.14975,"zip":"60969","miles_from_dt":28.78},{"city":"Berwyn","state_name":"Illinois","lat":41.83237,"lng":-87.78983,"zip":"60402","miles_from_dt":28.9},{"city":"Plainfield","state_name":"Illinois","lat":41.65864,"lng":-88.22339,"zip":"60585","miles_from_dt":28.96},{"city":"Chicago","state_name":"Illinois","lat":41.81924,"lng":-87.61017,"zip":"60653","miles_from_dt":29.17},{"city":"Minooka","state_name":"Illinois","lat":41.48796,"lng":-88.32498,"zip":"60447","miles_from_dt":29.28},{"city":"La Grange Park","state_name":"Illinois","lat":41.83002,"lng":-87.8836,"zip":"60526","miles_from_dt":29.32},{"city":"Chebanse","state_name":"Illinois","lat":41.00394,"lng":-87.92184,"zip":"60922","miles_from_dt":29.38},{"city":"Naperville","state_name":"Illinois","lat":41.74494,"lng":-88.12727,"zip":"60566","miles_from_dt":29.41},{"city":"Cicero","state_name":"Illinois","lat":41.84005,"lng":-87.75925,"zip":"60804","miles_from_dt":29.41},{"city":"Riverside","state_name":"Illinois","lat":41.83834,"lng":-87.82132,"zip":"60546","miles_from_dt":29.41},{"city":"Hebron","state_name":"Indiana","lat":41.30666,"lng":-87.21962,"zip":"46341","miles_from_dt":29.55},{"city":"Gary","state_name":"Indiana","lat":41.60636,"lng":-87.25803,"zip":"46403","miles_from_dt":29.68}],"targetCityZipCode":"60449","targetCityState":"Illinois"},"__N_SSG":true}