{"pageProps":{"stateName":"Illinois","cityName":"newark","nearbyCities":[{"city":"Millington","state_name":"Illinois","lat":41.56158,"lng":-88.60246,"zip":"60537","miles_from_dt":4.94},{"city":"Millbrook","state_name":"Illinois","lat":41.59853,"lng":-88.55212,"zip":"60536","miles_from_dt":5.64},{"city":"Yorkville","state_name":"Illinois","lat":41.60799,"lng":-88.42841,"zip":"60560","miles_from_dt":7.92},{"city":"Sheridan","state_name":"Illinois","lat":41.52463,"lng":-88.68992,"zip":"60551","miles_from_dt":8.53},{"city":"Sandwich","state_name":"Illinois","lat":41.64811,"lng":-88.63471,"zip":"60548","miles_from_dt":10.54},{"city":"Minooka","state_name":"Illinois","lat":41.48796,"lng":-88.32498,"zip":"60447","miles_from_dt":10.63},{"city":"Plano","state_name":"Illinois","lat":41.67815,"lng":-88.53587,"zip":"60545","miles_from_dt":10.98},{"city":"Morris","state_name":"Illinois","lat":41.37011,"lng":-88.43417,"zip":"60450","miles_from_dt":11.34},{"city":"Serena","state_name":"Illinois","lat":41.4908,"lng":-88.74251,"zip":"60549","miles_from_dt":11.43},{"city":"Bristol","state_name":"Illinois","lat":41.70134,"lng":-88.43986,"zip":"60512","miles_from_dt":13.32},{"city":"Seneca","state_name":"Illinois","lat":41.33439,"lng":-88.60522,"zip":"61360","miles_from_dt":13.42},{"city":"Somonauk","state_name":"Illinois","lat":41.66144,"lng":-88.70343,"zip":"60552","miles_from_dt":13.46},{"city":"Wedron","state_name":"Illinois","lat":41.44383,"lng":-88.76654,"zip":"60557","miles_from_dt":13.55},{"city":"Oswego","state_name":"Illinois","lat":41.66537,"lng":-88.32442,"zip":"60543","miles_from_dt":14.5},{"city":"Leland","state_name":"Illinois","lat":41.61563,"lng":-88.78639,"zip":"60531","miles_from_dt":15.07},{"city":"Marseilles","state_name":"Illinois","lat":41.34015,"lng":-88.69246,"zip":"61341","miles_from_dt":15.1},{"city":"Plainfield","state_name":"Illinois","lat":41.57036,"lng":-88.23162,"zip":"60586","miles_from_dt":15.64},{"city":"Shorewood","state_name":"Illinois","lat":41.50864,"lng":-88.22269,"zip":"60404","miles_from_dt":15.73},{"city":"Montgomery","state_name":"Illinois","lat":41.72165,"lng":-88.35637,"zip":"60538","miles_from_dt":16.48},{"city":"Big Rock","state_name":"Illinois","lat":41.75778,"lng":-88.55601,"zip":"60511","miles_from_dt":16.53},{"city":"Joliet","state_name":"Illinois","lat":41.53355,"lng":-88.20568,"zip":"60431","miles_from_dt":16.62},{"city":"Plainfield","state_name":"Illinois","lat":41.61393,"lng":-88.21777,"zip":"60544","miles_from_dt":17.24},{"city":"Channahon","state_name":"Illinois","lat":41.42119,"lng":-88.2171,"zip":"60410","miles_from_dt":17.38},{"city":"Sugar Grove","state_name":"Illinois","lat":41.77852,"lng":-88.45838,"zip":"60554","miles_from_dt":18.22},{"city":"Plainfield","state_name":"Illinois","lat":41.65864,"lng":-88.22339,"zip":"60585","miles_from_dt":18.37},{"city":"Aurora","state_name":"Illinois","lat":41.76176,"lng":-88.37125,"zip":"60506","miles_from_dt":18.54},{"city":"Aurora","state_name":"Illinois","lat":41.7079,"lng":-88.25475,"zip":"60503","miles_from_dt":19.13},{"city":"Hinckley","state_name":"Illinois","lat":41.7826,"lng":-88.65808,"zip":"60520","miles_from_dt":19.42},{"city":"Fox Valley","state_name":"Illinois","lat":41.7721,"lng":-88.3574,"zip":"60599","miles_from_dt":19.5},{"city":"Verona","state_name":"Illinois","lat":41.23174,"lng":-88.52078,"zip":"60479","miles_from_dt":19.85},{"city":"Coal City","state_name":"Illinois","lat":41.29357,"lng":-88.28197,"zip":"60416","miles_from_dt":20.07},{"city":"Aurora","state_name":"Illinois","lat":41.76606,"lng":-88.32002,"zip":"60572","miles_from_dt":20.08},{"city":"Mazon","state_name":"Illinois","lat":41.24246,"lng":-88.40403,"zip":"60444","miles_from_dt":20.12},{"city":"Ottawa","state_name":"Illinois","lat":41.37152,"lng":-88.86157,"zip":"61350","miles_from_dt":20.21},{"city":"Joliet","state_name":"Illinois","lat":41.54492,"lng":-88.1288,"zip":"60435","miles_from_dt":20.65},{"city":"Aurora","state_name":"Illinois","lat":41.76527,"lng":-88.29576,"zip":"60505","miles_from_dt":20.73},{"city":"Joliet","state_name":"Illinois","lat":41.48973,"lng":-88.12392,"zip":"60436","miles_from_dt":20.93},{"city":"Crest Hill","state_name":"Illinois","lat":41.56696,"lng":-88.12438,"zip":"60403","miles_from_dt":21.06},{"city":"Aurora","state_name":"Illinois","lat":41.78532,"lng":-88.31845,"zip":"60507","miles_from_dt":21.26},{"city":"Waterman","state_name":"Illinois","lat":41.76507,"lng":-88.77373,"zip":"60556","miles_from_dt":21.28},{"city":"Earlville","state_name":"Illinois","lat":41.59997,"lng":-88.92215,"zip":"60518","miles_from_dt":21.3},{"city":"Naperville","state_name":"Illinois","lat":41.70901,"lng":-88.19961,"zip":"60564","miles_from_dt":21.36},{"city":"Aurora","state_name":"Illinois","lat":41.74649,"lng":-88.23957,"zip":"60504","miles_from_dt":21.56},{"city":"Kaneville","state_name":"Illinois","lat":41.83507,"lng":-88.51984,"zip":"60144","miles_from_dt":21.79},{"city":"North Aurora","state_name":"Illinois","lat":41.80878,"lng":-88.3489,"zip":"60542","miles_from_dt":21.97},{"city":"Bolingbrook","state_name":"Illinois","lat":41.67575,"lng":-88.14118,"zip":"60490","miles_from_dt":22.65},{"city":"Aurora","state_name":"Illinois","lat":41.77478,"lng":-88.25068,"zip":"60598","miles_from_dt":22.66},{"city":"Aurora","state_name":"Illinois","lat":41.77339,"lng":-88.24738,"zip":"60568","miles_from_dt":22.69},{"city":"Eola","state_name":"Illinois","lat":41.77724,"lng":-88.24255,"zip":"60519","miles_from_dt":23.05},{"city":"Aurora","state_name":"Illinois","lat":41.78911,"lng":-88.25952,"zip":"60502","miles_from_dt":23.16},{"city":"Mooseheart","state_name":"Illinois","lat":41.825,"lng":-88.33529,"zip":"60539","miles_from_dt":23.28},{"city":"Joliet","state_name":"Illinois","lat":41.53929,"lng":-88.07693,"zip":"60434","miles_from_dt":23.3},{"city":"Romeoville","state_name":"Illinois","lat":41.63304,"lng":-88.09855,"zip":"60446","miles_from_dt":23.48},{"city":"Braidwood","state_name":"Illinois","lat":41.26684,"lng":-88.21733,"zip":"60408","miles_from_dt":23.67},{"city":"Elburn","state_name":"Illinois","lat":41.86154,"lng":-88.47702,"zip":"60119","miles_from_dt":23.75},{"city":"Elwood","state_name":"Illinois","lat":41.40851,"lng":-88.08936,"zip":"60421","miles_from_dt":23.9},{"city":"Braceville","state_name":"Illinois","lat":41.23037,"lng":-88.26415,"zip":"60407","miles_from_dt":24.13},{"city":"Grand Ridge","state_name":"Illinois","lat":41.23673,"lng":-88.80973,"zip":"61325","miles_from_dt":24.46},{"city":"Kinsman","state_name":"Illinois","lat":41.16168,"lng":-88.54981,"zip":"60437","miles_from_dt":24.71},{"city":"Batavia","state_name":"Illinois","lat":41.84283,"lng":-88.31189,"zip":"60510","miles_from_dt":24.91},{"city":"Ransom","state_name":"Illinois","lat":41.16592,"lng":-88.63876,"zip":"60470","miles_from_dt":25.09},{"city":"Joliet","state_name":"Illinois","lat":41.49895,"lng":-88.04248,"zip":"60433","miles_from_dt":25.1},{"city":"Lockport","state_name":"Illinois","lat":41.59238,"lng":-88.05106,"zip":"60441","miles_from_dt":25.11},{"city":"Joliet","state_name":"Illinois","lat":41.54087,"lng":-88.0406,"zip":"60432","miles_from_dt":25.19},{"city":"Naperville","state_name":"Illinois","lat":41.7297,"lng":-88.12312,"zip":"60565","miles_from_dt":25.4},{"city":"Shabbona","state_name":"Illinois","lat":41.77708,"lng":-88.87777,"zip":"60550","miles_from_dt":25.47},{"city":"Lafox","state_name":"Illinois","lat":41.88416,"lng":-88.43245,"zip":"60147","miles_from_dt":25.64},{"city":"Triumph","state_name":"Illinois","lat":41.49936,"lng":-89.01986,"zip":"61371","miles_from_dt":25.68},{"city":"Utica","state_name":"Illinois","lat":41.4004,"lng":-88.99456,"zip":"61373","miles_from_dt":25.7},{"city":"Aurora","state_name":"Illinois","lat":41.81211,"lng":-88.21715,"zip":"60569","miles_from_dt":25.75},{"city":"Naperville","state_name":"Illinois","lat":41.74494,"lng":-88.12727,"zip":"60566","miles_from_dt":25.84},{"city":"Naperville","state_name":"Illinois","lat":41.76361,"lng":-88.14476,"zip":"60540","miles_from_dt":25.94},{"city":"Wilmington","state_name":"Illinois","lat":41.28795,"lng":-88.12952,"zip":"60481","miles_from_dt":26.04},{"city":"Gardner","state_name":"Illinois","lat":41.16604,"lng":-88.32941,"zip":"60424","miles_from_dt":26.43},{"city":"Bolingbrook","state_name":"Illinois","lat":41.70125,"lng":-88.07572,"zip":"60440","miles_from_dt":26.47},{"city":"Geneva","state_name":"Illinois","lat":41.8784,"lng":-88.34189,"zip":"60134","miles_from_dt":26.54},{"city":"Naperville","state_name":"Illinois","lat":41.79933,"lng":-88.16884,"zip":"60563","miles_from_dt":26.73},{"city":"Naperville","state_name":"Illinois","lat":41.78382,"lng":-88.1469,"zip":"60567","miles_from_dt":26.78},{"city":"South Wilmington","state_name":"Illinois","lat":41.1765,"lng":-88.26983,"zip":"60474","miles_from_dt":27.14},{"city":"Warrenville","state_name":"Illinois","lat":41.82261,"lng":-88.18854,"zip":"60555","miles_from_dt":27.24},{"city":"Paw Paw","state_name":"Illinois","lat":41.6967,"lng":-88.99623,"zip":"61353","miles_from_dt":27.28},{"city":"Maple Park","state_name":"Illinois","lat":41.9172,"lng":-88.56613,"zip":"60151","miles_from_dt":27.54},{"city":"Dekalb","state_name":"Illinois","lat":41.90109,"lng":-88.75469,"zip":"60115","miles_from_dt":28.89},{"city":"Troy Grove","state_name":"Illinois","lat":41.46582,"lng":-89.08239,"zip":"61372","miles_from_dt":29.13},{"city":"Cortland","state_name":"Illinois","lat":41.92391,"lng":-88.68994,"zip":"60112","miles_from_dt":29.19},{"city":"Woodridge","state_name":"Illinois","lat":41.73913,"lng":-88.04161,"zip":"60517","miles_from_dt":29.29},{"city":"New Lenox","state_name":"Illinois","lat":41.50717,"lng":-87.96088,"zip":"60451","miles_from_dt":29.3},{"city":"Lee","state_name":"Illinois","lat":41.79613,"lng":-88.95988,"zip":"60530","miles_from_dt":29.5},{"city":"Mendota","state_name":"Illinois","lat":41.54089,"lng":-89.0938,"zip":"61342","miles_from_dt":29.51},{"city":"Lisle","state_name":"Illinois","lat":41.79153,"lng":-88.08576,"zip":"60532","miles_from_dt":29.51},{"city":"Wasco","state_name":"Illinois","lat":41.94019,"lng":-88.40908,"zip":"60183","miles_from_dt":29.66},{"city":"Homer Glen","state_name":"Illinois","lat":41.60313,"lng":-87.9595,"zip":"60491","miles_from_dt":29.9},{"city":"La Salle","state_name":"Illinois","lat":41.39368,"lng":-89.07827,"zip":"61301","miles_from_dt":29.98}],"targetCityZipCode":"60541","targetCityState":"Illinois"},"__N_SSG":true}