{"pageProps":{"stateName":"Illinois","cityName":"omaha","nearbyCities":[{"city":"Ridgway","state_name":"Illinois","lat":37.80813,"lng":-88.2365,"zip":"62979","miles_from_dt":4.91},{"city":"Norris City","state_name":"Illinois","lat":37.96608,"lng":-88.28336,"zip":"62869","miles_from_dt":6.31},{"city":"New Haven","state_name":"Illinois","lat":37.90503,"lng":-88.10091,"zip":"62867","miles_from_dt":9.19},{"city":"Eldorado","state_name":"Illinois","lat":37.84379,"lng":-88.44139,"zip":"62930","miles_from_dt":9.89},{"city":"Emma","state_name":"Illinois","lat":37.97361,"lng":-88.12108,"zip":"62834","miles_from_dt":10.36},{"city":"Shawneetown","state_name":"Illinois","lat":37.73152,"lng":-88.14903,"zip":"62984","miles_from_dt":11.8},{"city":"Junction","state_name":"Illinois","lat":37.69462,"lng":-88.27428,"zip":"62954","miles_from_dt":12.5},{"city":"Equality","state_name":"Illinois","lat":37.70876,"lng":-88.36175,"zip":"62934","miles_from_dt":12.67},{"city":"Broughton","state_name":"Illinois","lat":37.9545,"lng":-88.47762,"zip":"62817","miles_from_dt":12.83},{"city":"Dale","state_name":"Illinois","lat":37.99956,"lng":-88.49061,"zip":"62829","miles_from_dt":15},{"city":"Raleigh","state_name":"Illinois","lat":37.85179,"lng":-88.54384,"zip":"62977","miles_from_dt":15.34},{"city":"Carmi","state_name":"Illinois","lat":38.07301,"lng":-88.13357,"zip":"62821","miles_from_dt":15.38},{"city":"Muddy","state_name":"Illinois","lat":37.76753,"lng":-88.5177,"zip":"62965","miles_from_dt":15.71},{"city":"Enfield","state_name":"Illinois","lat":38.10573,"lng":-88.32406,"zip":"62835","miles_from_dt":16.19},{"city":"Maunie","state_name":"Illinois","lat":38.03543,"lng":-88.04569,"zip":"62861","miles_from_dt":16.27},{"city":"Harrisburg","state_name":"Illinois","lat":37.7028,"lng":-88.52887,"zip":"62946","miles_from_dt":18.73},{"city":"Mount Vernon","state_name":"Indiana","lat":37.93284,"lng":-87.90555,"zip":"47620","miles_from_dt":20.03},{"city":"Galatia","state_name":"Illinois","lat":37.84281,"lng":-88.63194,"zip":"62935","miles_from_dt":20.19},{"city":"McLeansboro","state_name":"Illinois","lat":38.07094,"lng":-88.54289,"zip":"62859","miles_from_dt":20.29},{"city":"Uniontown","state_name":"Kentucky","lat":37.78668,"lng":-87.88807,"zip":"42461","miles_from_dt":21.51},{"city":"Springerton","state_name":"Illinois","lat":38.18478,"lng":-88.36871,"zip":"62887","miles_from_dt":22.06},{"city":"Crossville","state_name":"Illinois","lat":38.16573,"lng":-88.04157,"zip":"62827","miles_from_dt":23.43},{"city":"Mill Shoals","state_name":"Illinois","lat":38.2166,"lng":-88.29685,"zip":"62862","miles_from_dt":23.58},{"city":"Herod","state_name":"Illinois","lat":37.55676,"lng":-88.4348,"zip":"62947","miles_from_dt":23.88},{"city":"Morganfield","state_name":"Kentucky","lat":37.66234,"lng":-87.92067,"zip":"42437","miles_from_dt":23.91},{"city":"Elizabethtown","state_name":"Illinois","lat":37.52813,"lng":-88.27953,"zip":"62931","miles_from_dt":23.98},{"city":"Carrier Mills","state_name":"Illinois","lat":37.69752,"lng":-88.64882,"zip":"62917","miles_from_dt":24.34},{"city":"New Harmony","state_name":"Indiana","lat":38.10082,"lng":-87.90967,"zip":"47631","miles_from_dt":24.84},{"city":"Cave In Rock","state_name":"Illinois","lat":37.52057,"lng":-88.14653,"zip":"62919","miles_from_dt":25.34},{"city":"Sturgis","state_name":"Kentucky","lat":37.5637,"lng":-88.01837,"zip":"42459","miles_from_dt":25.41},{"city":"Burnt Prairie","state_name":"Illinois","lat":38.24873,"lng":-88.23561,"zip":"62820","miles_from_dt":25.78},{"city":"Thompsonville","state_name":"Illinois","lat":37.90574,"lng":-88.73944,"zip":"62890","miles_from_dt":26.01},{"city":"Waverly","state_name":"Kentucky","lat":37.74123,"lng":-87.79834,"zip":"42462","miles_from_dt":27.17},{"city":"Smith Mills","state_name":"Kentucky","lat":37.80799,"lng":-87.77136,"zip":"42457","miles_from_dt":27.4},{"city":"Macedonia","state_name":"Illinois","lat":38.04022,"lng":-88.72921,"zip":"62860","miles_from_dt":27.77},{"city":"Stonefort","state_name":"Illinois","lat":37.61114,"lng":-88.65695,"zip":"62987","miles_from_dt":28.17},{"city":"Barnhill","state_name":"Illinois","lat":38.28023,"lng":-88.33756,"zip":"62809","miles_from_dt":28.18},{"city":"Grayville","state_name":"Illinois","lat":38.25525,"lng":-88.05018,"zip":"62844","miles_from_dt":28.68},{"city":"Dahlgren","state_name":"Illinois","lat":38.19536,"lng":-88.60864,"zip":"62828","miles_from_dt":28.94},{"city":"Corydon","state_name":"Kentucky","lat":37.77792,"lng":-87.74496,"zip":"42406","miles_from_dt":29.24},{"city":"Pittsburg","state_name":"Illinois","lat":37.78158,"lng":-88.79094,"zip":"62974","miles_from_dt":29.49},{"city":"Wadesville","state_name":"Indiana","lat":38.06959,"lng":-87.77489,"zip":"47638","miles_from_dt":29.91}],"targetCityZipCode":"62871","targetCityState":"Illinois"},"__N_SSG":true}