{"pageProps":{"stateName":"Illinois","cityName":"somonauk","nearbyCities":[{"city":"Sandwich","state_name":"Illinois","lat":41.64811,"lng":-88.63471,"zip":"60548","miles_from_dt":3.67},{"city":"Leland","state_name":"Illinois","lat":41.61563,"lng":-88.78639,"zip":"60531","miles_from_dt":5.33},{"city":"Waterman","state_name":"Illinois","lat":41.76507,"lng":-88.77373,"zip":"60556","miles_from_dt":8.02},{"city":"Millington","state_name":"Illinois","lat":41.56158,"lng":-88.60246,"zip":"60537","miles_from_dt":8.65},{"city":"Hinckley","state_name":"Illinois","lat":41.7826,"lng":-88.65808,"zip":"60520","miles_from_dt":8.68},{"city":"Plano","state_name":"Illinois","lat":41.67815,"lng":-88.53587,"zip":"60545","miles_from_dt":8.75},{"city":"Millbrook","state_name":"Illinois","lat":41.59853,"lng":-88.55212,"zip":"60536","miles_from_dt":8.96},{"city":"Sheridan","state_name":"Illinois","lat":41.52463,"lng":-88.68992,"zip":"60551","miles_from_dt":9.47},{"city":"Big Rock","state_name":"Illinois","lat":41.75778,"lng":-88.55601,"zip":"60511","miles_from_dt":10.12},{"city":"Serena","state_name":"Illinois","lat":41.4908,"lng":-88.74251,"zip":"60549","miles_from_dt":11.95},{"city":"Shabbona","state_name":"Illinois","lat":41.77708,"lng":-88.87777,"zip":"60550","miles_from_dt":12.04},{"city":"Earlville","state_name":"Illinois","lat":41.59997,"lng":-88.92215,"zip":"60518","miles_from_dt":12.09},{"city":"Newark","state_name":"Illinois","lat":41.5193,"lng":-88.52552,"zip":"60541","miles_from_dt":13.46},{"city":"Bristol","state_name":"Illinois","lat":41.70134,"lng":-88.43986,"zip":"60512","miles_from_dt":13.91},{"city":"Yorkville","state_name":"Illinois","lat":41.60799,"lng":-88.42841,"zip":"60560","miles_from_dt":14.71},{"city":"Sugar Grove","state_name":"Illinois","lat":41.77852,"lng":-88.45838,"zip":"60554","miles_from_dt":15.03},{"city":"Kaneville","state_name":"Illinois","lat":41.83507,"lng":-88.51984,"zip":"60144","miles_from_dt":15.28},{"city":"Paw Paw","state_name":"Illinois","lat":41.6967,"lng":-88.99623,"zip":"61353","miles_from_dt":15.34},{"city":"Wedron","state_name":"Illinois","lat":41.44383,"lng":-88.76654,"zip":"60557","miles_from_dt":15.37},{"city":"Lee","state_name":"Illinois","lat":41.79613,"lng":-88.95988,"zip":"60530","miles_from_dt":16.19},{"city":"Dekalb","state_name":"Illinois","lat":41.90109,"lng":-88.75469,"zip":"60115","miles_from_dt":16.75},{"city":"Elburn","state_name":"Illinois","lat":41.86154,"lng":-88.47702,"zip":"60119","miles_from_dt":18.1},{"city":"Cortland","state_name":"Illinois","lat":41.92391,"lng":-88.68994,"zip":"60112","miles_from_dt":18.13},{"city":"Montgomery","state_name":"Illinois","lat":41.72165,"lng":-88.35637,"zip":"60538","miles_from_dt":18.43},{"city":"Aurora","state_name":"Illinois","lat":41.76176,"lng":-88.37125,"zip":"60506","miles_from_dt":18.52},{"city":"Maple Park","state_name":"Illinois","lat":41.9172,"lng":-88.56613,"zip":"60151","miles_from_dt":19.02},{"city":"Fox Valley","state_name":"Illinois","lat":41.7721,"lng":-88.3574,"zip":"60599","miles_from_dt":19.45},{"city":"Oswego","state_name":"Illinois","lat":41.66537,"lng":-88.32442,"zip":"60543","miles_from_dt":19.62},{"city":"Compton","state_name":"Illinois","lat":41.71202,"lng":-89.08039,"zip":"61318","miles_from_dt":19.81},{"city":"Triumph","state_name":"Illinois","lat":41.49936,"lng":-89.01986,"zip":"61371","miles_from_dt":19.85},{"city":"Steward","state_name":"Illinois","lat":41.82399,"lng":-89.02806,"zip":"60553","miles_from_dt":20.18},{"city":"Malta","state_name":"Illinois","lat":41.92106,"lng":-88.88982,"zip":"60150","miles_from_dt":20.34},{"city":"Lafox","state_name":"Illinois","lat":41.88416,"lng":-88.43245,"zip":"60147","miles_from_dt":20.79},{"city":"North Aurora","state_name":"Illinois","lat":41.80878,"lng":-88.3489,"zip":"60542","miles_from_dt":20.96},{"city":"Aurora","state_name":"Illinois","lat":41.76606,"lng":-88.32002,"zip":"60572","miles_from_dt":21.1},{"city":"Ottawa","state_name":"Illinois","lat":41.37152,"lng":-88.86157,"zip":"61350","miles_from_dt":21.62},{"city":"Aurora","state_name":"Illinois","lat":41.78532,"lng":-88.31845,"zip":"60507","miles_from_dt":21.66},{"city":"Mendota","state_name":"Illinois","lat":41.54089,"lng":-89.0938,"zip":"61342","miles_from_dt":21.87},{"city":"Mooseheart","state_name":"Illinois","lat":41.825,"lng":-88.33529,"zip":"60539","miles_from_dt":22.12},{"city":"Marseilles","state_name":"Illinois","lat":41.34015,"lng":-88.69246,"zip":"61341","miles_from_dt":22.18},{"city":"Aurora","state_name":"Illinois","lat":41.76527,"lng":-88.29576,"zip":"60505","miles_from_dt":22.27},{"city":"Minooka","state_name":"Illinois","lat":41.48796,"lng":-88.32498,"zip":"60447","miles_from_dt":22.98},{"city":"Creston","state_name":"Illinois","lat":41.93142,"lng":-88.96421,"zip":"60113","miles_from_dt":22.99},{"city":"Seneca","state_name":"Illinois","lat":41.33439,"lng":-88.60522,"zip":"61360","miles_from_dt":23.14},{"city":"Aurora","state_name":"Illinois","lat":41.7079,"lng":-88.25475,"zip":"60503","miles_from_dt":23.43},{"city":"Utica","state_name":"Illinois","lat":41.4004,"lng":-88.99456,"zip":"61373","miles_from_dt":23.5},{"city":"Batavia","state_name":"Illinois","lat":41.84283,"lng":-88.31189,"zip":"60510","miles_from_dt":23.79},{"city":"Troy Grove","state_name":"Illinois","lat":41.46582,"lng":-89.08239,"zip":"61372","miles_from_dt":23.83},{"city":"Sycamore","state_name":"Illinois","lat":42.00625,"lng":-88.67205,"zip":"60178","miles_from_dt":23.85},{"city":"West Brooklyn","state_name":"Illinois","lat":41.72614,"lng":-89.158,"zip":"61378","miles_from_dt":23.93},{"city":"Geneva","state_name":"Illinois","lat":41.8784,"lng":-88.34189,"zip":"60134","miles_from_dt":23.94},{"city":"Morris","state_name":"Illinois","lat":41.37011,"lng":-88.43417,"zip":"60450","miles_from_dt":24.48},{"city":"Wasco","state_name":"Illinois","lat":41.94019,"lng":-88.40908,"zip":"60183","miles_from_dt":24.52},{"city":"Aurora","state_name":"Illinois","lat":41.78911,"lng":-88.25952,"zip":"60502","miles_from_dt":24.58},{"city":"Aurora","state_name":"Illinois","lat":41.77478,"lng":-88.25068,"zip":"60598","miles_from_dt":24.68},{"city":"Aurora","state_name":"Illinois","lat":41.74649,"lng":-88.23957,"zip":"60504","miles_from_dt":24.7},{"city":"Clare","state_name":"Illinois","lat":42.00721,"lng":-88.83114,"zip":"60111","miles_from_dt":24.76},{"city":"Aurora","state_name":"Illinois","lat":41.77339,"lng":-88.24738,"zip":"60568","miles_from_dt":24.81},{"city":"Plainfield","state_name":"Illinois","lat":41.65864,"lng":-88.22339,"zip":"60585","miles_from_dt":24.84},{"city":"Eola","state_name":"Illinois","lat":41.77724,"lng":-88.24255,"zip":"60519","miles_from_dt":25.13},{"city":"Plainfield","state_name":"Illinois","lat":41.57036,"lng":-88.23162,"zip":"60586","miles_from_dt":25.23},{"city":"Plainfield","state_name":"Illinois","lat":41.61393,"lng":-88.21777,"zip":"60544","miles_from_dt":25.36},{"city":"Saint Charles","state_name":"Illinois","lat":41.94695,"lng":-88.3913,"zip":"60175","miles_from_dt":25.46},{"city":"Naperville","state_name":"Illinois","lat":41.70901,"lng":-88.19961,"zip":"60564","miles_from_dt":26.27},{"city":"La Salle","state_name":"Illinois","lat":41.39368,"lng":-89.07827,"zip":"61301","miles_from_dt":26.82},{"city":"Shorewood","state_name":"Illinois","lat":41.50864,"lng":-88.22269,"zip":"60404","miles_from_dt":27.05},{"city":"Aurora","state_name":"Illinois","lat":41.81211,"lng":-88.21715,"zip":"60569","miles_from_dt":27.2},{"city":"Joliet","state_name":"Illinois","lat":41.53355,"lng":-88.20568,"zip":"60431","miles_from_dt":27.25},{"city":"Rochelle","state_name":"Illinois","lat":41.94928,"lng":-89.0652,"zip":"61068","miles_from_dt":27.27},{"city":"Burlington","state_name":"Illinois","lat":42.04448,"lng":-88.56261,"zip":"60109","miles_from_dt":27.42},{"city":"Saint Charles","state_name":"Illinois","lat":41.92759,"lng":-88.29906,"zip":"60174","miles_from_dt":27.81},{"city":"Esmond","state_name":"Illinois","lat":42.02963,"lng":-88.95371,"zip":"60129","miles_from_dt":28.5},{"city":"Warrenville","state_name":"Illinois","lat":41.82261,"lng":-88.18854,"zip":"60555","miles_from_dt":28.84},{"city":"Sublette","state_name":"Illinois","lat":41.62611,"lng":-89.26221,"zip":"61367","miles_from_dt":29.03},{"city":"Bolingbrook","state_name":"Illinois","lat":41.67575,"lng":-88.14118,"zip":"60490","miles_from_dt":29.11},{"city":"Naperville","state_name":"Illinois","lat":41.79933,"lng":-88.16884,"zip":"60563","miles_from_dt":29.23},{"city":"Ashton","state_name":"Illinois","lat":41.86078,"lng":-89.20836,"zip":"61006","miles_from_dt":29.5},{"city":"Elgin","state_name":"Illinois","lat":42.02621,"lng":-88.39691,"zip":"60124","miles_from_dt":29.73},{"city":"Naperville","state_name":"Illinois","lat":41.76361,"lng":-88.14476,"zip":"60540","miles_from_dt":29.74},{"city":"Grand Ridge","state_name":"Illinois","lat":41.23673,"lng":-88.80973,"zip":"61325","miles_from_dt":29.82},{"city":"West Chicago","state_name":"Illinois","lat":41.89308,"lng":-88.21498,"zip":"60185","miles_from_dt":29.87},{"city":"West Chicago","state_name":"Illinois","lat":41.88491,"lng":-88.20651,"zip":"60186","miles_from_dt":29.95},{"city":"Naperville","state_name":"Illinois","lat":41.78382,"lng":-88.1469,"zip":"60567","miles_from_dt":29.99}],"targetCityZipCode":"60552","targetCityState":"Illinois"},"__N_SSG":true}