{"pageProps":{"stateName":"Illinois","cityName":"spring-valley","nearbyCities":[{"city":"Ladd","state_name":"Illinois","lat":41.37709,"lng":-89.20791,"zip":"61329","miles_from_dt":2.06},{"city":"Seatonville","state_name":"Illinois","lat":41.36341,"lng":-89.26962,"zip":"61359","miles_from_dt":2.31},{"city":"Dalzell","state_name":"Illinois","lat":41.3553,"lng":-89.17047,"zip":"61320","miles_from_dt":3.01},{"city":"Depue","state_name":"Illinois","lat":41.3185,"lng":-89.30566,"zip":"61322","miles_from_dt":4.62},{"city":"Peru","state_name":"Illinois","lat":41.33158,"lng":-89.14281,"zip":"61354","miles_from_dt":4.65},{"city":"Cherry","state_name":"Illinois","lat":41.43201,"lng":-89.20813,"zip":"61317","miles_from_dt":5.66},{"city":"Arlington","state_name":"Illinois","lat":41.43403,"lng":-89.22544,"zip":"61312","miles_from_dt":5.71},{"city":"Mark","state_name":"Illinois","lat":41.26396,"lng":-89.25123,"zip":"61340","miles_from_dt":6.15},{"city":"Granville","state_name":"Illinois","lat":41.25276,"lng":-89.22083,"zip":"61326","miles_from_dt":6.82},{"city":"Standard","state_name":"Illinois","lat":41.25425,"lng":-89.18248,"zip":"61363","miles_from_dt":7.11},{"city":"Malden","state_name":"Illinois","lat":41.43827,"lng":-89.3171,"zip":"61337","miles_from_dt":7.57},{"city":"La Salle","state_name":"Illinois","lat":41.39368,"lng":-89.07827,"zip":"61301","miles_from_dt":8.32},{"city":"Bureau","state_name":"Illinois","lat":41.2865,"lng":-89.36477,"zip":"61315","miles_from_dt":8.4},{"city":"Cedar Point","state_name":"Illinois","lat":41.25718,"lng":-89.12538,"zip":"61316","miles_from_dt":8.42},{"city":"Hennepin","state_name":"Illinois","lat":41.22827,"lng":-89.30876,"zip":"61327","miles_from_dt":9.47},{"city":"Dover","state_name":"Illinois","lat":41.43544,"lng":-89.39605,"zip":"61323","miles_from_dt":10.48},{"city":"Troy Grove","state_name":"Illinois","lat":41.46582,"lng":-89.08239,"zip":"61372","miles_from_dt":10.94},{"city":"Princeton","state_name":"Illinois","lat":41.38914,"lng":-89.43406,"zip":"61356","miles_from_dt":11.01},{"city":"Oglesby","state_name":"Illinois","lat":41.2812,"lng":-89.03685,"zip":"61348","miles_from_dt":11.07},{"city":"Utica","state_name":"Illinois","lat":41.4004,"lng":-88.99456,"zip":"61373","miles_from_dt":12.61},{"city":"La Moille","state_name":"Illinois","lat":41.53602,"lng":-89.27756,"zip":"61330","miles_from_dt":13},{"city":"McNabb","state_name":"Illinois","lat":41.16141,"lng":-89.23228,"zip":"61335","miles_from_dt":13.11},{"city":"Tonica","state_name":"Illinois","lat":41.20854,"lng":-89.03476,"zip":"61370","miles_from_dt":14.09},{"city":"Putnam","state_name":"Illinois","lat":41.18581,"lng":-89.40077,"zip":"61560","miles_from_dt":14.54},{"city":"Mendota","state_name":"Illinois","lat":41.54089,"lng":-89.0938,"zip":"61342","miles_from_dt":14.82},{"city":"Triumph","state_name":"Illinois","lat":41.49936,"lng":-89.01986,"zip":"61371","miles_from_dt":14.88},{"city":"Van Orin","state_name":"Illinois","lat":41.5473,"lng":-89.35759,"zip":"61374","miles_from_dt":15.1},{"city":"Lostant","state_name":"Illinois","lat":41.14731,"lng":-89.09935,"zip":"61334","miles_from_dt":15.6},{"city":"Kasbeer","state_name":"Illinois","lat":41.50924,"lng":-89.459,"zip":"61328","miles_from_dt":16.2},{"city":"Tiskilwa","state_name":"Illinois","lat":41.26113,"lng":-89.51981,"zip":"61368","miles_from_dt":16.4},{"city":"Magnolia","state_name":"Illinois","lat":41.1073,"lng":-89.21727,"zip":"61336","miles_from_dt":16.85},{"city":"Leonore","state_name":"Illinois","lat":41.18884,"lng":-88.98456,"zip":"61332","miles_from_dt":16.93},{"city":"Ohio","state_name":"Illinois","lat":41.55295,"lng":-89.44192,"zip":"61349","miles_from_dt":17.79},{"city":"Sublette","state_name":"Illinois","lat":41.62611,"lng":-89.26221,"zip":"61367","miles_from_dt":19.04},{"city":"Ottawa","state_name":"Illinois","lat":41.37152,"lng":-88.86157,"zip":"61350","miles_from_dt":19.11},{"city":"Wyanet","state_name":"Illinois","lat":41.38144,"lng":-89.61077,"zip":"61379","miles_from_dt":20},{"city":"Henry","state_name":"Illinois","lat":41.11607,"lng":-89.47035,"zip":"61537","miles_from_dt":20.56},{"city":"Varna","state_name":"Illinois","lat":41.03254,"lng":-89.24688,"zip":"61375","miles_from_dt":22.02},{"city":"Wenona","state_name":"Illinois","lat":41.05847,"lng":-89.04444,"zip":"61377","miles_from_dt":22.37},{"city":"Grand Ridge","state_name":"Illinois","lat":41.23673,"lng":-88.80973,"zip":"61325","miles_from_dt":23.17},{"city":"Earlville","state_name":"Illinois","lat":41.59997,"lng":-88.92215,"zip":"60518","miles_from_dt":23.38},{"city":"Buda","state_name":"Illinois","lat":41.29745,"lng":-89.67474,"zip":"61314","miles_from_dt":23.53},{"city":"Walnut","state_name":"Illinois","lat":41.54065,"lng":-89.60726,"zip":"61376","miles_from_dt":23.62},{"city":"Lacon","state_name":"Illinois","lat":41.01856,"lng":-89.36867,"zip":"61540","miles_from_dt":24.11},{"city":"Manlius","state_name":"Illinois","lat":41.47014,"lng":-89.66517,"zip":"61338","miles_from_dt":24.14},{"city":"Amboy","state_name":"Illinois","lat":41.69815,"lng":-89.34769,"zip":"61310","miles_from_dt":24.72},{"city":"Wedron","state_name":"Illinois","lat":41.44383,"lng":-88.76654,"zip":"60557","miles_from_dt":24.82},{"city":"Streator","state_name":"Illinois","lat":41.12822,"lng":-88.85097,"zip":"61364","miles_from_dt":24.96},{"city":"Bradford","state_name":"Illinois","lat":41.1792,"lng":-89.65083,"zip":"61421","miles_from_dt":25.01},{"city":"La Rose","state_name":"Illinois","lat":40.98039,"lng":-89.23497,"zip":"61541","miles_from_dt":25.6},{"city":"Toluca","state_name":"Illinois","lat":40.9827,"lng":-89.15397,"zip":"61369","miles_from_dt":25.73},{"city":"Compton","state_name":"Illinois","lat":41.71202,"lng":-89.08039,"zip":"61318","miles_from_dt":26.04},{"city":"West Brooklyn","state_name":"Illinois","lat":41.72614,"lng":-89.158,"zip":"61378","miles_from_dt":26.12},{"city":"Sparland","state_name":"Illinois","lat":41.032,"lng":-89.50718,"zip":"61565","miles_from_dt":26.41},{"city":"Paw Paw","state_name":"Illinois","lat":41.6967,"lng":-88.99623,"zip":"61353","miles_from_dt":26.7},{"city":"Serena","state_name":"Illinois","lat":41.4908,"lng":-88.74251,"zip":"60549","miles_from_dt":27},{"city":"Rutland","state_name":"Illinois","lat":40.98166,"lng":-89.04299,"zip":"61358","miles_from_dt":27.28},{"city":"Lee Center","state_name":"Illinois","lat":41.74771,"lng":-89.27754,"zip":"61331","miles_from_dt":27.47},{"city":"New Bedford","state_name":"Illinois","lat":41.50659,"lng":-89.7199,"zip":"61346","miles_from_dt":27.69},{"city":"Marseilles","state_name":"Illinois","lat":41.34015,"lng":-88.69246,"zip":"61341","miles_from_dt":27.87},{"city":"Sheffield","state_name":"Illinois","lat":41.40913,"lng":-89.76778,"zip":"61361","miles_from_dt":28.33},{"city":"Camp Grove","state_name":"Illinois","lat":41.07671,"lng":-89.63513,"zip":"61424","miles_from_dt":28.44},{"city":"Ancona","state_name":"Illinois","lat":41.04018,"lng":-88.86219,"zip":"61311","miles_from_dt":28.73},{"city":"Harmon","state_name":"Illinois","lat":41.68819,"lng":-89.56015,"zip":"61042","miles_from_dt":28.93},{"city":"Leland","state_name":"Illinois","lat":41.61563,"lng":-88.78639,"zip":"60531","miles_from_dt":29.3},{"city":"Dana","state_name":"Illinois","lat":40.96754,"lng":-88.97621,"zip":"61321","miles_from_dt":29.57},{"city":"Neponset","state_name":"Illinois","lat":41.27981,"lng":-89.78878,"zip":"61345","miles_from_dt":29.58},{"city":"Castleton","state_name":"Illinois","lat":41.11964,"lng":-89.70601,"zip":"61426","miles_from_dt":29.59},{"city":"Deer Grove","state_name":"Illinois","lat":41.61849,"lng":-89.6784,"zip":"61243","miles_from_dt":29.76}],"targetCityZipCode":"61362","targetCityState":"Illinois"},"__N_SSG":true}