{"pageProps":{"stateName":"Illinois","cityName":"staunton","nearbyCities":[{"city":"Livingston","state_name":"Illinois","lat":38.96793,"lng":-89.76491,"zip":"62058","miles_from_dt":3.58},{"city":"Sawyerville","state_name":"Illinois","lat":39.07839,"lng":-89.80308,"zip":"62085","miles_from_dt":4.51},{"city":"Wilsonville","state_name":"Illinois","lat":39.06858,"lng":-89.84573,"zip":"62093","miles_from_dt":4.61},{"city":"Benld","state_name":"Illinois","lat":39.09351,"lng":-89.79856,"zip":"62009","miles_from_dt":5.54},{"city":"Mount Olive","state_name":"Illinois","lat":39.08892,"lng":-89.74044,"zip":"62069","miles_from_dt":6.06},{"city":"Worden","state_name":"Illinois","lat":38.93719,"lng":-89.85507,"zip":"62097","miles_from_dt":6.09},{"city":"Eagarville","state_name":"Illinois","lat":39.10794,"lng":-89.78278,"zip":"62023","miles_from_dt":6.59},{"city":"New Douglas","state_name":"Illinois","lat":38.95594,"lng":-89.68338,"zip":"62074","miles_from_dt":7.31},{"city":"Bunker Hill","state_name":"Illinois","lat":39.04313,"lng":-89.94999,"zip":"62014","miles_from_dt":8.45},{"city":"Gillespie","state_name":"Illinois","lat":39.13561,"lng":-89.84447,"zip":"62033","miles_from_dt":8.81},{"city":"Hamel","state_name":"Illinois","lat":38.88935,"lng":-89.84397,"zip":"62046","miles_from_dt":8.9},{"city":"Alhambra","state_name":"Illinois","lat":38.87971,"lng":-89.74562,"zip":"62001","miles_from_dt":9.62},{"city":"Dorsey","state_name":"Illinois","lat":38.97797,"lng":-89.981,"zip":"62021","miles_from_dt":10.16},{"city":"Walshville","state_name":"Illinois","lat":39.05594,"lng":-89.61222,"zip":"62091","miles_from_dt":10.4},{"city":"Sorento","state_name":"Illinois","lat":38.98302,"lng":-89.58556,"zip":"62086","miles_from_dt":11.6},{"city":"Moro","state_name":"Illinois","lat":38.92961,"lng":-89.98837,"zip":"62067","miles_from_dt":11.78},{"city":"Litchfield","state_name":"Illinois","lat":39.1765,"lng":-89.67165,"zip":"62056","miles_from_dt":13.15},{"city":"Shipman","state_name":"Illinois","lat":39.14209,"lng":-89.99689,"zip":"62685","miles_from_dt":13.92},{"city":"Edwardsville","state_name":"Illinois","lat":38.83004,"lng":-89.93298,"zip":"62025","miles_from_dt":14.59},{"city":"Bethalto","state_name":"Illinois","lat":38.91944,"lng":-90.04789,"zip":"62010","miles_from_dt":14.95},{"city":"Panama","state_name":"Illinois","lat":39.03133,"lng":-89.51605,"zip":"62077","miles_from_dt":15.2},{"city":"Marine","state_name":"Illinois","lat":38.79077,"lng":-89.77624,"zip":"62061","miles_from_dt":15.39},{"city":"Cottage Hills","state_name":"Illinois","lat":38.90847,"lng":-90.08574,"zip":"62018","miles_from_dt":17.11},{"city":"East Alton","state_name":"Illinois","lat":38.88343,"lng":-90.08879,"zip":"62024","miles_from_dt":18.06},{"city":"Wood River","state_name":"Illinois","lat":38.86307,"lng":-90.07545,"zip":"62095","miles_from_dt":18.2},{"city":"Taylor Springs","state_name":"Illinois","lat":39.12111,"lng":-89.48673,"zip":"62089","miles_from_dt":18.3},{"city":"Alton","state_name":"Illinois","lat":38.93988,"lng":-90.12829,"zip":"62002","miles_from_dt":18.51},{"city":"Hillsboro","state_name":"Illinois","lat":39.1295,"lng":-89.48572,"zip":"62049","miles_from_dt":18.59},{"city":"Donnellson","state_name":"Illinois","lat":39.01598,"lng":-89.45195,"zip":"62019","miles_from_dt":18.6},{"city":"Roxana","state_name":"Illinois","lat":38.84082,"lng":-90.06365,"zip":"62084","miles_from_dt":18.62},{"city":"Edwardsville","state_name":"Illinois","lat":38.79062,"lng":-90.00394,"zip":"62026","miles_from_dt":18.96},{"city":"Piasa","state_name":"Illinois","lat":39.11457,"lng":-90.12642,"zip":"62079","miles_from_dt":19.01},{"city":"Brighton","state_name":"Illinois","lat":39.04225,"lng":-90.15027,"zip":"62012","miles_from_dt":19.08},{"city":"Highland","state_name":"Illinois","lat":38.75469,"lng":-89.66436,"zip":"62249","miles_from_dt":19.22},{"city":"Carlinville","state_name":"Illinois","lat":39.28459,"lng":-89.88362,"zip":"62626","miles_from_dt":19.28},{"city":"Pocahontas","state_name":"Illinois","lat":38.81507,"lng":-89.54496,"zip":"62275","miles_from_dt":19.29},{"city":"Pierron","state_name":"Illinois","lat":38.78673,"lng":-89.58389,"zip":"62273","miles_from_dt":19.41},{"city":"Butler","state_name":"Illinois","lat":39.22011,"lng":-89.54203,"zip":"62015","miles_from_dt":19.81},{"city":"South Roxana","state_name":"Illinois","lat":38.81754,"lng":-90.06767,"zip":"62087","miles_from_dt":19.85},{"city":"Glen Carbon","state_name":"Illinois","lat":38.75639,"lng":-89.96897,"zip":"62034","miles_from_dt":19.98},{"city":"Saint Jacob","state_name":"Illinois","lat":38.70405,"lng":-89.78288,"zip":"62281","miles_from_dt":21.34},{"city":"Maryville","state_name":"Illinois","lat":38.72719,"lng":-89.96253,"zip":"62062","miles_from_dt":21.64},{"city":"Troy","state_name":"Illinois","lat":38.70374,"lng":-89.87242,"zip":"62294","miles_from_dt":21.72},{"city":"Greenville","state_name":"Illinois","lat":38.88834,"lng":-89.42533,"zip":"62246","miles_from_dt":21.83},{"city":"Fidelity","state_name":"Illinois","lat":39.15463,"lng":-90.16445,"zip":"62030","miles_from_dt":22},{"city":"Raymond","state_name":"Illinois","lat":39.3005,"lng":-89.60377,"zip":"62560","miles_from_dt":22.39},{"city":"Medora","state_name":"Illinois","lat":39.1982,"lng":-90.14836,"zip":"62063","miles_from_dt":22.76},{"city":"Chesterfield","state_name":"Illinois","lat":39.26255,"lng":-90.08315,"zip":"62630","miles_from_dt":23.05},{"city":"Coffeen","state_name":"Illinois","lat":39.06597,"lng":-89.36945,"zip":"62017","miles_from_dt":23.32},{"city":"Godfrey","state_name":"Illinois","lat":38.96375,"lng":-90.23917,"zip":"62035","miles_from_dt":24.01},{"city":"Waggoner","state_name":"Illinois","lat":39.35908,"lng":-89.69778,"zip":"62572","miles_from_dt":24.46},{"city":"West Alton","state_name":"Missouri","lat":38.87104,"lng":-90.22009,"zip":"63386","miles_from_dt":24.78},{"city":"Hartford","state_name":"Illinois","lat":38.77004,"lng":-90.13895,"zip":"62048","miles_from_dt":24.9},{"city":"Collinsville","state_name":"Illinois","lat":38.68214,"lng":-89.9815,"zip":"62234","miles_from_dt":24.9},{"city":"Irving","state_name":"Illinois","lat":39.20309,"lng":-89.40244,"zip":"62051","miles_from_dt":24.96},{"city":"Saint Louis","state_name":"Missouri","lat":38.79904,"lng":-90.1822,"zip":"63138","miles_from_dt":25.45},{"city":"Granite City","state_name":"Illinois","lat":38.71592,"lng":-90.10078,"zip":"62040","miles_from_dt":26.22},{"city":"Nilwood","state_name":"Illinois","lat":39.39802,"lng":-89.80444,"zip":"62672","miles_from_dt":26.55},{"city":"Trenton","state_name":"Illinois","lat":38.61838,"lng":-89.69748,"zip":"62293","miles_from_dt":27.76},{"city":"Lebanon","state_name":"Illinois","lat":38.6098,"lng":-89.81901,"zip":"62254","miles_from_dt":27.85},{"city":"Harvel","state_name":"Illinois","lat":39.35631,"lng":-89.52051,"zip":"62538","miles_from_dt":27.96},{"city":"Smithboro","state_name":"Illinois","lat":38.86867,"lng":-89.31107,"zip":"62284","miles_from_dt":28.04},{"city":"Hettick","state_name":"Illinois","lat":39.36451,"lng":-90.0664,"zip":"62649","miles_from_dt":28.21},{"city":"Fillmore","state_name":"Illinois","lat":39.1158,"lng":-89.28833,"zip":"62032","miles_from_dt":28.29},{"city":"Caseyville","state_name":"Illinois","lat":38.63266,"lng":-90.00509,"zip":"62232","miles_from_dt":28.54},{"city":"Dow","state_name":"Illinois","lat":39.00139,"lng":-90.32972,"zip":"62022","miles_from_dt":28.65},{"city":"Aviston","state_name":"Illinois","lat":38.62559,"lng":-89.60313,"zip":"62216","miles_from_dt":28.72},{"city":"Florissant","state_name":"Missouri","lat":38.84795,"lng":-90.28692,"zip":"63034","miles_from_dt":28.72},{"city":"Summerfield","state_name":"Illinois","lat":38.59788,"lng":-89.75096,"zip":"62289","miles_from_dt":28.76},{"city":"Saint Louis","state_name":"Missouri","lat":38.74974,"lng":-90.21297,"zip":"63137","miles_from_dt":28.84},{"city":"Girard","state_name":"Illinois","lat":39.43183,"lng":-89.80746,"zip":"62640","miles_from_dt":28.89},{"city":"Jerseyville","state_name":"Illinois","lat":39.11179,"lng":-90.32004,"zip":"62052","miles_from_dt":28.91},{"city":"Witt","state_name":"Illinois","lat":39.2441,"lng":-89.34871,"zip":"62094","miles_from_dt":28.91},{"city":"Mulberry Grove","state_name":"Illinois","lat":38.9371,"lng":-89.26916,"zip":"62262","miles_from_dt":28.94},{"city":"Rockbridge","state_name":"Illinois","lat":39.26262,"lng":-90.23452,"zip":"62081","miles_from_dt":29.1},{"city":"O'Fallon","state_name":"Illinois","lat":38.59844,"lng":-89.91294,"zip":"62269","miles_from_dt":29.28},{"city":"Breese","state_name":"Illinois","lat":38.63855,"lng":-89.52742,"zip":"62230","miles_from_dt":29.67},{"city":"Madison","state_name":"Illinois","lat":38.67664,"lng":-90.14686,"zip":"62060","miles_from_dt":29.9},{"city":"Florissant","state_name":"Missouri","lat":38.7958,"lng":-90.27786,"zip":"63033","miles_from_dt":29.91}],"targetCityZipCode":"62088","targetCityState":"Illinois"},"__N_SSG":true}