{"pageProps":{"stateName":"New-york","cityName":"almond","nearbyCities":[{"city":"Alfred","state_name":"New York","lat":42.2537,"lng":-77.78989,"zip":"14802","miles_from_dt":5.21},{"city":"Alfred Station","state_name":"New York","lat":42.25135,"lng":-77.78808,"zip":"14803","miles_from_dt":5.4},{"city":"Angelica","state_name":"New York","lat":42.35279,"lng":-77.98267,"zip":"14709","miles_from_dt":7.37},{"city":"Canaseraga","state_name":"New York","lat":42.43522,"lng":-77.84702,"zip":"14822","miles_from_dt":8.24},{"city":"Belmont","state_name":"New York","lat":42.24638,"lng":-77.99209,"zip":"14813","miles_from_dt":8.82},{"city":"Arkport","state_name":"New York","lat":42.41821,"lng":-77.71949,"zip":"14807","miles_from_dt":9.64},{"city":"Hornell","state_name":"New York","lat":42.32819,"lng":-77.64371,"zip":"14843","miles_from_dt":10.48},{"city":"Swain","state_name":"New York","lat":42.47613,"lng":-77.88724,"zip":"14884","miles_from_dt":11.25},{"city":"Andover","state_name":"New York","lat":42.15543,"lng":-77.78662,"zip":"14806","miles_from_dt":11.51},{"city":"Scio","state_name":"New York","lat":42.17363,"lng":-77.97334,"zip":"14880","miles_from_dt":11.75},{"city":"Dalton","state_name":"New York","lat":42.51526,"lng":-77.91526,"zip":"14836","miles_from_dt":14.19},{"city":"Belfast","state_name":"New York","lat":42.32088,"lng":-78.12625,"zip":"14711","miles_from_dt":14.28},{"city":"Canisteo","state_name":"New York","lat":42.23984,"lng":-77.5722,"zip":"14823","miles_from_dt":15.06},{"city":"Fillmore","state_name":"New York","lat":42.45027,"lng":-78.09681,"zip":"14735","miles_from_dt":15.77},{"city":"Greenwood","state_name":"New York","lat":42.13961,"lng":-77.64331,"zip":"14839","miles_from_dt":16.06},{"city":"Hunt","state_name":"New York","lat":42.5301,"lng":-78.00319,"zip":"14846","miles_from_dt":16.79},{"city":"Wellsville","state_name":"New York","lat":42.07772,"lng":-77.93387,"zip":"14895","miles_from_dt":17.02},{"city":"Caneadea","state_name":"New York","lat":42.36258,"lng":-78.18235,"zip":"14717","miles_from_dt":17.44},{"city":"Friendship","state_name":"New York","lat":42.1925,"lng":-78.14932,"zip":"14739","miles_from_dt":17.66},{"city":"Hume","state_name":"New York","lat":42.471,"lng":-78.13772,"zip":"14745","miles_from_dt":18.3},{"city":"Perkinsville","state_name":"New York","lat":42.53748,"lng":-77.64418,"zip":"14529","miles_from_dt":18.5},{"city":"Dansville","state_name":"New York","lat":42.57072,"lng":-77.73435,"zip":"14437","miles_from_dt":18.52},{"city":"Nunda","state_name":"New York","lat":42.59217,"lng":-77.8971,"zip":"14517","miles_from_dt":19.24},{"city":"Rexville","state_name":"New York","lat":42.06181,"lng":-77.68384,"zip":"14877","miles_from_dt":19.45},{"city":"Allentown","state_name":"New York","lat":42.08256,"lng":-78.06196,"zip":"14707","miles_from_dt":19.5},{"city":"Portageville","state_name":"New York","lat":42.53958,"lng":-78.08358,"zip":"14536","miles_from_dt":19.6},{"city":"Black Creek","state_name":"New York","lat":42.28368,"lng":-78.23493,"zip":"14714","miles_from_dt":19.97},{"city":"Whitesville","state_name":"New York","lat":42.02949,"lng":-77.79076,"zip":"14897","miles_from_dt":19.98},{"city":"Houghton","state_name":"New York","lat":42.4219,"lng":-78.21516,"zip":"14744","miles_from_dt":20.19},{"city":"Jasper","state_name":"New York","lat":42.13978,"lng":-77.50112,"zip":"14855","miles_from_dt":21.53},{"city":"Rushford","state_name":"New York","lat":42.38999,"lng":-78.26167,"zip":"14777","miles_from_dt":21.81},{"city":"Cohocton","state_name":"New York","lat":42.49354,"lng":-77.49335,"zip":"14826","miles_from_dt":21.88},{"city":"Avoca","state_name":"New York","lat":42.41961,"lng":-77.44355,"zip":"14809","miles_from_dt":21.89},{"city":"Richburg","state_name":"New York","lat":42.08875,"lng":-78.14658,"zip":"14774","miles_from_dt":21.93},{"city":"Cameron","state_name":"New York","lat":42.21924,"lng":-77.43466,"zip":"14819","miles_from_dt":22.2},{"city":"Wayland","state_name":"New York","lat":42.5669,"lng":-77.57017,"zip":"14572","miles_from_dt":22.39},{"city":"Pike","state_name":"New York","lat":42.55318,"lng":-78.14959,"zip":"14130","miles_from_dt":22.51},{"city":"Bolivar","state_name":"New York","lat":42.07323,"lng":-78.14832,"zip":"14715","miles_from_dt":22.77},{"city":"Genesee","state_name":"Pennsylvania","lat":41.98841,"lng":-77.75796,"zip":"16941","miles_from_dt":23.07},{"city":"Troupsburg","state_name":"New York","lat":42.048,"lng":-77.57117,"zip":"14885","miles_from_dt":23.31},{"city":"Castile","state_name":"New York","lat":42.61828,"lng":-78.05442,"zip":"14427","miles_from_dt":23.4},{"city":"West Clarksville","state_name":"New York","lat":42.12521,"lng":-78.22988,"zip":"14786","miles_from_dt":23.62},{"city":"Alma","state_name":"New York","lat":42.01424,"lng":-78.06988,"zip":"14708","miles_from_dt":23.74},{"city":"Centerville","state_name":"New York","lat":42.47293,"lng":-78.26346,"zip":"14029","miles_from_dt":23.88},{"city":"Cuba","state_name":"New York","lat":42.2129,"lng":-78.29358,"zip":"14727","miles_from_dt":23.94},{"city":"Kanona","state_name":"New York","lat":42.37737,"lng":-77.36944,"zip":"14856","miles_from_dt":24.85},{"city":"Scottsburg","state_name":"New York","lat":42.66166,"lng":-77.71056,"zip":"14545","miles_from_dt":24.87},{"city":"Sonyea","state_name":"New York","lat":42.67906,"lng":-77.83222,"zip":"14556","miles_from_dt":25.08},{"city":"Farmersville Station","state_name":"New York","lat":42.43986,"lng":-78.30884,"zip":"14060","miles_from_dt":25.11},{"city":"Mills","state_name":"Pennsylvania","lat":41.96421,"lng":-77.71004,"zip":"16937","miles_from_dt":25.28},{"city":"Atlanta","state_name":"New York","lat":42.55817,"lng":-77.46882,"zip":"14808","miles_from_dt":25.59},{"city":"Bath","state_name":"New York","lat":42.34678,"lng":-77.34599,"zip":"14810","miles_from_dt":25.78},{"city":"Genesee","state_name":"Pennsylvania","lat":41.94103,"lng":-77.8761,"zip":"16923","miles_from_dt":25.91},{"city":"Harrison Valley","state_name":"Pennsylvania","lat":41.9655,"lng":-77.65941,"zip":"16927","miles_from_dt":26.04},{"city":"Groveland","state_name":"New York","lat":42.68652,"lng":-77.75112,"zip":"14462","miles_from_dt":26.05},{"city":"Mount Morris","state_name":"New York","lat":42.69485,"lng":-77.87167,"zip":"14510","miles_from_dt":26.19},{"city":"Cameron Mills","state_name":"New York","lat":42.18629,"lng":-77.36258,"zip":"14820","miles_from_dt":26.43},{"city":"Freedom","state_name":"New York","lat":42.48741,"lng":-78.31158,"zip":"14065","miles_from_dt":26.52},{"city":"Little Genesee","state_name":"New York","lat":42.02385,"lng":-78.19799,"zip":"14754","miles_from_dt":27.02},{"city":"Gainesville","state_name":"New York","lat":42.62381,"lng":-78.18051,"zip":"14066","miles_from_dt":27.22},{"city":"Bliss","state_name":"New York","lat":42.58111,"lng":-78.24431,"zip":"14024","miles_from_dt":27.32},{"city":"Woodhull","state_name":"New York","lat":42.05729,"lng":-77.43482,"zip":"14898","miles_from_dt":27.7},{"city":"Silver Lake","state_name":"New York","lat":42.69667,"lng":-78.02212,"zip":"14549","miles_from_dt":27.75},{"city":"Silver Springs","state_name":"New York","lat":42.67757,"lng":-78.09166,"zip":"14550","miles_from_dt":27.91},{"city":"Conesus","state_name":"New York","lat":42.71496,"lng":-77.66721,"zip":"14435","miles_from_dt":29.05},{"city":"Springwater","state_name":"New York","lat":42.68716,"lng":-77.57691,"zip":"14560","miles_from_dt":29.12},{"city":"Hinsdale","state_name":"New York","lat":42.20532,"lng":-78.40631,"zip":"14743","miles_from_dt":29.64},{"city":"Portville","state_name":"New York","lat":42.0468,"lng":-78.29963,"zip":"14770","miles_from_dt":29.72},{"city":"Franklinville","state_name":"New York","lat":42.33524,"lng":-78.42926,"zip":"14737","miles_from_dt":29.82},{"city":"Ceres","state_name":"New York","lat":42.01645,"lng":-78.26801,"zip":"14721","miles_from_dt":29.88},{"city":"Shinglehouse","state_name":"Pennsylvania","lat":41.9427,"lng":-78.14425,"zip":"16748","miles_from_dt":29.93},{"city":"Perry","state_name":"New York","lat":42.73446,"lng":-78.00276,"zip":"14530","miles_from_dt":29.96},{"city":"Sandusky","state_name":"New York","lat":42.49965,"lng":-78.37889,"zip":"14133","miles_from_dt":29.99}],"targetCityZipCode":"14804","targetCityState":"New York"},"__N_SSG":true}