{"pageProps":{"stateName":"New-york","cityName":"keuka-park","nearbyCities":[{"city":"Pulteney","state_name":"New York","lat":42.53231,"lng":-77.17234,"zip":"14874","miles_from_dt":4},{"city":"Branchport","state_name":"New York","lat":42.60717,"lng":-77.21681,"zip":"14418","miles_from_dt":4.9},{"city":"Penn Yan","state_name":"New York","lat":42.66764,"lng":-77.06473,"zip":"14527","miles_from_dt":6.85},{"city":"Wayne","state_name":"New York","lat":42.46952,"lng":-77.11182,"zip":"14893","miles_from_dt":7.68},{"city":"Dundee","state_name":"New York","lat":42.49919,"lng":-77.01668,"zip":"14837","miles_from_dt":7.96},{"city":"Himrod","state_name":"New York","lat":42.59666,"lng":-76.963,"zip":"14842","miles_from_dt":8.49},{"city":"Prattsburgh","state_name":"New York","lat":42.52181,"lng":-77.29814,"zip":"14873","miles_from_dt":9.57},{"city":"Hammondsport","state_name":"New York","lat":42.44119,"lng":-77.18758,"zip":"14840","miles_from_dt":10.06},{"city":"Middlesex","state_name":"New York","lat":42.69635,"lng":-77.27373,"zip":"14507","miles_from_dt":10.94},{"city":"Lakemont","state_name":"New York","lat":42.51874,"lng":-76.92825,"zip":"14857","miles_from_dt":11.04},{"city":"Dresden","state_name":"New York","lat":42.68608,"lng":-76.95756,"zip":"14441","miles_from_dt":11.35},{"city":"Tyrone","state_name":"New York","lat":42.40247,"lng":-77.06989,"zip":"14887","miles_from_dt":12.61},{"city":"Rock Stream","state_name":"New York","lat":42.44946,"lng":-76.94401,"zip":"14878","miles_from_dt":13.02},{"city":"Rushville","state_name":"New York","lat":42.75562,"lng":-77.23958,"zip":"14544","miles_from_dt":13.38},{"city":"Bellona","state_name":"New York","lat":42.7559,"lng":-77.01643,"zip":"14415","miles_from_dt":13.4},{"city":"Reading Center","state_name":"New York","lat":42.43372,"lng":-76.95015,"zip":"14876","miles_from_dt":13.58},{"city":"Naples","state_name":"New York","lat":42.64411,"lng":-77.39296,"zip":"14512","miles_from_dt":14.22},{"city":"Bradford","state_name":"New York","lat":42.37335,"lng":-77.09463,"zip":"14815","miles_from_dt":14.37},{"city":"Lodi","state_name":"New York","lat":42.59099,"lng":-76.84201,"zip":"14860","miles_from_dt":14.6},{"city":"Willard","state_name":"New York","lat":42.67973,"lng":-76.87047,"zip":"14588","miles_from_dt":14.81},{"city":"Hector","state_name":"New York","lat":42.52699,"lng":-76.84249,"zip":"14841","miles_from_dt":15.02},{"city":"Hall","state_name":"New York","lat":42.79539,"lng":-77.0689,"zip":"14463","miles_from_dt":15.16},{"city":"Gorham","state_name":"New York","lat":42.80179,"lng":-77.1305,"zip":"14461","miles_from_dt":15.3},{"city":"Watkins Glen","state_name":"New York","lat":42.37823,"lng":-76.95035,"zip":"14891","miles_from_dt":16.63},{"city":"Stanley","state_name":"New York","lat":42.82218,"lng":-77.13131,"zip":"14561","miles_from_dt":16.71},{"city":"Atlanta","state_name":"New York","lat":42.55817,"lng":-77.46882,"zip":"14808","miles_from_dt":17.46},{"city":"Ovid","state_name":"New York","lat":42.67639,"lng":-76.80876,"zip":"14521","miles_from_dt":17.57},{"city":"Burdett","state_name":"New York","lat":42.44878,"lng":-76.81688,"zip":"14818","miles_from_dt":18.29},{"city":"Savona","state_name":"New York","lat":42.31521,"lng":-77.19323,"zip":"14879","miles_from_dt":18.59},{"city":"Kanona","state_name":"New York","lat":42.37737,"lng":-77.36944,"zip":"14856","miles_from_dt":18.66},{"city":"Romulus","state_name":"New York","lat":42.75704,"lng":-76.84403,"zip":"14541","miles_from_dt":18.93},{"city":"Geneva","state_name":"New York","lat":42.84584,"lng":-77.00012,"zip":"14456","miles_from_dt":19.46},{"city":"Avoca","state_name":"New York","lat":42.41961,"lng":-77.44355,"zip":"14809","miles_from_dt":19.56},{"city":"Cohocton","state_name":"New York","lat":42.49354,"lng":-77.49335,"zip":"14826","miles_from_dt":19.59},{"city":"Bath","state_name":"New York","lat":42.34678,"lng":-77.34599,"zip":"14810","miles_from_dt":19.59},{"city":"Interlaken","state_name":"New York","lat":42.6031,"lng":-76.74047,"zip":"14847","miles_from_dt":19.82},{"city":"Canandaigua","state_name":"New York","lat":42.84649,"lng":-77.3104,"zip":"14424","miles_from_dt":20.6},{"city":"Beaver Dams","state_name":"New York","lat":42.29199,"lng":-76.99413,"zip":"14812","miles_from_dt":21.03},{"city":"Montour Falls","state_name":"New York","lat":42.35091,"lng":-76.83178,"zip":"14865","miles_from_dt":21.89},{"city":"Honeoye","state_name":"New York","lat":42.75308,"lng":-77.49425,"zip":"14471","miles_from_dt":22.15},{"city":"Seneca Castle","state_name":"New York","lat":42.90494,"lng":-77.12653,"zip":"14547","miles_from_dt":22.42},{"city":"Wayland","state_name":"New York","lat":42.5669,"lng":-77.57017,"zip":"14572","miles_from_dt":22.58},{"city":"Fayette","state_name":"New York","lat":42.81884,"lng":-76.81577,"zip":"13065","miles_from_dt":22.89},{"city":"Mecklenburg","state_name":"New York","lat":42.4555,"lng":-76.71105,"zip":"14863","miles_from_dt":22.96},{"city":"Trumansburg","state_name":"New York","lat":42.50408,"lng":-76.68836,"zip":"14886","miles_from_dt":23.04},{"city":"Odessa","state_name":"New York","lat":42.36403,"lng":-76.77052,"zip":"14869","miles_from_dt":23.58},{"city":"Springwater","state_name":"New York","lat":42.68716,"lng":-77.57691,"zip":"14560","miles_from_dt":24.05},{"city":"Campbell","state_name":"New York","lat":42.23541,"lng":-77.21623,"zip":"14821","miles_from_dt":24.22},{"city":"Oaks Corners","state_name":"New York","lat":42.93017,"lng":-77.01246,"zip":"14518","miles_from_dt":24.87},{"city":"Millport","state_name":"New York","lat":42.2804,"lng":-76.84205,"zip":"14864","miles_from_dt":25.33},{"city":"Alpine","state_name":"New York","lat":42.3563,"lng":-76.72618,"zip":"14805","miles_from_dt":25.69},{"city":"Clifton Springs","state_name":"New York","lat":42.95696,"lng":-77.14333,"zip":"14432","miles_from_dt":26.02},{"city":"Waterloo","state_name":"New York","lat":42.91185,"lng":-76.87601,"zip":"13165","miles_from_dt":26.24},{"city":"King Ferry","state_name":"New York","lat":42.67364,"lng":-76.62527,"zip":"13081","miles_from_dt":26.42},{"city":"Perkinsville","state_name":"New York","lat":42.53748,"lng":-77.64418,"zip":"14529","miles_from_dt":26.51},{"city":"Aurora","state_name":"New York","lat":42.75044,"lng":-76.65968,"zip":"13026","miles_from_dt":26.59},{"city":"Bloomfield","state_name":"New York","lat":42.87778,"lng":-77.46735,"zip":"14469","miles_from_dt":26.84},{"city":"East Bloomfield","state_name":"New York","lat":42.89039,"lng":-77.4465,"zip":"14443","miles_from_dt":26.86},{"city":"Jacksonville","state_name":"New York","lat":42.51138,"lng":-76.60874,"zip":"14854","miles_from_dt":26.92},{"city":"Hemlock","state_name":"New York","lat":42.77773,"lng":-77.5842,"zip":"14466","miles_from_dt":26.95},{"city":"Pine Valley","state_name":"New York","lat":42.24141,"lng":-76.86473,"zip":"14872","miles_from_dt":26.98},{"city":"Phelps","state_name":"New York","lat":42.96462,"lng":-77.02601,"zip":"14532","miles_from_dt":27.04},{"city":"Manchester","state_name":"New York","lat":42.96839,"lng":-77.2327,"zip":"14504","miles_from_dt":27.33},{"city":"Coopers Plains","state_name":"New York","lat":42.18069,"lng":-77.14292,"zip":"14827","miles_from_dt":27.58},{"city":"Shortsville","state_name":"New York","lat":42.97538,"lng":-77.24341,"zip":"14548","miles_from_dt":27.91},{"city":"Painted Post","state_name":"New York","lat":42.16816,"lng":-77.13234,"zip":"14870","miles_from_dt":28.43},{"city":"Lansing","state_name":"New York","lat":42.5801,"lng":-76.56576,"zip":"14882","miles_from_dt":28.68},{"city":"Conesus","state_name":"New York","lat":42.71496,"lng":-77.66721,"zip":"14435","miles_from_dt":29.01},{"city":"Poplar Ridge","state_name":"New York","lat":42.74057,"lng":-76.59794,"zip":"13139","miles_from_dt":29.18},{"city":"Seneca Falls","state_name":"New York","lat":42.9208,"lng":-76.78106,"zip":"13148","miles_from_dt":29.4},{"city":"Cameron","state_name":"New York","lat":42.21924,"lng":-77.43466,"zip":"14819","miles_from_dt":29.44},{"city":"Union Springs","state_name":"New York","lat":42.82613,"lng":-76.65157,"zip":"13160","miles_from_dt":29.61},{"city":"Cameron Mills","state_name":"New York","lat":42.18629,"lng":-77.36258,"zip":"14820","miles_from_dt":29.72}],"targetCityZipCode":"14478","targetCityState":"New York"},"__N_SSG":true}