{"pageProps":{"stateName":"New-york","cityName":"moriah","nearbyCities":[{"city":"Moriah Center","state_name":"New York","lat":44.06103,"lng":-73.57972,"zip":"12961","miles_from_dt":3.29},{"city":"Port Henry","state_name":"New York","lat":44.05582,"lng":-73.46931,"zip":"12974","miles_from_dt":4.27},{"city":"Crown Point","state_name":"New York","lat":43.9539,"lng":-73.52898,"zip":"12928","miles_from_dt":4.76},{"city":"Witherbee","state_name":"New York","lat":44.0879,"lng":-73.57584,"zip":"12998","miles_from_dt":4.85},{"city":"Mineville","state_name":"New York","lat":44.09301,"lng":-73.49628,"zip":"12956","miles_from_dt":5.37},{"city":"New Russia","state_name":"New York","lat":44.13224,"lng":-73.63625,"zip":"12964","miles_from_dt":8.95},{"city":"Bridport","state_name":"Vermont","lat":43.98243,"lng":-73.33286,"zip":"05734","miles_from_dt":10.74},{"city":"Paradox","state_name":"New York","lat":43.88899,"lng":-73.6703,"zip":"12858","miles_from_dt":11.23},{"city":"Ticonderoga","state_name":"New York","lat":43.85291,"lng":-73.50786,"zip":"12883","miles_from_dt":11.81},{"city":"Westport","state_name":"New York","lat":44.19711,"lng":-73.48097,"zip":"12993","miles_from_dt":12.44},{"city":"North Hudson","state_name":"New York","lat":44.00121,"lng":-73.79762,"zip":"12855","miles_from_dt":12.86},{"city":"Vergennes","state_name":"Vermont","lat":44.12101,"lng":-73.32111,"zip":"05491","miles_from_dt":12.91},{"city":"Severance","state_name":"New York","lat":43.8839,"lng":-73.72309,"zip":"12872","miles_from_dt":13.17},{"city":"Elizabethtown","state_name":"New York","lat":44.21222,"lng":-73.6082,"zip":"12932","miles_from_dt":13.53},{"city":"Shoreham","state_name":"Vermont","lat":43.88662,"lng":-73.32771,"zip":"05770","miles_from_dt":14.18},{"city":"Keene Valley","state_name":"New York","lat":44.13934,"lng":-73.82075,"zip":"12943","miles_from_dt":16.09},{"city":"Schroon Lake","state_name":"New York","lat":43.83931,"lng":-73.7625,"zip":"12870","miles_from_dt":16.78},{"city":"Essex","state_name":"New York","lat":44.26869,"lng":-73.4029,"zip":"12936","miles_from_dt":18.35},{"city":"Middlebury","state_name":"Vermont","lat":43.9991,"lng":-73.17403,"zip":"05753","miles_from_dt":18.37},{"city":"Hague","state_name":"New York","lat":43.74994,"lng":-73.56816,"zip":"12836","miles_from_dt":18.85},{"city":"Ferrisburgh","state_name":"Vermont","lat":44.20776,"lng":-73.25796,"zip":"05456","miles_from_dt":19.04},{"city":"Whiting","state_name":"Vermont","lat":43.87279,"lng":-73.21228,"zip":"05778","miles_from_dt":19.38},{"city":"Orwell","state_name":"Vermont","lat":43.80359,"lng":-73.29517,"zip":"05760","miles_from_dt":19.46},{"city":"Putnam Station","state_name":"New York","lat":43.74982,"lng":-73.41502,"zip":"12861","miles_from_dt":19.84},{"city":"New Haven","state_name":"Vermont","lat":44.11377,"lng":-73.1611,"zip":"05472","miles_from_dt":19.95},{"city":"Keene","state_name":"New York","lat":44.26023,"lng":-73.79523,"zip":"12942","miles_from_dt":20.72},{"city":"Lewis","state_name":"New York","lat":44.32685,"lng":-73.57675,"zip":"12950","miles_from_dt":21.1},{"city":"Adirondack","state_name":"New York","lat":43.74782,"lng":-73.75393,"zip":"12808","miles_from_dt":21.72},{"city":"East Middlebury","state_name":"Vermont","lat":43.97299,"lng":-73.10273,"zip":"05740","miles_from_dt":22.12},{"city":"Salisbury","state_name":"Vermont","lat":43.91948,"lng":-73.11651,"zip":"05769","miles_from_dt":22.33},{"city":"Benson","state_name":"Vermont","lat":43.7532,"lng":-73.28857,"zip":"05731","miles_from_dt":22.45},{"city":"Silver Bay","state_name":"New York","lat":43.69035,"lng":-73.54836,"zip":"12874","miles_from_dt":22.92},{"city":"North Ferrisburgh","state_name":"Vermont","lat":44.24119,"lng":-73.19346,"zip":"05473","miles_from_dt":22.97},{"city":"Olmstedville","state_name":"New York","lat":43.84033,"lng":-73.93354,"zip":"12857","miles_from_dt":23.26},{"city":"Brant Lake","state_name":"New York","lat":43.70161,"lng":-73.69459,"zip":"12815","miles_from_dt":23.43},{"city":"Willsboro","state_name":"New York","lat":44.36129,"lng":-73.42129,"zip":"12996","miles_from_dt":24.15},{"city":"Jay","state_name":"New York","lat":44.35147,"lng":-73.7126,"zip":"12941","miles_from_dt":24.27},{"city":"Pottersville","state_name":"New York","lat":43.72843,"lng":-73.80942,"zip":"12860","miles_from_dt":24.31},{"city":"Upper Jay","state_name":"New York","lat":44.33948,"lng":-73.76386,"zip":"12987","miles_from_dt":24.54},{"city":"Charlotte","state_name":"Vermont","lat":44.30896,"lng":-73.23593,"zip":"05445","miles_from_dt":24.94},{"city":"Monkton","state_name":"Vermont","lat":44.25395,"lng":-73.12095,"zip":"05469","miles_from_dt":26.32},{"city":"Bristol","state_name":"Vermont","lat":44.12976,"lng":-73.03347,"zip":"05443","miles_from_dt":26.34},{"city":"Brandon","state_name":"Vermont","lat":43.81746,"lng":-73.09216,"zip":"05733","miles_from_dt":26.5},{"city":"Lake Placid","state_name":"New York","lat":44.23162,"lng":-73.98903,"zip":"12946","miles_from_dt":26.55},{"city":"Fair Haven","state_name":"Vermont","lat":43.67118,"lng":-73.30726,"zip":"05743","miles_from_dt":26.91},{"city":"Ripton","state_name":"Vermont","lat":43.98833,"lng":-72.99072,"zip":"05766","miles_from_dt":27.53},{"city":"Forest Dale","state_name":"Vermont","lat":43.82952,"lng":-73.05453,"zip":"05745","miles_from_dt":27.69},{"city":"Minerva","state_name":"New York","lat":43.85171,"lng":-74.06211,"zip":"12851","miles_from_dt":28.53},{"city":"Clemons","state_name":"New York","lat":43.61144,"lng":-73.46315,"zip":"12819","miles_from_dt":28.63},{"city":"Wilmington","state_name":"New York","lat":44.3755,"lng":-73.84314,"zip":"12997","miles_from_dt":28.63},{"city":"Huletts Landing","state_name":"New York","lat":43.59919,"lng":-73.5165,"zip":"12841","miles_from_dt":29.23},{"city":"Keeseville","state_name":"New York","lat":44.44585,"lng":-73.51193,"zip":"12944","miles_from_dt":29.28},{"city":"Newcomb","state_name":"New York","lat":44.018,"lng":-74.12899,"zip":"12879","miles_from_dt":29.28},{"city":"Shelburne","state_name":"Vermont","lat":44.39057,"lng":-73.24134,"zip":"05482","miles_from_dt":29.47},{"city":"Bolton Landing","state_name":"New York","lat":43.6004,"lng":-73.63678,"zip":"12814","miles_from_dt":29.51},{"city":"Bomoseen","state_name":"Vermont","lat":43.67998,"lng":-73.18648,"zip":"05732","miles_from_dt":29.54},{"city":"Newcomb","state_name":"New York","lat":43.99293,"lng":-74.13598,"zip":"12852","miles_from_dt":29.71}],"targetCityZipCode":"12960","targetCityState":"New York"},"__N_SSG":true}