{"pageProps":{"stateName":"Tennessee","cityName":"granville","nearbyCities":[{"city":"Chestnut Mound","state_name":"Tennessee","lat":36.2166,"lng":-85.81195,"zip":"38552","miles_from_dt":4.99},{"city":"Bloomington Springs","state_name":"Tennessee","lat":36.23133,"lng":-85.65964,"zip":"38545","miles_from_dt":5.93},{"city":"Elmwood","state_name":"Tennessee","lat":36.23458,"lng":-85.8713,"zip":"38560","miles_from_dt":7.05},{"city":"Buffalo Valley","state_name":"Tennessee","lat":36.17252,"lng":-85.79197,"zip":"38548","miles_from_dt":7.15},{"city":"Gainesboro","state_name":"Tennessee","lat":36.35173,"lng":-85.65932,"zip":"38562","miles_from_dt":7.64},{"city":"Carthage","state_name":"Tennessee","lat":36.27374,"lng":-85.95035,"zip":"37030","miles_from_dt":10.98},{"city":"Pleasant Shade","state_name":"Tennessee","lat":36.38179,"lng":-85.91203,"zip":"37145","miles_from_dt":11.66},{"city":"Baxter","state_name":"Tennessee","lat":36.11605,"lng":-85.66238,"zip":"38544","miles_from_dt":11.87},{"city":"Silver Point","state_name":"Tennessee","lat":36.09431,"lng":-85.75382,"zip":"38582","miles_from_dt":12.21},{"city":"Cookeville","state_name":"Tennessee","lat":36.22682,"lng":-85.53841,"zip":"38501","miles_from_dt":12.41},{"city":"Lancaster","state_name":"Tennessee","lat":36.10887,"lng":-85.85647,"zip":"38569","miles_from_dt":12.6},{"city":"Whitleyville","state_name":"Tennessee","lat":36.45613,"lng":-85.7189,"zip":"38588","miles_from_dt":12.88},{"city":"Hickman","state_name":"Tennessee","lat":36.13392,"lng":-85.91518,"zip":"38567","miles_from_dt":13.09},{"city":"Cookeville","state_name":"Tennessee","lat":36.17316,"lng":-85.50559,"zip":"38505","miles_from_dt":15.43},{"city":"Gordonsville","state_name":"Tennessee","lat":36.19658,"lng":-86.0147,"zip":"38563","miles_from_dt":15.47},{"city":"Cookeville","state_name":"Tennessee","lat":36.16333,"lng":-85.50588,"zip":"38503","miles_from_dt":15.72},{"city":"Cookeville","state_name":"Tennessee","lat":36.16105,"lng":-85.49944,"zip":"38502","miles_from_dt":16.11},{"city":"Brush Creek","state_name":"Tennessee","lat":36.14954,"lng":-86.00833,"zip":"38547","miles_from_dt":16.53},{"city":"Riddleton","state_name":"Tennessee","lat":36.31288,"lng":-86.04536,"zip":"37151","miles_from_dt":16.53},{"city":"Dixon Springs","state_name":"Tennessee","lat":36.40466,"lng":-86.02726,"zip":"37057","miles_from_dt":17.81},{"city":"Cookeville","state_name":"Tennessee","lat":36.18334,"lng":-85.44246,"zip":"38506","miles_from_dt":18.41},{"city":"Red Boiling Springs","state_name":"Tennessee","lat":36.54437,"lng":-85.81082,"zip":"37150","miles_from_dt":19.09},{"city":"Hilham","state_name":"Tennessee","lat":36.43594,"lng":-85.46907,"zip":"38568","miles_from_dt":19.51},{"city":"Alexandria","state_name":"Tennessee","lat":36.07112,"lng":-86.00563,"zip":"37012","miles_from_dt":19.73},{"city":"Moss","state_name":"Tennessee","lat":36.55848,"lng":-85.63515,"zip":"38575","miles_from_dt":20.86},{"city":"Dowelltown","state_name":"Tennessee","lat":35.98611,"lng":-85.90798,"zip":"37059","miles_from_dt":21.48},{"city":"Liberty","state_name":"Tennessee","lat":35.98295,"lng":-85.95919,"zip":"37095","miles_from_dt":22.97},{"city":"Lafayette","state_name":"Tennessee","lat":36.54357,"lng":-86.00149,"zip":"37083","miles_from_dt":23.3},{"city":"Smithville","state_name":"Tennessee","lat":35.92444,"lng":-85.78978,"zip":"37166","miles_from_dt":24.01},{"city":"Hartsville","state_name":"Tennessee","lat":36.41552,"lng":-86.14724,"zip":"37074","miles_from_dt":24.1},{"city":"Celina","state_name":"Tennessee","lat":36.55804,"lng":-85.48699,"zip":"38551","miles_from_dt":24.73},{"city":"Livingston","state_name":"Tennessee","lat":36.37678,"lng":-85.31983,"zip":"38570","miles_from_dt":25.27},{"city":"Watertown","state_name":"Tennessee","lat":36.08682,"lng":-86.14524,"zip":"37184","miles_from_dt":25.32},{"city":"Rickman","state_name":"Tennessee","lat":36.27729,"lng":-85.29522,"zip":"38580","miles_from_dt":25.6},{"city":"Gamaliel","state_name":"Kentucky","lat":36.65549,"lng":-85.83108,"zip":"42140","miles_from_dt":26.83},{"city":"Hestand","state_name":"Kentucky","lat":36.64848,"lng":-85.56058,"zip":"42151","miles_from_dt":28.13},{"city":"Sparta","state_name":"Tennessee","lat":35.94649,"lng":-85.43781,"zip":"38583","miles_from_dt":28.53},{"city":"Walling","state_name":"Tennessee","lat":35.8677,"lng":-85.61723,"zip":"38587","miles_from_dt":28.87},{"city":"Lebanon","state_name":"Tennessee","lat":36.2733,"lng":-86.27224,"zip":"37087","miles_from_dt":28.95},{"city":"Allons","state_name":"Tennessee","lat":36.52903,"lng":-85.33767,"zip":"38541","miles_from_dt":29.21},{"city":"Auburntown","state_name":"Tennessee","lat":35.96355,"lng":-86.11364,"zip":"37016","miles_from_dt":29.26},{"city":"Norene","state_name":"Tennessee","lat":36.19554,"lng":-86.27806,"zip":"37136","miles_from_dt":29.76},{"city":"Gladeville","state_name":"Tennessee","lat":36.1938,"lng":-86.27952,"zip":"37071","miles_from_dt":29.86}],"targetCityZipCode":"38564","targetCityState":"Tennessee"},"__N_SSG":true}