{"pageProps":{"stateName":"Tennessee","cityName":"huntingdon","nearbyCities":[{"city":"Clarksburg","state_name":"Tennessee","lat":35.86284,"lng":-88.37933,"zip":"38324","miles_from_dt":8.39},{"city":"McLemoresville","state_name":"Tennessee","lat":35.99116,"lng":-88.58109,"zip":"38235","miles_from_dt":8.48},{"city":"Buena Vista","state_name":"Tennessee","lat":35.95687,"lng":-88.26189,"zip":"38318","miles_from_dt":9.56},{"city":"Yuma","state_name":"Tennessee","lat":35.83845,"lng":-88.37797,"zip":"38390","miles_from_dt":10.01},{"city":"Bruceton","state_name":"Tennessee","lat":36.05425,"lng":-88.26965,"zip":"38317","miles_from_dt":10.47},{"city":"Trezevant","state_name":"Tennessee","lat":36.02094,"lng":-88.61188,"zip":"38258","miles_from_dt":10.59},{"city":"Cedar Grove","state_name":"Tennessee","lat":35.83341,"lng":-88.53013,"zip":"38321","miles_from_dt":11.37},{"city":"McKenzie","state_name":"Tennessee","lat":36.12335,"lng":-88.53131,"zip":"38201","miles_from_dt":11.55},{"city":"Westport","state_name":"Tennessee","lat":35.86573,"lng":-88.26968,"zip":"38387","miles_from_dt":11.85},{"city":"Hollow Rock","state_name":"Tennessee","lat":36.10766,"lng":-88.29024,"zip":"38342","miles_from_dt":11.95},{"city":"Atwood","state_name":"Tennessee","lat":35.98836,"lng":-88.673,"zip":"38220","miles_from_dt":13.6},{"city":"Lavinia","state_name":"Tennessee","lat":35.86893,"lng":-88.65198,"zip":"38348","miles_from_dt":14.48},{"city":"Wildersville","state_name":"Tennessee","lat":35.77672,"lng":-88.31535,"zip":"38388","miles_from_dt":15.26},{"city":"Henry","state_name":"Tennessee","lat":36.21277,"lng":-88.42442,"zip":"38231","miles_from_dt":16.25},{"city":"Mansfield","state_name":"Tennessee","lat":36.17572,"lng":-88.26463,"zip":"38236","miles_from_dt":16.55},{"city":"Camden","state_name":"Tennessee","lat":36.04764,"lng":-88.1095,"zip":"38320","miles_from_dt":18.63},{"city":"Milan","state_name":"Tennessee","lat":35.91661,"lng":-88.75934,"zip":"38358","miles_from_dt":18.89},{"city":"Spring Creek","state_name":"Tennessee","lat":35.76906,"lng":-88.66544,"zip":"38378","miles_from_dt":19.48},{"city":"Gleason","state_name":"Tennessee","lat":36.22108,"lng":-88.60939,"zip":"38229","miles_from_dt":19.57},{"city":"Holladay","state_name":"Tennessee","lat":35.87677,"lng":-88.08888,"zip":"38341","miles_from_dt":20.38},{"city":"Idlewild","state_name":"Tennessee","lat":36.02863,"lng":-88.8013,"zip":"38346","miles_from_dt":21.07},{"city":"Lexington","state_name":"Tennessee","lat":35.66324,"lng":-88.40401,"zip":"38351","miles_from_dt":21.69},{"city":"Bradford","state_name":"Tennessee","lat":36.06873,"lng":-88.81547,"zip":"38316","miles_from_dt":22.46},{"city":"Greenfield","state_name":"Tennessee","lat":36.15592,"lng":-88.77154,"zip":"38230","miles_from_dt":22.72},{"city":"Medina","state_name":"Tennessee","lat":35.78637,"lng":-88.76942,"zip":"38355","miles_from_dt":23.12},{"city":"Paris","state_name":"Tennessee","lat":36.3076,"lng":-88.33244,"zip":"38242","miles_from_dt":23.44},{"city":"Darden","state_name":"Tennessee","lat":35.67601,"lng":-88.21222,"zip":"38328","miles_from_dt":24.11},{"city":"Gibson","state_name":"Tennessee","lat":35.87483,"lng":-88.84863,"zip":"38338","miles_from_dt":24.48},{"city":"Sugar Tree","state_name":"Tennessee","lat":35.79114,"lng":-88.03263,"zip":"38380","miles_from_dt":25.75},{"city":"Como","state_name":"Tennessee","lat":36.35779,"lng":-88.4638,"zip":"38223","miles_from_dt":26.31},{"city":"Oakfield","state_name":"Tennessee","lat":35.72696,"lng":-88.78508,"zip":"38362","miles_from_dt":26.33},{"city":"Jackson","state_name":"Tennessee","lat":35.70108,"lng":-88.76779,"zip":"38305","miles_from_dt":26.84},{"city":"Parsons","state_name":"Tennessee","lat":35.68625,"lng":-88.11051,"zip":"38363","miles_from_dt":26.93},{"city":"New Johnsonville","state_name":"Tennessee","lat":36.0014,"lng":-87.95063,"zip":"37134","miles_from_dt":26.95},{"city":"Huron","state_name":"Tennessee","lat":35.59109,"lng":-88.51163,"zip":"38345","miles_from_dt":27},{"city":"Dresden","state_name":"Tennessee","lat":36.31764,"lng":-88.67937,"zip":"38225","miles_from_dt":27.29},{"city":"Eva","state_name":"Tennessee","lat":36.12236,"lng":-87.9709,"zip":"38333","miles_from_dt":27.62},{"city":"Beech Bluff","state_name":"Tennessee","lat":35.60107,"lng":-88.62541,"zip":"38313","miles_from_dt":28.14},{"city":"Cottage Grove","state_name":"Tennessee","lat":36.39172,"lng":-88.48774,"zip":"38224","miles_from_dt":28.76},{"city":"Big Sandy","state_name":"Tennessee","lat":36.24552,"lng":-88.03685,"zip":"38221","miles_from_dt":28.77},{"city":"Springville","state_name":"Tennessee","lat":36.31388,"lng":-88.12539,"zip":"38256","miles_from_dt":28.82},{"city":"Humboldt","state_name":"Tennessee","lat":35.82727,"lng":-88.92819,"zip":"38343","miles_from_dt":29.76}],"targetCityZipCode":"38344","targetCityState":"Tennessee"},"__N_SSG":true}