{"pageProps":{"stateName":"Tennessee","cityName":"laurel-bloomery","nearbyCities":[{"city":"Damascus","state_name":"Virginia","lat":36.64408,"lng":-81.73689,"zip":"24236","miles_from_dt":4.83},{"city":"Whitetop","state_name":"Virginia","lat":36.6147,"lng":-81.5791,"zip":"24292","miles_from_dt":8.6},{"city":"Creston","state_name":"North Carolina","lat":36.46407,"lng":-81.65368,"zip":"28615","miles_from_dt":8.61},{"city":"Shady Valley","state_name":"Tennessee","lat":36.54548,"lng":-81.88281,"zip":"37688","miles_from_dt":8.98},{"city":"Mountain City","state_name":"Tennessee","lat":36.45303,"lng":-81.82233,"zip":"37683","miles_from_dt":9.97},{"city":"Lansing","state_name":"North Carolina","lat":36.52982,"lng":-81.53486,"zip":"28643","miles_from_dt":11.05},{"city":"Warrensville","state_name":"North Carolina","lat":36.46622,"lng":-81.55434,"zip":"28693","miles_from_dt":12.11},{"city":"Glade Spring","state_name":"Virginia","lat":36.75267,"lng":-81.75891,"zip":"24340","miles_from_dt":12.42},{"city":"Chilhowie","state_name":"Virginia","lat":36.76048,"lng":-81.65778,"zip":"24319","miles_from_dt":13.36},{"city":"Abingdon","state_name":"Virginia","lat":36.65413,"lng":-81.95643,"zip":"24211","miles_from_dt":13.96},{"city":"Trade","state_name":"Tennessee","lat":36.36792,"lng":-81.75519,"zip":"37691","miles_from_dt":14.35},{"city":"Meadowview","state_name":"Virginia","lat":36.76672,"lng":-81.84552,"zip":"24361","miles_from_dt":14.83},{"city":"Emory","state_name":"Virginia","lat":36.77357,"lng":-81.82971,"zip":"24327","miles_from_dt":14.89},{"city":"Zionville","state_name":"North Carolina","lat":36.344,"lng":-81.73604,"zip":"28698","miles_from_dt":15.91},{"city":"Abingdon","state_name":"Virginia","lat":36.70693,"lng":-81.97439,"zip":"24212","miles_from_dt":16.57},{"city":"Todd","state_name":"North Carolina","lat":36.33541,"lng":-81.6163,"zip":"28684","miles_from_dt":17.58},{"city":"Grassy Creek","state_name":"North Carolina","lat":36.55218,"lng":-81.40994,"zip":"28631","miles_from_dt":17.62},{"city":"Mouth Of Wilson","state_name":"Virginia","lat":36.6137,"lng":-81.40084,"zip":"24363","miles_from_dt":18.26},{"city":"Troutdale","state_name":"Virginia","lat":36.69126,"lng":-81.42944,"zip":"24378","miles_from_dt":18.32},{"city":"Marion","state_name":"Virginia","lat":36.82159,"lng":-81.54001,"zip":"24354","miles_from_dt":19.9},{"city":"Crumpler","state_name":"North Carolina","lat":36.48433,"lng":-81.38264,"zip":"28617","miles_from_dt":20.07},{"city":"West Jefferson","state_name":"North Carolina","lat":36.36197,"lng":-81.47465,"zip":"28694","miles_from_dt":20.25},{"city":"Vilas","state_name":"North Carolina","lat":36.28023,"lng":-81.79259,"zip":"28692","miles_from_dt":20.64},{"city":"Bristol","state_name":"Tennessee","lat":36.55124,"lng":-82.09867,"zip":"37620","miles_from_dt":20.82},{"city":"Jefferson","state_name":"North Carolina","lat":36.40385,"lng":-81.40751,"zip":"28640","miles_from_dt":21.27},{"city":"Abingdon","state_name":"Virginia","lat":36.77231,"lng":-82.02244,"zip":"24210","miles_from_dt":21.39},{"city":"Butler","state_name":"Tennessee","lat":36.33023,"lng":-81.9773,"zip":"37640","miles_from_dt":21.92},{"city":"Sugar Grove","state_name":"North Carolina","lat":36.25962,"lng":-81.84207,"zip":"28679","miles_from_dt":22.67},{"city":"Scottville","state_name":"North Carolina","lat":36.48381,"lng":-81.32735,"zip":"28672","miles_from_dt":23.03},{"city":"Sugar Grove","state_name":"Virginia","lat":36.77128,"lng":-81.39026,"zip":"24375","miles_from_dt":23.04},{"city":"Fleetwood","state_name":"North Carolina","lat":36.29256,"lng":-81.50119,"zip":"28626","miles_from_dt":23.12},{"city":"Saltville","state_name":"Virginia","lat":36.91345,"lng":-81.69107,"zip":"24370","miles_from_dt":23.44},{"city":"Piney Creek","state_name":"North Carolina","lat":36.53477,"lng":-81.30063,"zip":"28663","miles_from_dt":23.8},{"city":"Bristol","state_name":"Virginia","lat":36.61241,"lng":-82.16862,"zip":"24209","miles_from_dt":24.77},{"city":"Bristol","state_name":"Virginia","lat":36.61059,"lng":-82.16971,"zip":"24201","miles_from_dt":24.82},{"city":"Boone","state_name":"North Carolina","lat":36.21547,"lng":-81.64427,"zip":"28607","miles_from_dt":25.18},{"city":"Boone","state_name":"North Carolina","lat":36.21163,"lng":-81.66828,"zip":"28608","miles_from_dt":25.23},{"city":"Bristol","state_name":"Tennessee","lat":36.59399,"lng":-82.18562,"zip":"37625","miles_from_dt":25.62},{"city":"Glendale Springs","state_name":"North Carolina","lat":36.34196,"lng":-81.36423,"zip":"28629","miles_from_dt":25.74},{"city":"Bristol","state_name":"Virginia","lat":36.59717,"lng":-82.18862,"zip":"24203","miles_from_dt":25.8},{"city":"Bristol","state_name":"Virginia","lat":36.59612,"lng":-82.19092,"zip":"24205","miles_from_dt":25.92},{"city":"Broadford","state_name":"Virginia","lat":36.95277,"lng":-81.67145,"zip":"24316","miles_from_dt":26.25},{"city":"Bristol","state_name":"Tennessee","lat":36.58053,"lng":-82.20482,"zip":"37621","miles_from_dt":26.66},{"city":"Elizabethton","state_name":"Tennessee","lat":36.37513,"lng":-82.13729,"zip":"37643","miles_from_dt":26.74},{"city":"Valle Crucis","state_name":"North Carolina","lat":36.2076,"lng":-81.88503,"zip":"28691","miles_from_dt":26.82},{"city":"Atkins","state_name":"Virginia","lat":36.87292,"lng":-81.40161,"zip":"24311","miles_from_dt":27.32},{"city":"Laurel Springs","state_name":"North Carolina","lat":36.43134,"lng":-81.26758,"zip":"28644","miles_from_dt":27.34},{"city":"Bristol","state_name":"Virginia","lat":36.65904,"lng":-82.21564,"zip":"24202","miles_from_dt":27.86},{"city":"Deep Gap","state_name":"North Carolina","lat":36.20888,"lng":-81.51291,"zip":"28618","miles_from_dt":27.87},{"city":"Bluff City","state_name":"Tennessee","lat":36.46555,"lng":-82.20833,"zip":"37618","miles_from_dt":27.9},{"city":"Banner Elk","state_name":"North Carolina","lat":36.17701,"lng":-81.84745,"zip":"28604","miles_from_dt":28.25},{"city":"Rosedale","state_name":"Virginia","lat":36.95575,"lng":-81.94167,"zip":"24280","miles_from_dt":28.89},{"city":"Elk Park","state_name":"North Carolina","lat":36.19492,"lng":-81.94899,"zip":"28622","miles_from_dt":28.99},{"city":"Lebanon","state_name":"Virginia","lat":36.8671,"lng":-82.10523,"zip":"24266","miles_from_dt":29.17}],"targetCityZipCode":"37680","targetCityState":"Tennessee"},"__N_SSG":true}