{"pageProps":{"stateName":"Tennessee","cityName":"rockvale","nearbyCities":[{"city":"Eagleville","state_name":"Tennessee","lat":35.74924,"lng":-86.63428,"zip":"37060","miles_from_dt":4.56},{"city":"Murfreesboro","state_name":"Tennessee","lat":35.80343,"lng":-86.47483,"zip":"37128","miles_from_dt":5.26},{"city":"College Grove","state_name":"Tennessee","lat":35.77995,"lng":-86.71582,"zip":"37046","miles_from_dt":9.08},{"city":"Arrington","state_name":"Tennessee","lat":35.8725,"lng":-86.6532,"zip":"37014","miles_from_dt":9.26},{"city":"Fosterville","state_name":"Tennessee","lat":35.74544,"lng":-86.38811,"zip":"37063","miles_from_dt":9.49},{"city":"Unionville","state_name":"Tennessee","lat":35.6189,"lng":-86.57679,"zip":"37180","miles_from_dt":10.11},{"city":"Murfreesboro","state_name":"Tennessee","lat":35.84027,"lng":-86.39405,"zip":"37133","miles_from_dt":10.46},{"city":"Murfreesboro","state_name":"Tennessee","lat":35.85324,"lng":-86.39602,"zip":"37131","miles_from_dt":10.84},{"city":"Chapel Hill","state_name":"Tennessee","lat":35.63977,"lng":-86.69158,"zip":"37034","miles_from_dt":11.52},{"city":"Christiana","state_name":"Tennessee","lat":35.70272,"lng":-86.35318,"zip":"37037","miles_from_dt":12.13},{"city":"Murfreesboro","state_name":"Tennessee","lat":35.84873,"lng":-86.36284,"zip":"37132","miles_from_dt":12.27},{"city":"Murfreesboro","state_name":"Tennessee","lat":35.92556,"lng":-86.44098,"zip":"37129","miles_from_dt":12.83},{"city":"Murfreesboro","state_name":"Tennessee","lat":35.77947,"lng":-86.32723,"zip":"37127","miles_from_dt":12.86},{"city":"Bell Buckle","state_name":"Tennessee","lat":35.62563,"lng":-86.39927,"zip":"37020","miles_from_dt":12.99},{"city":"Nolensville","state_name":"Tennessee","lat":35.93562,"lng":-86.6625,"zip":"37135","miles_from_dt":13.24},{"city":"Smyrna","state_name":"Tennessee","lat":35.96325,"lng":-86.52922,"zip":"37167","miles_from_dt":13.78},{"city":"Murfreesboro","state_name":"Tennessee","lat":35.8809,"lng":-86.33003,"zip":"37130","miles_from_dt":14.98},{"city":"Franklin","state_name":"Tennessee","lat":35.91314,"lng":-86.77461,"zip":"37067","miles_from_dt":16.02},{"city":"La Vergne","state_name":"Tennessee","lat":35.99804,"lng":-86.57456,"zip":"37089","miles_from_dt":16.14},{"city":"La Vergne","state_name":"Tennessee","lat":36.02177,"lng":-86.55971,"zip":"37086","miles_from_dt":17.74},{"city":"Spring Hill","state_name":"Tennessee","lat":35.72197,"lng":-86.8995,"zip":"37174","miles_from_dt":19.57},{"city":"Franklin","state_name":"Tennessee","lat":35.9278,"lng":-86.84365,"zip":"37068","miles_from_dt":19.72},{"city":"Shelbyville","state_name":"Tennessee","lat":35.49154,"lng":-86.44599,"zip":"37162","miles_from_dt":19.8},{"city":"Antioch","state_name":"Tennessee","lat":36.04658,"lng":-86.63445,"zip":"37013","miles_from_dt":19.95},{"city":"Shelbyville","state_name":"Tennessee","lat":35.48444,"lng":-86.46117,"zip":"37161","miles_from_dt":20.02},{"city":"Lascassas","state_name":"Tennessee","lat":35.95308,"lng":-86.27912,"zip":"37085","miles_from_dt":20.23},{"city":"Thompsons Station","state_name":"Tennessee","lat":35.8073,"lng":-86.91517,"zip":"37179","miles_from_dt":20.43},{"city":"Readyville","state_name":"Tennessee","lat":35.80876,"lng":-86.19311,"zip":"37149","miles_from_dt":20.57},{"city":"Brentwood","state_name":"Tennessee","lat":35.99776,"lng":-86.78583,"zip":"37024","miles_from_dt":20.64},{"city":"Brentwood","state_name":"Tennessee","lat":35.99978,"lng":-86.78439,"zip":"37027","miles_from_dt":20.7},{"city":"Franklin","state_name":"Tennessee","lat":35.92314,"lng":-86.8698,"zip":"37065","miles_from_dt":20.77},{"city":"Shelbyville","state_name":"Tennessee","lat":35.46562,"lng":-86.48268,"zip":"37160","miles_from_dt":21.01},{"city":"Beechgrove","state_name":"Tennessee","lat":35.64255,"lng":-86.19876,"zip":"37018","miles_from_dt":21.74},{"city":"Lewisburg","state_name":"Tennessee","lat":35.48546,"lng":-86.76405,"zip":"37091","miles_from_dt":22.54},{"city":"Wartrace","state_name":"Tennessee","lat":35.5104,"lng":-86.30162,"zip":"37183","miles_from_dt":22.6},{"city":"Nashville","state_name":"Tennessee","lat":36.06704,"lng":-86.72345,"zip":"37211","miles_from_dt":22.89},{"city":"Nashville","state_name":"Tennessee","lat":36.06888,"lng":-86.72625,"zip":"37222","miles_from_dt":23.07},{"city":"Milton","state_name":"Tennessee","lat":35.92569,"lng":-86.18903,"zip":"37118","miles_from_dt":23.37},{"city":"Franklin","state_name":"Tennessee","lat":35.88966,"lng":-86.96112,"zip":"37064","miles_from_dt":24.36},{"city":"Nashville","state_name":"Tennessee","lat":36.06759,"lng":-86.78127,"zip":"37220","miles_from_dt":24.44},{"city":"Nashville","state_name":"Tennessee","lat":36.10836,"lng":-86.66178,"zip":"37217","miles_from_dt":24.45},{"city":"Nashville","state_name":"Tennessee","lat":36.10812,"lng":-86.67472,"zip":"37241","miles_from_dt":24.62},{"city":"Franklin","state_name":"Tennessee","lat":35.98753,"lng":-86.90664,"zip":"37069","miles_from_dt":25},{"city":"Bradyville","state_name":"Tennessee","lat":35.69578,"lng":-86.10746,"zip":"37026","miles_from_dt":25.62},{"city":"Nashville","state_name":"Tennessee","lat":36.13254,"lng":-86.66944,"zip":"37227","miles_from_dt":26.17},{"city":"Hermitage","state_name":"Tennessee","lat":36.14512,"lng":-86.57977,"zip":"37076","miles_from_dt":26.28},{"city":"Nashville","state_name":"Tennessee","lat":36.10669,"lng":-86.77463,"zip":"37204","miles_from_dt":26.61},{"city":"Nashville","state_name":"Tennessee","lat":36.08197,"lng":-86.83492,"zip":"37215","miles_from_dt":26.93},{"city":"Belfast","state_name":"Tennessee","lat":35.39094,"lng":-86.70943,"zip":"37019","miles_from_dt":27.18},{"city":"Normandy","state_name":"Tennessee","lat":35.44702,"lng":-86.25586,"zip":"37360","miles_from_dt":27.63},{"city":"Columbia","state_name":"Tennessee","lat":35.62955,"lng":-87.02097,"zip":"38401","miles_from_dt":27.79},{"city":"Nashville","state_name":"Tennessee","lat":36.1442,"lng":-86.73374,"zip":"37210","miles_from_dt":28.02},{"city":"Nashville","state_name":"Tennessee","lat":36.16253,"lng":-86.6637,"zip":"37229","miles_from_dt":28.11},{"city":"Auburntown","state_name":"Tennessee","lat":35.96355,"lng":-86.11364,"zip":"37016","miles_from_dt":28.33},{"city":"Nashville","state_name":"Tennessee","lat":36.16789,"lng":-86.66296,"zip":"37214","miles_from_dt":28.46},{"city":"Columbia","state_name":"Tennessee","lat":35.61521,"lng":-87.03179,"zip":"38402","miles_from_dt":28.71},{"city":"Lebanon","state_name":"Tennessee","lat":36.12439,"lng":-86.29707,"zip":"37090","miles_from_dt":28.73},{"city":"Mount Juliet","state_name":"Tennessee","lat":36.17791,"lng":-86.48872,"zip":"37122","miles_from_dt":28.75},{"city":"Nashville","state_name":"Tennessee","lat":36.13376,"lng":-86.80167,"zip":"37212","miles_from_dt":28.96},{"city":"Woodbury","state_name":"Tennessee","lat":35.82599,"lng":-86.0424,"zip":"37190","miles_from_dt":29.12},{"city":"Nashville","state_name":"Tennessee","lat":36.1411,"lng":-86.8029,"zip":"37232","miles_from_dt":29.44},{"city":"Nashville","state_name":"Tennessee","lat":36.14871,"lng":-86.7853,"zip":"37230","miles_from_dt":29.46},{"city":"Nashville","state_name":"Tennessee","lat":36.14338,"lng":-86.80336,"zip":"37240","miles_from_dt":29.59},{"city":"Nashville","state_name":"Tennessee","lat":36.14937,"lng":-86.78986,"zip":"37203","miles_from_dt":29.61},{"city":"Nashville","state_name":"Tennessee","lat":36.14925,"lng":-86.79283,"zip":"37202","miles_from_dt":29.68},{"city":"Nashville","state_name":"Tennessee","lat":36.15033,"lng":-86.79093,"zip":"37234","miles_from_dt":29.7},{"city":"Nashville","state_name":"Tennessee","lat":36.11075,"lng":-86.87274,"zip":"37205","miles_from_dt":29.78},{"city":"Nashville","state_name":"Tennessee","lat":36.15111,"lng":-86.79558,"zip":"37224","miles_from_dt":29.86},{"city":"Nashville","state_name":"Tennessee","lat":36.1481,"lng":-86.80545,"zip":"37235","miles_from_dt":29.93},{"city":"Nashville","state_name":"Tennessee","lat":36.15028,"lng":-86.80247,"zip":"37236","miles_from_dt":29.99}],"targetCityZipCode":"37153","targetCityState":"Tennessee"},"__N_SSG":true}