{"pageProps":{"stateName":"Tennessee","cityName":"whiteville","nearbyCities":[{"city":"Mercer","state_name":"Tennessee","lat":35.45908,"lng":-89.03709,"zip":"38392","miles_from_dt":8.99},{"city":"Toone","state_name":"Tennessee","lat":35.35144,"lng":-88.96205,"zip":"38381","miles_from_dt":11.03},{"city":"Bolivar","state_name":"Tennessee","lat":35.24455,"lng":-88.99879,"zip":"38008","miles_from_dt":12.48},{"city":"Somerville","state_name":"Tennessee","lat":35.25972,"lng":-89.3349,"zip":"38068","miles_from_dt":12.74},{"city":"Laconia","state_name":"Tennessee","lat":35.29216,"lng":-89.3688,"zip":"38045","miles_from_dt":13.24},{"city":"Stanton","state_name":"Tennessee","lat":35.46209,"lng":-89.37151,"zip":"38069","miles_from_dt":13.67},{"city":"Hickory Valley","state_name":"Tennessee","lat":35.15059,"lng":-89.13848,"zip":"38042","miles_from_dt":15.29},{"city":"Denmark","state_name":"Tennessee","lat":35.55026,"lng":-88.99033,"zip":"38391","miles_from_dt":15.43},{"city":"Medon","state_name":"Tennessee","lat":35.43877,"lng":-88.89029,"zip":"38356","miles_from_dt":15.67},{"city":"Brownsville","state_name":"Tennessee","lat":35.60959,"lng":-89.27085,"zip":"38012","miles_from_dt":17.62},{"city":"Braden","state_name":"Tennessee","lat":35.20171,"lng":-89.39514,"zip":"38010","miles_from_dt":17.92},{"city":"Silerton","state_name":"Tennessee","lat":35.36219,"lng":-88.8292,"zip":"38377","miles_from_dt":18.45},{"city":"Saulsbury","state_name":"Tennessee","lat":35.08561,"lng":-89.04804,"zip":"38067","miles_from_dt":20.66},{"city":"Grand Junction","state_name":"Tennessee","lat":35.0571,"lng":-89.18545,"zip":"38039","miles_from_dt":21.77},{"city":"Mason","state_name":"Tennessee","lat":35.38689,"lng":-89.544,"zip":"38049","miles_from_dt":21.95},{"city":"Jackson","state_name":"Tennessee","lat":35.59022,"lng":-88.86077,"zip":"38302","miles_from_dt":22.43},{"city":"Bells","state_name":"Tennessee","lat":35.69507,"lng":-89.09761,"zip":"38006","miles_from_dt":22.51},{"city":"Oakland","state_name":"Tennessee","lat":35.21214,"lng":-89.50468,"zip":"38060","miles_from_dt":22.59},{"city":"Jackson","state_name":"Tennessee","lat":35.5908,"lng":-88.8531,"zip":"38301","miles_from_dt":22.78},{"city":"Hornsby","state_name":"Tennessee","lat":35.20736,"lng":-88.80244,"zip":"38044","miles_from_dt":22.97},{"city":"La Grange","state_name":"Tennessee","lat":35.04598,"lng":-89.24408,"zip":"38046","miles_from_dt":23.02},{"city":"Jackson","state_name":"Tennessee","lat":35.57268,"lng":-88.8213,"zip":"38314","miles_from_dt":23.39},{"city":"Middleton","state_name":"Tennessee","lat":35.08574,"lng":-88.91308,"zip":"38052","miles_from_dt":24.04},{"city":"Williston","state_name":"Tennessee","lat":35.12301,"lng":-89.45633,"zip":"38076","miles_from_dt":24.16},{"city":"Macon","state_name":"Tennessee","lat":35.15183,"lng":-89.48949,"zip":"38048","miles_from_dt":24.22},{"city":"Jackson","state_name":"Tennessee","lat":35.59363,"lng":-88.82053,"zip":"38308","miles_from_dt":24.3},{"city":"Pinson","state_name":"Tennessee","lat":35.47797,"lng":-88.74461,"zip":"38366","miles_from_dt":24.32},{"city":"Fruitvale","state_name":"Tennessee","lat":35.71881,"lng":-89.06498,"zip":"38336","miles_from_dt":24.45},{"city":"Moscow","state_name":"Tennessee","lat":35.05381,"lng":-89.36772,"zip":"38057","miles_from_dt":25},{"city":"Jackson","state_name":"Tennessee","lat":35.63927,"lng":-88.82373,"zip":"38303","miles_from_dt":26.26},{"city":"Gallaway","state_name":"Tennessee","lat":35.32715,"lng":-89.61941,"zip":"38036","miles_from_dt":26.37},{"city":"Henderson","state_name":"Tennessee","lat":35.40021,"lng":-88.68226,"zip":"38340","miles_from_dt":26.8},{"city":"Michigan City","state_name":"Mississippi","lat":34.95851,"lng":-89.21746,"zip":"38647","miles_from_dt":28.72},{"city":"Gadsden","state_name":"Tennessee","lat":35.78515,"lng":-89.01149,"zip":"38337","miles_from_dt":29.62},{"city":"Covington","state_name":"Tennessee","lat":35.56114,"lng":-89.6304,"zip":"38019","miles_from_dt":29.78},{"city":"Rossville","state_name":"Tennessee","lat":35.07421,"lng":-89.53944,"zip":"38066","miles_from_dt":29.88},{"city":"Eads","state_name":"Tennessee","lat":35.18486,"lng":-89.63474,"zip":"38028","miles_from_dt":30}],"targetCityZipCode":"38075","targetCityState":"Tennessee"},"__N_SSG":true}