{"pageProps":{"stateName":"Pennsylvania","cityName":"gettysburg","nearbyCities":[{"city":"McKnightstown","state_name":"Pennsylvania","lat":39.86863,"lng":-77.32948,"zip":"17343","miles_from_dt":6.17},{"city":"Arendtsville","state_name":"Pennsylvania","lat":39.92615,"lng":-77.29755,"zip":"17303","miles_from_dt":7.78},{"city":"Littlestown","state_name":"Pennsylvania","lat":39.75566,"lng":-77.11183,"zip":"17340","miles_from_dt":7.86},{"city":"Cashtown","state_name":"Pennsylvania","lat":39.88481,"lng":-77.35878,"zip":"17310","miles_from_dt":8.07},{"city":"New Oxford","state_name":"Pennsylvania","lat":39.88918,"lng":-77.07896,"zip":"17350","miles_from_dt":8.92},{"city":"Fairfield","state_name":"Pennsylvania","lat":39.7695,"lng":-77.38749,"zip":"17320","miles_from_dt":9.46},{"city":"Orrtanna","state_name":"Pennsylvania","lat":39.88741,"lng":-77.38714,"zip":"17353","miles_from_dt":9.49},{"city":"Biglerville","state_name":"Pennsylvania","lat":39.94853,"lng":-77.314,"zip":"17307","miles_from_dt":9.55},{"city":"Peach Glen","state_name":"Pennsylvania","lat":39.97383,"lng":-77.23158,"zip":"17375","miles_from_dt":10.09},{"city":"Aspers","state_name":"Pennsylvania","lat":39.97696,"lng":-77.23099,"zip":"17304","miles_from_dt":10.31},{"city":"Bendersville","state_name":"Pennsylvania","lat":39.98383,"lng":-77.24966,"zip":"17306","miles_from_dt":10.85},{"city":"Emmitsburg","state_name":"Maryland","lat":39.68865,"lng":-77.33096,"zip":"21727","miles_from_dt":11.09},{"city":"Taneytown","state_name":"Maryland","lat":39.67169,"lng":-77.17317,"zip":"21787","miles_from_dt":11.13},{"city":"McSherrystown","state_name":"Pennsylvania","lat":39.80535,"lng":-77.01887,"zip":"17344","miles_from_dt":11.15},{"city":"Hanover","state_name":"Pennsylvania","lat":39.82421,"lng":-76.9907,"zip":"17333","miles_from_dt":12.54},{"city":"Hanover","state_name":"Pennsylvania","lat":39.7981,"lng":-76.9882,"zip":"17332","miles_from_dt":12.84},{"city":"Idaville","state_name":"Pennsylvania","lat":40.0132,"lng":-77.20289,"zip":"17337","miles_from_dt":12.86},{"city":"Hanover","state_name":"Pennsylvania","lat":39.8,"lng":-76.98219,"zip":"17334","miles_from_dt":13.13},{"city":"Hanover","state_name":"Pennsylvania","lat":39.79085,"lng":-76.98028,"zip":"17331","miles_from_dt":13.34},{"city":"York Springs","state_name":"Pennsylvania","lat":40.00037,"lng":-77.10633,"zip":"17372","miles_from_dt":13.52},{"city":"Hanover","state_name":"Pennsylvania","lat":39.80769,"lng":-76.97011,"zip":"17335","miles_from_dt":13.7},{"city":"Abbottstown","state_name":"Pennsylvania","lat":39.89119,"lng":-76.9815,"zip":"17301","miles_from_dt":13.74},{"city":"Blue Ridge Summit","state_name":"Pennsylvania","lat":39.74811,"lng":-77.47025,"zip":"17214","miles_from_dt":14.09},{"city":"Gardners","state_name":"Pennsylvania","lat":40.03616,"lng":-77.22772,"zip":"17324","miles_from_dt":14.39},{"city":"Fayetteville","state_name":"Pennsylvania","lat":39.89983,"lng":-77.49242,"zip":"17222","miles_from_dt":14.99},{"city":"East Berlin","state_name":"Pennsylvania","lat":39.96721,"lng":-77.00226,"zip":"17316","miles_from_dt":15.32},{"city":"South Mountain","state_name":"Pennsylvania","lat":39.85981,"lng":-77.51164,"zip":"17261","miles_from_dt":15.33},{"city":"Rocky Ridge","state_name":"Maryland","lat":39.61576,"lng":-77.33754,"zip":"21778","miles_from_dt":15.77},{"city":"Keymar","state_name":"Maryland","lat":39.59902,"lng":-77.25906,"zip":"21757","miles_from_dt":15.87},{"city":"Westminster","state_name":"Maryland","lat":39.6466,"lng":-77.03217,"zip":"21158","miles_from_dt":16.22},{"city":"Sabillasville","state_name":"Maryland","lat":39.67676,"lng":-77.46777,"zip":"21780","miles_from_dt":16.54},{"city":"Mont Alto","state_name":"Pennsylvania","lat":39.83705,"lng":-77.54091,"zip":"17237","miles_from_dt":16.74},{"city":"Cascade","state_name":"Maryland","lat":39.70501,"lng":-77.49977,"zip":"21719","miles_from_dt":16.83},{"city":"Rouzerville","state_name":"Pennsylvania","lat":39.73668,"lng":-77.52338,"zip":"17250","miles_from_dt":17.01},{"city":"Ladiesburg","state_name":"Maryland","lat":39.57501,"lng":-77.26392,"zip":"21759","miles_from_dt":17.54},{"city":"Thomasville","state_name":"Pennsylvania","lat":39.92985,"lng":-76.90049,"zip":"17364","miles_from_dt":18.7},{"city":"Mount Holly Springs","state_name":"Pennsylvania","lat":40.09837,"lng":-77.20527,"zip":"17065","miles_from_dt":18.71},{"city":"Waynesboro","state_name":"Pennsylvania","lat":39.77421,"lng":-77.57354,"zip":"17268","miles_from_dt":18.84},{"city":"Quincy","state_name":"Pennsylvania","lat":39.79883,"lng":-77.57933,"zip":"17247","miles_from_dt":18.88},{"city":"Spring Grove","state_name":"Pennsylvania","lat":39.85088,"lng":-76.86872,"zip":"17362","miles_from_dt":19.09},{"city":"Thurmont","state_name":"Maryland","lat":39.59429,"lng":-77.41958,"zip":"21788","miles_from_dt":19.11},{"city":"New Midway","state_name":"Maryland","lat":39.55622,"lng":-77.30221,"zip":"21775","miles_from_dt":19.15},{"city":"Union Bridge","state_name":"Maryland","lat":39.54267,"lng":-77.18713,"zip":"21791","miles_from_dt":19.77},{"city":"Franklintown","state_name":"Pennsylvania","lat":40.07523,"lng":-77.02669,"zip":"17323","miles_from_dt":20.11},{"city":"Woodsboro","state_name":"Maryland","lat":39.53858,"lng":-77.29985,"zip":"21798","miles_from_dt":20.32},{"city":"Glenville","state_name":"Pennsylvania","lat":39.76295,"lng":-76.85374,"zip":"17329","miles_from_dt":20.33},{"city":"Walnut Bottom","state_name":"Pennsylvania","lat":40.08745,"lng":-77.412,"zip":"17266","miles_from_dt":20.46},{"city":"Codorus","state_name":"Pennsylvania","lat":39.81709,"lng":-76.84191,"zip":"17311","miles_from_dt":20.47},{"city":"Shippensburg","state_name":"Pennsylvania","lat":40.0508,"lng":-77.49027,"zip":"17257","miles_from_dt":20.82},{"city":"Dillsburg","state_name":"Pennsylvania","lat":40.09078,"lng":-77.02462,"zip":"17019","miles_from_dt":21.08},{"city":"Zullinger","state_name":"Pennsylvania","lat":39.76764,"lng":-77.62183,"zip":"17272","miles_from_dt":21.45},{"city":"Smithsburg","state_name":"Maryland","lat":39.64885,"lng":-77.55903,"zip":"21783","miles_from_dt":21.59},{"city":"Scotland","state_name":"Pennsylvania","lat":39.96853,"lng":-77.58917,"zip":"17254","miles_from_dt":21.59},{"city":"Boiling Springs","state_name":"Pennsylvania","lat":40.13428,"lng":-77.11801,"zip":"17007","miles_from_dt":21.93},{"city":"Wellsville","state_name":"Pennsylvania","lat":40.05696,"lng":-76.9392,"zip":"17365","miles_from_dt":21.98},{"city":"New Windsor","state_name":"Maryland","lat":39.51861,"lng":-77.10376,"zip":"21776","miles_from_dt":22.3},{"city":"Lineboro","state_name":"Maryland","lat":39.71748,"lng":-76.83,"zip":"21088","miles_from_dt":22.43},{"city":"Manchester","state_name":"Maryland","lat":39.68732,"lng":-76.84564,"zip":"21102","miles_from_dt":22.47},{"city":"Cavetown","state_name":"Maryland","lat":39.64237,"lng":-77.58285,"zip":"21720","miles_from_dt":22.89},{"city":"Rossville","state_name":"Pennsylvania","lat":40.06587,"lng":-76.92031,"zip":"17358","miles_from_dt":23.12},{"city":"Dover","state_name":"Pennsylvania","lat":40.01859,"lng":-76.8685,"zip":"17315","miles_from_dt":23.13},{"city":"Westminster","state_name":"Maryland","lat":39.54889,"lng":-76.98162,"zip":"21157","miles_from_dt":23.24},{"city":"York","state_name":"Pennsylvania","lat":39.93451,"lng":-76.80203,"zip":"17408","miles_from_dt":23.73},{"city":"Shady Grove","state_name":"Pennsylvania","lat":39.77776,"lng":-77.66873,"zip":"17256","miles_from_dt":23.79},{"city":"York New Salem","state_name":"Pennsylvania","lat":39.90258,"lng":-76.78797,"zip":"17371","miles_from_dt":23.88},{"city":"Libertytown","state_name":"Maryland","lat":39.48058,"lng":-77.24842,"zip":"21762","miles_from_dt":23.97},{"city":"Walkersville","state_name":"Maryland","lat":39.48963,"lng":-77.34357,"zip":"21793","miles_from_dt":24.14},{"city":"Unionville","state_name":"Maryland","lat":39.47481,"lng":-77.18722,"zip":"21792","miles_from_dt":24.43},{"city":"Carlisle","state_name":"Pennsylvania","lat":40.18392,"lng":-77.23234,"zip":"17015","miles_from_dt":24.58},{"city":"Chambersburg","state_name":"Pennsylvania","lat":39.92133,"lng":-77.67442,"zip":"17202","miles_from_dt":24.68},{"city":"Chewsville","state_name":"Maryland","lat":39.64822,"lng":-77.62758,"zip":"21721","miles_from_dt":24.69},{"city":"Chambersburg","state_name":"Pennsylvania","lat":39.96229,"lng":-77.65677,"zip":"17201","miles_from_dt":24.69},{"city":"Hampstead","state_name":"Maryland","lat":39.61746,"lng":-76.84351,"zip":"21074","miles_from_dt":25.03},{"city":"Marion","state_name":"Pennsylvania","lat":39.85699,"lng":-77.69743,"zip":"17235","miles_from_dt":25.13},{"city":"Seven Valleys","state_name":"Pennsylvania","lat":39.85196,"lng":-76.75377,"zip":"17360","miles_from_dt":25.19},{"city":"Glen Rock","state_name":"Pennsylvania","lat":39.77934,"lng":-76.75373,"zip":"17327","miles_from_dt":25.37},{"city":"Hagerstown","state_name":"Maryland","lat":39.67363,"lng":-77.65928,"zip":"21742","miles_from_dt":25.38},{"city":"Grantham","state_name":"Pennsylvania","lat":40.15653,"lng":-76.99316,"zip":"17027","miles_from_dt":25.85},{"city":"Newville","state_name":"Pennsylvania","lat":40.17793,"lng":-77.40326,"zip":"17241","miles_from_dt":25.93},{"city":"Plainfield","state_name":"Pennsylvania","lat":40.20121,"lng":-77.28322,"zip":"17081","miles_from_dt":25.95},{"city":"Myersville","state_name":"Maryland","lat":39.53725,"lng":-77.55301,"zip":"21773","miles_from_dt":26.54},{"city":"Frederick","state_name":"Maryland","lat":39.44729,"lng":-77.33512,"zip":"21701","miles_from_dt":26.87},{"city":"Frederick","state_name":"Maryland","lat":39.48019,"lng":-77.4578,"zip":"21702","miles_from_dt":26.96},{"city":"Mechanicsburg","state_name":"Pennsylvania","lat":40.17756,"lng":-76.99789,"zip":"17055","miles_from_dt":27.02},{"city":"York","state_name":"Pennsylvania","lat":40.00496,"lng":-76.77217,"zip":"17404","miles_from_dt":27.06},{"city":"State Line","state_name":"Pennsylvania","lat":39.72409,"lng":-77.71727,"zip":"17263","miles_from_dt":27.09},{"city":"York","state_name":"Pennsylvania","lat":39.8855,"lng":-76.71244,"zip":"17407","miles_from_dt":27.62},{"city":"Loganville","state_name":"Pennsylvania","lat":39.85275,"lng":-76.70756,"zip":"17342","miles_from_dt":27.65},{"city":"York","state_name":"Pennsylvania","lat":39.95893,"lng":-76.73359,"zip":"17401","miles_from_dt":27.71},{"city":"York","state_name":"Pennsylvania","lat":39.96008,"lng":-76.7301,"zip":"17405","miles_from_dt":27.91},{"city":"Lewisberry","state_name":"Pennsylvania","lat":40.13438,"lng":-76.88188,"zip":"17339","miles_from_dt":27.97},{"city":"York","state_name":"Pennsylvania","lat":39.92142,"lng":-76.71277,"zip":"17403","miles_from_dt":28.06},{"city":"Greencastle","state_name":"Pennsylvania","lat":39.78706,"lng":-77.75709,"zip":"17225","miles_from_dt":28.38},{"city":"Lurgan","state_name":"Pennsylvania","lat":40.09462,"lng":-77.63341,"zip":"17232","miles_from_dt":28.39},{"city":"Finksburg","state_name":"Maryland","lat":39.49568,"lng":-76.91057,"zip":"21048","miles_from_dt":28.43},{"city":"Upperco","state_name":"Maryland","lat":39.57183,"lng":-76.80597,"zip":"21155","miles_from_dt":28.52},{"city":"Carlisle","state_name":"Pennsylvania","lat":40.241,"lng":-77.19286,"zip":"17013","miles_from_dt":28.58},{"city":"Railroad","state_name":"Pennsylvania","lat":39.75978,"lng":-76.696,"zip":"17355","miles_from_dt":28.61},{"city":"Freeland","state_name":"Maryland","lat":39.69296,"lng":-76.71567,"zip":"21053","miles_from_dt":28.74},{"city":"New Market","state_name":"Maryland","lat":39.4088,"lng":-77.27844,"zip":"21774","miles_from_dt":29.03},{"city":"New Kingstown","state_name":"Pennsylvania","lat":40.23385,"lng":-77.08178,"zip":"17072","miles_from_dt":29.06},{"city":"Maugansville","state_name":"Maryland","lat":39.69773,"lng":-77.74638,"zip":"21767","miles_from_dt":29.1},{"city":"Pleasant Hall","state_name":"Pennsylvania","lat":40.0629,"lng":-77.68255,"zip":"17246","miles_from_dt":29.16},{"city":"Hagerstown","state_name":"Maryland","lat":39.64139,"lng":-77.71879,"zip":"21741","miles_from_dt":29.21},{"city":"Orrstown","state_name":"Pennsylvania","lat":40.08595,"lng":-77.66562,"zip":"17244","miles_from_dt":29.35},{"city":"Frederick","state_name":"Maryland","lat":39.42776,"lng":-77.41549,"zip":"21709","miles_from_dt":29.37},{"city":"Newburg","state_name":"Pennsylvania","lat":40.15411,"lng":-77.58227,"zip":"17240","miles_from_dt":29.39},{"city":"New Freedom","state_name":"Pennsylvania","lat":39.75536,"lng":-76.68003,"zip":"17349","miles_from_dt":29.5},{"city":"Shrewsbury","state_name":"Pennsylvania","lat":39.76617,"lng":-76.67702,"zip":"17361","miles_from_dt":29.54},{"city":"Emigsville","state_name":"Pennsylvania","lat":40.01847,"lng":-76.7265,"zip":"17318","miles_from_dt":29.64},{"city":"Funkstown","state_name":"Maryland","lat":39.60583,"lng":-77.70382,"zip":"21734","miles_from_dt":29.68}],"targetCityZipCode":"17325","targetCityState":"Pennsylvania"},"__N_SSG":true}