{"pageProps":{"stateName":"Pennsylvania","cityName":"kelton","nearbyCities":[{"city":"New London","state_name":"Pennsylvania","lat":39.78001,"lng":-75.88005,"zip":"19360","miles_from_dt":2.03},{"city":"Lincoln University","state_name":"Pennsylvania","lat":39.78036,"lng":-75.89054,"zip":"19352","miles_from_dt":2.13},{"city":"West Grove","state_name":"Pennsylvania","lat":39.83683,"lng":-75.83962,"zip":"19390","miles_from_dt":2.73},{"city":"Chatham","state_name":"Pennsylvania","lat":39.85597,"lng":-75.82292,"zip":"19318","miles_from_dt":4.3},{"city":"Cochranville","state_name":"Pennsylvania","lat":39.87359,"lng":-75.91695,"zip":"19330","miles_from_dt":4.93},{"city":"Kemblesville","state_name":"Pennsylvania","lat":39.74633,"lng":-75.82436,"zip":"19347","miles_from_dt":5.16},{"city":"Oxford","state_name":"Pennsylvania","lat":39.7864,"lng":-75.97279,"zip":"19363","miles_from_dt":5.36},{"city":"Landenberg","state_name":"Pennsylvania","lat":39.76244,"lng":-75.79528,"zip":"19350","miles_from_dt":5.4},{"city":"Avondale","state_name":"Pennsylvania","lat":39.82163,"lng":-75.76887,"zip":"19311","miles_from_dt":5.79},{"city":"Lewisville","state_name":"Pennsylvania","lat":39.72265,"lng":-75.8748,"zip":"19351","miles_from_dt":5.98},{"city":"Toughkenamon","state_name":"Pennsylvania","lat":39.83333,"lng":-75.75267,"zip":"19374","miles_from_dt":6.79},{"city":"Kennett Square","state_name":"Pennsylvania","lat":39.86706,"lng":-75.71763,"zip":"19348","miles_from_dt":9.34},{"city":"Unionville","state_name":"Pennsylvania","lat":39.8996,"lng":-75.73993,"zip":"19375","miles_from_dt":9.57},{"city":"Newark","state_name":"Delaware","lat":39.71416,"lng":-75.74145,"zip":"19714","miles_from_dt":9.74},{"city":"Newark","state_name":"Delaware","lat":39.71379,"lng":-75.74033,"zip":"19711","miles_from_dt":9.8},{"city":"Newark","state_name":"Delaware","lat":39.71404,"lng":-75.73776,"zip":"19715","miles_from_dt":9.89},{"city":"Atglen","state_name":"Pennsylvania","lat":39.93478,"lng":-75.97038,"zip":"19310","miles_from_dt":9.99},{"city":"Hockessin","state_name":"Delaware","lat":39.78512,"lng":-75.68147,"zip":"19707","miles_from_dt":10.51},{"city":"Pomeroy","state_name":"Pennsylvania","lat":39.96285,"lng":-75.88395,"zip":"19367","miles_from_dt":10.6},{"city":"Christiana","state_name":"Pennsylvania","lat":39.90923,"lng":-76.03073,"zip":"17509","miles_from_dt":10.71},{"city":"Kirkwood","state_name":"Pennsylvania","lat":39.84345,"lng":-76.07316,"zip":"17536","miles_from_dt":10.72},{"city":"Elk Mills","state_name":"Maryland","lat":39.65675,"lng":-75.83449,"zip":"21920","miles_from_dt":10.76},{"city":"Nottingham","state_name":"Pennsylvania","lat":39.75175,"lng":-76.06576,"zip":"19362","miles_from_dt":10.83},{"city":"Newark","state_name":"Delaware","lat":39.68121,"lng":-75.75343,"zip":"19717","miles_from_dt":11.01},{"city":"Childs","state_name":"Maryland","lat":39.64921,"lng":-75.87095,"zip":"21916","miles_from_dt":11.05},{"city":"Parkesburg","state_name":"Pennsylvania","lat":39.9655,"lng":-75.92766,"zip":"19365","miles_from_dt":11.11},{"city":"Modena","state_name":"Pennsylvania","lat":39.96362,"lng":-75.80659,"zip":"19358","miles_from_dt":11.27},{"city":"Newark","state_name":"Delaware","lat":39.68567,"lng":-75.73728,"zip":"19725","miles_from_dt":11.31},{"city":"Coatesville","state_name":"Pennsylvania","lat":39.97046,"lng":-75.83069,"zip":"19320","miles_from_dt":11.38},{"city":"New Castle","state_name":"Delaware","lat":39.68458,"lng":-75.73524,"zip":"19726","miles_from_dt":11.43},{"city":"Sadsburyville","state_name":"Pennsylvania","lat":39.98082,"lng":-75.89496,"zip":"19369","miles_from_dt":11.87},{"city":"Rising Sun","state_name":"Maryland","lat":39.68931,"lng":-76.03886,"zip":"21911","miles_from_dt":11.97},{"city":"Newark","state_name":"Delaware","lat":39.66779,"lng":-75.74595,"zip":"19716","miles_from_dt":11.99},{"city":"Newark","state_name":"Delaware","lat":39.68293,"lng":-75.71918,"zip":"19712","miles_from_dt":12.1},{"city":"Wilmington","state_name":"Delaware","lat":39.73777,"lng":-75.66596,"zip":"19808","miles_from_dt":12.25},{"city":"Yorklyn","state_name":"Delaware","lat":39.78031,"lng":-75.64274,"zip":"19736","miles_from_dt":12.6},{"city":"Elkton","state_name":"Maryland","lat":39.62568,"lng":-75.85904,"zip":"21921","miles_from_dt":12.71},{"city":"Mendenhall","state_name":"Pennsylvania","lat":39.85343,"lng":-75.64103,"zip":"19357","miles_from_dt":12.89},{"city":"Newark","state_name":"Delaware","lat":39.67097,"lng":-75.70972,"zip":"19713","miles_from_dt":13.04},{"city":"Wilmington","state_name":"Delaware","lat":39.68227,"lng":-75.69312,"zip":"19891","miles_from_dt":13.13},{"city":"Newark","state_name":"Delaware","lat":39.6665,"lng":-75.70752,"zip":"19718","miles_from_dt":13.35},{"city":"Wagontown","state_name":"Pennsylvania","lat":40.00958,"lng":-75.84113,"zip":"19376","miles_from_dt":13.94},{"city":"Elkton","state_name":"Maryland","lat":39.60804,"lng":-75.83567,"zip":"21922","miles_from_dt":14.06},{"city":"Wilmington","state_name":"Delaware","lat":39.79767,"lng":-75.61284,"zip":"19807","miles_from_dt":14.06},{"city":"Bart","state_name":"Pennsylvania","lat":39.93825,"lng":-76.08325,"zip":"17503","miles_from_dt":14.14},{"city":"Thorndale","state_name":"Pennsylvania","lat":39.99941,"lng":-75.75972,"zip":"19372","miles_from_dt":14.51},{"city":"Pocopson","state_name":"Pennsylvania","lat":39.90149,"lng":-75.6267,"zip":"19366","miles_from_dt":14.73},{"city":"Winterthur","state_name":"Delaware","lat":39.80666,"lng":-75.5973,"zip":"19735","miles_from_dt":14.86},{"city":"Chadds Ford","state_name":"Pennsylvania","lat":39.85722,"lng":-75.60244,"zip":"19317","miles_from_dt":14.95},{"city":"Quarryville","state_name":"Pennsylvania","lat":39.86924,"lng":-76.1476,"zip":"17566","miles_from_dt":15},{"city":"Wilmington","state_name":"Delaware","lat":39.7166,"lng":-75.62094,"zip":"19804","miles_from_dt":15.04},{"city":"Newark","state_name":"Delaware","lat":39.62199,"lng":-75.72803,"zip":"19702","miles_from_dt":15.16},{"city":"Colora","state_name":"Maryland","lat":39.67106,"lng":-76.09823,"zip":"21917","miles_from_dt":15.18},{"city":"Gap","state_name":"Pennsylvania","lat":40.01495,"lng":-75.99333,"zip":"17527","miles_from_dt":15.48},{"city":"Montchanin","state_name":"Delaware","lat":39.78964,"lng":-75.58458,"zip":"19710","miles_from_dt":15.6},{"city":"Wilmington","state_name":"Delaware","lat":39.74523,"lng":-75.59373,"zip":"19805","miles_from_dt":15.69},{"city":"North East","state_name":"Maryland","lat":39.58593,"lng":-75.95821,"zip":"21901","miles_from_dt":16.02},{"city":"Rockland","state_name":"Delaware","lat":39.80033,"lng":-75.57455,"zip":"19732","miles_from_dt":16.08},{"city":"West Chester","state_name":"Pennsylvania","lat":39.92766,"lng":-75.61475,"zip":"19382","miles_from_dt":16.13},{"city":"Paradise","state_name":"Pennsylvania","lat":39.97636,"lng":-76.09264,"zip":"17562","miles_from_dt":16.27},{"city":"Kinzers","state_name":"Pennsylvania","lat":40.01224,"lng":-76.03813,"zip":"17535","miles_from_dt":16.42},{"city":"Wilmington","state_name":"Delaware","lat":39.6836,"lng":-75.61307,"zip":"19892","miles_from_dt":16.5},{"city":"Port Deposit","state_name":"Maryland","lat":39.62303,"lng":-76.07812,"zip":"21904","miles_from_dt":16.75},{"city":"Peach Bottom","state_name":"Pennsylvania","lat":39.76404,"lng":-76.18649,"zip":"17563","miles_from_dt":16.79},{"city":"Downingtown","state_name":"Pennsylvania","lat":40.02271,"lng":-75.72045,"zip":"19335","miles_from_dt":16.9},{"city":"Wilmington","state_name":"Delaware","lat":39.762,"lng":-75.56336,"zip":"19806","miles_from_dt":16.99},{"city":"Brandamore","state_name":"Pennsylvania","lat":40.05597,"lng":-75.83804,"zip":"19316","miles_from_dt":17.14},{"city":"Charlestown","state_name":"Maryland","lat":39.57256,"lng":-75.98158,"zip":"21914","miles_from_dt":17.27},{"city":"West Chester","state_name":"Pennsylvania","lat":39.94303,"lng":-75.60155,"zip":"19383","miles_from_dt":17.28},{"city":"Wilmington","state_name":"Delaware","lat":39.74769,"lng":-75.55791,"zip":"19893","miles_from_dt":17.49},{"city":"Wilmington","state_name":"Delaware","lat":39.79805,"lng":-75.54565,"zip":"19897","miles_from_dt":17.62},{"city":"Conowingo","state_name":"Maryland","lat":39.68327,"lng":-76.16662,"zip":"21918","miles_from_dt":17.73},{"city":"Wilmington","state_name":"Delaware","lat":39.79912,"lng":-75.5422,"zip":"19803","miles_from_dt":17.81},{"city":"Wilmington","state_name":"Delaware","lat":39.74384,"lng":-75.54947,"zip":"19895","miles_from_dt":17.99},{"city":"Wilmington","state_name":"Delaware","lat":39.74245,"lng":-75.54941,"zip":"19898","miles_from_dt":18.02},{"city":"Wilmington","state_name":"Delaware","lat":39.73822,"lng":-75.55029,"zip":"19890","miles_from_dt":18.05},{"city":"Wilmington","state_name":"Delaware","lat":39.74827,"lng":-75.54565,"zip":"19886","miles_from_dt":18.11},{"city":"Wilmington","state_name":"Delaware","lat":39.74328,"lng":-75.54713,"zip":"19885","miles_from_dt":18.12},{"city":"Bear","state_name":"Delaware","lat":39.58427,"lng":-75.69914,"zip":"19701","miles_from_dt":18.18},{"city":"Wilmington","state_name":"Delaware","lat":39.74852,"lng":-75.54409,"zip":"19894","miles_from_dt":18.19},{"city":"Wilmington","state_name":"Delaware","lat":39.74325,"lng":-75.54538,"zip":"19884","miles_from_dt":18.21},{"city":"Wilmington","state_name":"Delaware","lat":39.73563,"lng":-75.54766,"zip":"19899","miles_from_dt":18.23},{"city":"New Castle","state_name":"Delaware","lat":39.645,"lng":-75.60678,"zip":"19720","miles_from_dt":18.31},{"city":"Wilmington","state_name":"Delaware","lat":39.72782,"lng":-75.54615,"zip":"19801","miles_from_dt":18.47},{"city":"Perryville","state_name":"Maryland","lat":39.57274,"lng":-76.04378,"zip":"21903","miles_from_dt":18.6},{"city":"Lyndell","state_name":"Pennsylvania","lat":40.05937,"lng":-75.74483,"zip":"19354","miles_from_dt":18.61},{"city":"Wilmington","state_name":"Delaware","lat":39.73018,"lng":-75.53862,"zip":"19880","miles_from_dt":18.8},{"city":"Wilmington","state_name":"Delaware","lat":39.75715,"lng":-75.52873,"zip":"19802","miles_from_dt":18.86},{"city":"Honey Brook","state_name":"Pennsylvania","lat":40.08279,"lng":-75.88338,"zip":"19344","miles_from_dt":18.87},{"city":"Wilmington","state_name":"Delaware","lat":39.72894,"lng":-75.53734,"zip":"19850","miles_from_dt":18.89},{"city":"Wilmington","state_name":"Delaware","lat":39.75842,"lng":-75.52771,"zip":"19896","miles_from_dt":18.9},{"city":"West Chester","state_name":"Pennsylvania","lat":39.98594,"lng":-75.60358,"zip":"19380","miles_from_dt":18.94},{"city":"Strasburg","state_name":"Pennsylvania","lat":39.95938,"lng":-76.18032,"zip":"17579","miles_from_dt":19.18},{"city":"New Castle","state_name":"Delaware","lat":39.66366,"lng":-75.5682,"zip":"19721","miles_from_dt":19.26},{"city":"Westtown","state_name":"Pennsylvania","lat":39.93217,"lng":-75.54945,"zip":"19395","miles_from_dt":19.34},{"city":"Thornton","state_name":"Pennsylvania","lat":39.90674,"lng":-75.53255,"zip":"19373","miles_from_dt":19.49},{"city":"Wilmington","state_name":"Delaware","lat":39.81855,"lng":-75.50628,"zip":"19810","miles_from_dt":19.71},{"city":"Concordville","state_name":"Pennsylvania","lat":39.88672,"lng":-75.51889,"zip":"19340","miles_from_dt":19.75},{"city":"Concordville","state_name":"Pennsylvania","lat":39.89003,"lng":-75.52008,"zip":"19331","miles_from_dt":19.76},{"city":"Gordonville","state_name":"Pennsylvania","lat":40.04036,"lng":-76.10008,"zip":"17529","miles_from_dt":19.88},{"city":"New Providence","state_name":"Pennsylvania","lat":39.91117,"lng":-76.22712,"zip":"17560","miles_from_dt":19.92},{"city":"Intercourse","state_name":"Pennsylvania","lat":40.03665,"lng":-76.11214,"zip":"17534","miles_from_dt":20.06},{"city":"Ronks","state_name":"Pennsylvania","lat":40.00937,"lng":-76.15105,"zip":"17572","miles_from_dt":20.08},{"city":"Wilmington","state_name":"Delaware","lat":39.75801,"lng":-75.50218,"zip":"19809","miles_from_dt":20.24},{"city":"Perry Point","state_name":"Maryland","lat":39.55229,"lng":-76.06157,"zip":"21902","miles_from_dt":20.29},{"city":"Drumore","state_name":"Pennsylvania","lat":39.80519,"lng":-76.25932,"zip":"17518","miles_from_dt":20.37},{"city":"West Chester","state_name":"Pennsylvania","lat":39.99742,"lng":-75.58076,"zip":"19381","miles_from_dt":20.38},{"city":"Exton","state_name":"Pennsylvania","lat":40.04213,"lng":-75.63814,"zip":"19341","miles_from_dt":20.45},{"city":"Cheyney","state_name":"Pennsylvania","lat":39.92723,"lng":-75.52319,"zip":"19319","miles_from_dt":20.47},{"city":"Lionville","state_name":"Pennsylvania","lat":40.03277,"lng":-75.62202,"zip":"19353","miles_from_dt":20.5},{"city":"Garnet Valley","state_name":"Pennsylvania","lat":39.85048,"lng":-75.4921,"zip":"19060","miles_from_dt":20.65},{"city":"Concordville","state_name":"Pennsylvania","lat":39.89912,"lng":-75.5042,"zip":"19339","miles_from_dt":20.74},{"city":"Glen Mills","state_name":"Pennsylvania","lat":39.90458,"lng":-75.50243,"zip":"19342","miles_from_dt":20.95},{"city":"Saint Georges","state_name":"Delaware","lat":39.55928,"lng":-75.65143,"zip":"19733","miles_from_dt":21.01},{"city":"Glenmoore","state_name":"Pennsylvania","lat":40.10203,"lng":-75.75461,"zip":"19343","miles_from_dt":21.21},{"city":"Refton","state_name":"Pennsylvania","lat":39.94806,"lng":-76.23416,"zip":"17568","miles_from_dt":21.28},{"city":"Chesapeake City","state_name":"Maryland","lat":39.50095,"lng":-75.84764,"zip":"21915","miles_from_dt":21.33},{"city":"Darlington","state_name":"Maryland","lat":39.64905,"lng":-76.22261,"zip":"21034","miles_from_dt":21.5},{"city":"Lancaster","state_name":"Pennsylvania","lat":40.02885,"lng":-76.16733,"zip":"17573","miles_from_dt":21.63},{"city":"Uwchland","state_name":"Pennsylvania","lat":40.09186,"lng":-75.6913,"zip":"19480","miles_from_dt":21.83},{"city":"Deepwater","state_name":"New Jersey","lat":39.68825,"lng":-75.49761,"zip":"08023","miles_from_dt":21.84},{"city":"Narvon","state_name":"Pennsylvania","lat":40.12075,"lng":-75.96514,"zip":"17555","miles_from_dt":21.99},{"city":"Havre De Grace","state_name":"Maryland","lat":39.56911,"lng":-76.14776,"zip":"21078","miles_from_dt":21.99},{"city":"Claymont","state_name":"Delaware","lat":39.8043,"lng":-75.45794,"zip":"19703","miles_from_dt":22.28},{"city":"Immaculata","state_name":"Pennsylvania","lat":40.02967,"lng":-75.56955,"zip":"19345","miles_from_dt":22.29},{"city":"Holtwood","state_name":"Pennsylvania","lat":39.85731,"lng":-76.2923,"zip":"17532","miles_from_dt":22.36},{"city":"Delaware City","state_name":"Delaware","lat":39.5715,"lng":-75.5905,"zip":"19706","miles_from_dt":22.4},{"city":"Chester Heights","state_name":"Pennsylvania","lat":39.89078,"lng":-75.46295,"zip":"19017","miles_from_dt":22.7},{"city":"Lampeter","state_name":"Pennsylvania","lat":39.98673,"lng":-76.23869,"zip":"17537","miles_from_dt":22.81},{"city":"New Holland","state_name":"Pennsylvania","lat":40.10328,"lng":-76.07543,"zip":"17557","miles_from_dt":22.86},{"city":"Southeastern","state_name":"Pennsylvania","lat":39.98224,"lng":-75.50887,"zip":"19397","miles_from_dt":22.89},{"city":"Goodville","state_name":"Pennsylvania","lat":40.12811,"lng":-75.99895,"zip":"17528","miles_from_dt":22.93},{"city":"Willow Street","state_name":"Pennsylvania","lat":39.95981,"lng":-76.26463,"zip":"17584","miles_from_dt":23.09},{"city":"Smoketown","state_name":"Pennsylvania","lat":40.03561,"lng":-76.19782,"zip":"17576","miles_from_dt":23.13},{"city":"Blue Ball","state_name":"Pennsylvania","lat":40.11718,"lng":-76.0527,"zip":"17506","miles_from_dt":23.21},{"city":"Pennsville","state_name":"New Jersey","lat":39.62494,"lng":-75.50902,"zip":"08070","miles_from_dt":23.35},{"city":"Gradyville","state_name":"Pennsylvania","lat":39.94291,"lng":-75.4676,"zip":"19039","miles_from_dt":23.61},{"city":"Marcus Hook","state_name":"Pennsylvania","lat":39.82741,"lng":-75.432,"zip":"19061","miles_from_dt":23.68},{"city":"Lenni","state_name":"Pennsylvania","lat":39.89721,"lng":-75.44532,"zip":"19052","miles_from_dt":23.72},{"city":"Chester Springs","state_name":"Pennsylvania","lat":40.10383,"lng":-75.64476,"zip":"19425","miles_from_dt":23.75},{"city":"Kirkwood","state_name":"Delaware","lat":39.49842,"lng":-75.68489,"zip":"19708","miles_from_dt":23.76},{"city":"Aston","state_name":"Pennsylvania","lat":39.8637,"lng":-75.4338,"zip":"19014","miles_from_dt":23.84},{"city":"Penns Grove","state_name":"New Jersey","lat":39.70209,"lng":-75.4501,"zip":"08069","miles_from_dt":23.88},{"city":"Valley Forge","state_name":"Pennsylvania","lat":40.054,"lng":-75.55746,"zip":"19495","miles_from_dt":23.92},{"city":"Valley Forge","state_name":"Pennsylvania","lat":40.05394,"lng":-75.55694,"zip":"19493","miles_from_dt":23.94},{"city":"Bird In Hand","state_name":"Pennsylvania","lat":40.05915,"lng":-76.18999,"zip":"17505","miles_from_dt":23.96},{"city":"Valley Forge","state_name":"Pennsylvania","lat":40.05458,"lng":-75.55688,"zip":"19494","miles_from_dt":23.97},{"city":"Whiteford","state_name":"Maryland","lat":39.70728,"lng":-76.30754,"zip":"21160","miles_from_dt":24.01},{"city":"Witmer","state_name":"Pennsylvania","lat":40.04718,"lng":-76.21116,"zip":"17585","miles_from_dt":24.19},{"city":"Lancaster","state_name":"Pennsylvania","lat":40.01486,"lng":-76.24632,"zip":"17602","miles_from_dt":24.23},{"city":"East Earl","state_name":"Pennsylvania","lat":40.14278,"lng":-76.02145,"zip":"17519","miles_from_dt":24.26},{"city":"Delta","state_name":"Pennsylvania","lat":39.75469,"lng":-76.32852,"zip":"17314","miles_from_dt":24.35},{"city":"Middletown","state_name":"Delaware","lat":39.48923,"lng":-75.68314,"zip":"19709","miles_from_dt":24.37},{"city":"Elverson","state_name":"Pennsylvania","lat":40.15968,"lng":-75.79959,"zip":"19520","miles_from_dt":24.51},{"city":"Malvern","state_name":"Pennsylvania","lat":40.0466,"lng":-75.5302,"zip":"19355","miles_from_dt":24.62},{"city":"Pequea","state_name":"Pennsylvania","lat":39.89191,"lng":-76.32994,"zip":"17565","miles_from_dt":24.77},{"city":"Morgantown","state_name":"Pennsylvania","lat":40.1697,"lng":-75.89635,"zip":"19543","miles_from_dt":24.88},{"city":"Pedricktown","state_name":"New Jersey","lat":39.7388,"lng":-75.41281,"zip":"08067","miles_from_dt":25.16},{"city":"Edgemont","state_name":"Pennsylvania","lat":39.97442,"lng":-75.45261,"zip":"19028","miles_from_dt":25.24},{"city":"Port Penn","state_name":"Delaware","lat":39.5102,"lng":-75.59616,"zip":"19731","miles_from_dt":25.48},{"city":"Birchrunville","state_name":"Pennsylvania","lat":40.13093,"lng":-75.64029,"zip":"19421","miles_from_dt":25.49},{"city":"Churchville","state_name":"Maryland","lat":39.56832,"lng":-76.24162,"zip":"21028","miles_from_dt":25.6},{"city":"Terre Hill","state_name":"Pennsylvania","lat":40.15617,"lng":-76.05535,"zip":"17581","miles_from_dt":25.74},{"city":"Media","state_name":"Pennsylvania","lat":39.92248,"lng":-75.41419,"zip":"19063","miles_from_dt":25.79},{"city":"Lancaster","state_name":"Pennsylvania","lat":40.05,"lng":-76.25005,"zip":"17605","miles_from_dt":25.87},{"city":"Devault","state_name":"Pennsylvania","lat":40.07829,"lng":-75.53511,"zip":"19432","miles_from_dt":25.94},{"city":"Leola","state_name":"Pennsylvania","lat":40.09877,"lng":-76.1888,"zip":"17540","miles_from_dt":25.95},{"city":"Martindale","state_name":"Pennsylvania","lat":40.15,"lng":-76.09001,"zip":"17549","miles_from_dt":26.09},{"city":"Brookhaven","state_name":"Pennsylvania","lat":39.86811,"lng":-75.39164,"zip":"19015","miles_from_dt":26.11},{"city":"Newtown Square","state_name":"Pennsylvania","lat":39.98093,"lng":-75.4346,"zip":"19073","miles_from_dt":26.3},{"city":"Paoli","state_name":"Pennsylvania","lat":40.0414,"lng":-75.4809,"zip":"19301","miles_from_dt":26.42},{"city":"Saint Peters","state_name":"Pennsylvania","lat":40.17967,"lng":-75.73164,"zip":"19470","miles_from_dt":26.68},{"city":"Warwick","state_name":"Maryland","lat":39.42486,"lng":-75.81607,"zip":"21912","miles_from_dt":26.72},{"city":"Glen Riddle Lima","state_name":"Pennsylvania","lat":39.90513,"lng":-75.38884,"zip":"19037","miles_from_dt":26.76},{"city":"Media","state_name":"Pennsylvania","lat":39.90495,"lng":-75.38863,"zip":"19065","miles_from_dt":26.77},{"city":"Chester","state_name":"Pennsylvania","lat":39.84529,"lng":-75.37474,"zip":"19013","miles_from_dt":26.81},{"city":"Aberdeen","state_name":"Maryland","lat":39.51077,"lng":-76.20274,"zip":"21001","miles_from_dt":26.96},{"city":"Earleville","state_name":"Maryland","lat":39.42047,"lng":-75.93372,"zip":"21919","miles_from_dt":27},{"city":"Odessa","state_name":"Delaware","lat":39.45443,"lng":-75.66077,"zip":"19730","miles_from_dt":27.06},{"city":"Geigertown","state_name":"Pennsylvania","lat":40.20116,"lng":-75.84974,"zip":"19523","miles_from_dt":27.07},{"city":"Media","state_name":"Pennsylvania","lat":39.91905,"lng":-75.38738,"zip":"19091","miles_from_dt":27.09},{"city":"Berwyn","state_name":"Pennsylvania","lat":40.0309,"lng":-75.45083,"zip":"19312","miles_from_dt":27.3},{"city":"Kimberton","state_name":"Pennsylvania","lat":40.13233,"lng":-75.57863,"zip":"19442","miles_from_dt":27.32},{"city":"Bridgeport","state_name":"New Jersey","lat":39.81186,"lng":-75.36286,"zip":"08014","miles_from_dt":27.33},{"city":"Wallingford","state_name":"Pennsylvania","lat":39.89094,"lng":-75.37014,"zip":"19086","miles_from_dt":27.51},{"city":"Chester","state_name":"Pennsylvania","lat":39.84699,"lng":-75.36099,"zip":"19016","miles_from_dt":27.55},{"city":"Cecilton","state_name":"Maryland","lat":39.40973,"lng":-75.87073,"zip":"21913","miles_from_dt":27.57},{"city":"Lancaster","state_name":"Pennsylvania","lat":40.04187,"lng":-76.30012,"zip":"17699","miles_from_dt":27.63},{"city":"Talmage","state_name":"Pennsylvania","lat":40.11651,"lng":-76.21281,"zip":"17580","miles_from_dt":27.71},{"city":"Bowmansville","state_name":"Pennsylvania","lat":40.19806,"lng":-76.01624,"zip":"17507","miles_from_dt":27.82},{"city":"Street","state_name":"Maryland","lat":39.65314,"lng":-76.36087,"zip":"21154","miles_from_dt":27.96},{"city":"Lancaster","state_name":"Pennsylvania","lat":40.04002,"lng":-76.31005,"zip":"17608","miles_from_dt":27.99},{"city":"Lancaster","state_name":"Pennsylvania","lat":40.04,"lng":-76.31219,"zip":"17622","miles_from_dt":28.08},{"city":"Brownstown","state_name":"Pennsylvania","lat":40.12455,"lng":-76.21394,"zip":"17508","miles_from_dt":28.17},{"city":"Bausman","state_name":"Pennsylvania","lat":40.02448,"lng":-76.32855,"zip":"17504","miles_from_dt":28.23},{"city":"Airville","state_name":"Pennsylvania","lat":39.81659,"lng":-76.41069,"zip":"17302","miles_from_dt":28.42},{"city":"Perryman","state_name":"Maryland","lat":39.47495,"lng":-76.18921,"zip":"21130","miles_from_dt":28.47},{"city":"Woodlyn","state_name":"Pennsylvania","lat":39.87499,"lng":-75.3467,"zip":"19094","miles_from_dt":28.54},{"city":"Conestoga","state_name":"Pennsylvania","lat":39.93773,"lng":-76.38703,"zip":"17516","miles_from_dt":28.55},{"city":"Phoenixville","state_name":"Pennsylvania","lat":40.12674,"lng":-75.5294,"zip":"19460","miles_from_dt":28.62},{"city":"Bel Air","state_name":"Maryland","lat":39.54691,"lng":-76.29619,"zip":"21015","miles_from_dt":28.78},{"city":"Swarthmore","state_name":"Pennsylvania","lat":39.89864,"lng":-75.34751,"zip":"19081","miles_from_dt":28.8},{"city":"Spring City","state_name":"Pennsylvania","lat":40.17028,"lng":-75.60042,"zip":"19475","miles_from_dt":28.89},{"city":"Lancaster","state_name":"Pennsylvania","lat":40.0127,"lng":-76.35287,"zip":"17603","miles_from_dt":28.94},{"city":"Devon","state_name":"Pennsylvania","lat":40.04208,"lng":-75.42331,"zip":"19333","miles_from_dt":28.94},{"city":"Crum Lynne","state_name":"Pennsylvania","lat":39.85862,"lng":-75.33507,"zip":"19022","miles_from_dt":29},{"city":"Millersville","state_name":"Pennsylvania","lat":39.97911,"lng":-76.37608,"zip":"17551","miles_from_dt":29.02},{"city":"Southeastern","state_name":"Pennsylvania","lat":40.04122,"lng":-75.42075,"zip":"19398","miles_from_dt":29.02},{"city":"Pottstown","state_name":"Pennsylvania","lat":40.19981,"lng":-75.6727,"zip":"19465","miles_from_dt":29.03},{"city":"Swedesboro","state_name":"New Jersey","lat":39.75579,"lng":-75.33017,"zip":"08085","miles_from_dt":29.32},{"city":"Valley Forge","state_name":"Pennsylvania","lat":40.12053,"lng":-75.4995,"zip":"19481","miles_from_dt":29.35},{"city":"Valley Forge","state_name":"Pennsylvania","lat":40.09729,"lng":-75.46849,"zip":"19496","miles_from_dt":29.4},{"city":"Valley Forge","state_name":"Pennsylvania","lat":40.10004,"lng":-75.47003,"zip":"19482","miles_from_dt":29.46},{"city":"Lancaster","state_name":"Pennsylvania","lat":40.07296,"lng":-76.31457,"zip":"17601","miles_from_dt":29.53},{"city":"Ephrata","state_name":"Pennsylvania","lat":40.17499,"lng":-76.17009,"zip":"17522","miles_from_dt":29.65},{"city":"Broomall","state_name":"Pennsylvania","lat":39.97425,"lng":-75.36107,"zip":"19008","miles_from_dt":29.66},{"city":"Akron","state_name":"Pennsylvania","lat":40.15697,"lng":-76.20532,"zip":"17501","miles_from_dt":29.66},{"city":"Folsom","state_name":"Pennsylvania","lat":39.89077,"lng":-75.32892,"zip":"19033","miles_from_dt":29.66},{"city":"Aberdeen Proving Ground","state_name":"Maryland","lat":39.44101,"lng":-76.16509,"zip":"21005","miles_from_dt":29.71},{"city":"Lancaster","state_name":"Pennsylvania","lat":40.01,"lng":-76.37219,"zip":"17611","miles_from_dt":29.75},{"city":"Springfield","state_name":"Pennsylvania","lat":39.93214,"lng":-75.33873,"zip":"19064","miles_from_dt":29.82},{"city":"Ridley Park","state_name":"Pennsylvania","lat":39.87328,"lng":-75.32159,"zip":"19078","miles_from_dt":29.84},{"city":"Lancaster","state_name":"Pennsylvania","lat":40.0577,"lng":-76.33731,"zip":"17604","miles_from_dt":29.87},{"city":"Mohnton","state_name":"Pennsylvania","lat":40.23714,"lng":-75.9658,"zip":"19540","miles_from_dt":29.89},{"city":"Southeastern","state_name":"Pennsylvania","lat":40.0716,"lng":-75.42816,"zip":"19399","miles_from_dt":29.91}],"targetCityZipCode":"19346","targetCityState":"Pennsylvania"},"__N_SSG":true}