{"pageProps":{"stateName":"Pennsylvania","cityName":"new-kingstown","nearbyCities":[{"city":"Mechanicsburg","state_name":"Pennsylvania","lat":40.24907,"lng":-77.03005,"zip":"17050","miles_from_dt":2.93},{"city":"Carlisle","state_name":"Pennsylvania","lat":40.241,"lng":-77.19286,"zip":"17013","miles_from_dt":5.89},{"city":"Mechanicsburg","state_name":"Pennsylvania","lat":40.17756,"lng":-76.99789,"zip":"17055","miles_from_dt":5.9},{"city":"Marysville","state_name":"Pennsylvania","lat":40.3255,"lng":-77.03256,"zip":"17053","miles_from_dt":6.84},{"city":"Enola","state_name":"Pennsylvania","lat":40.29506,"lng":-76.97731,"zip":"17025","miles_from_dt":6.95},{"city":"Grantham","state_name":"Pennsylvania","lat":40.15653,"lng":-76.99316,"zip":"17027","miles_from_dt":7.1},{"city":"Boiling Springs","state_name":"Pennsylvania","lat":40.13428,"lng":-77.11801,"zip":"17007","miles_from_dt":7.13},{"city":"Camp Hill","state_name":"Pennsylvania","lat":40.23508,"lng":-76.92931,"zip":"17011","miles_from_dt":8.06},{"city":"Camp Hill","state_name":"Pennsylvania","lat":40.25388,"lng":-76.92733,"zip":"17089","miles_from_dt":8.28},{"city":"Shermans Dale","state_name":"Pennsylvania","lat":40.32953,"lng":-77.18302,"zip":"17090","miles_from_dt":8.5},{"city":"Camp Hill","state_name":"Pennsylvania","lat":40.24001,"lng":-76.92002,"zip":"17001","miles_from_dt":8.56},{"city":"Carlisle","state_name":"Pennsylvania","lat":40.18392,"lng":-77.23234,"zip":"17015","miles_from_dt":8.68},{"city":"Lemoyne","state_name":"Pennsylvania","lat":40.24679,"lng":-76.90033,"zip":"17043","miles_from_dt":9.64},{"city":"Summerdale","state_name":"Pennsylvania","lat":40.30998,"lng":-76.92817,"zip":"17093","miles_from_dt":9.67},{"city":"Harrisburg","state_name":"Pennsylvania","lat":40.27119,"lng":-76.89686,"zip":"17102","miles_from_dt":10.11},{"city":"Dillsburg","state_name":"Pennsylvania","lat":40.09078,"lng":-77.02462,"zip":"17019","miles_from_dt":10.32},{"city":"Harrisburg","state_name":"Pennsylvania","lat":40.2595,"lng":-76.88705,"zip":"17101","miles_from_dt":10.45},{"city":"Harrisburg","state_name":"Pennsylvania","lat":40.27314,"lng":-76.88885,"zip":"17130","miles_from_dt":10.55},{"city":"Harrisburg","state_name":"Pennsylvania","lat":40.26393,"lng":-76.8834,"zip":"17128","miles_from_dt":10.69},{"city":"Harrisburg","state_name":"Pennsylvania","lat":40.26109,"lng":-76.88275,"zip":"17108","miles_from_dt":10.69},{"city":"Harrisburg","state_name":"Pennsylvania","lat":40.26319,"lng":-76.88269,"zip":"17129","miles_from_dt":10.72},{"city":"Harrisburg","state_name":"Pennsylvania","lat":40.26511,"lng":-76.88281,"zip":"17120","miles_from_dt":10.74},{"city":"Harrisburg","state_name":"Pennsylvania","lat":40.26844,"lng":-76.88326,"zip":"17121","miles_from_dt":10.76},{"city":"Harrisburg","state_name":"Pennsylvania","lat":40.26329,"lng":-76.8816,"zip":"17122","miles_from_dt":10.78},{"city":"Harrisburg","state_name":"Pennsylvania","lat":40.26601,"lng":-76.88167,"zip":"17124","miles_from_dt":10.81},{"city":"Harrisburg","state_name":"Pennsylvania","lat":40.26617,"lng":-76.88091,"zip":"17125","miles_from_dt":10.85},{"city":"Harrisburg","state_name":"Pennsylvania","lat":40.26177,"lng":-76.8799,"zip":"17126","miles_from_dt":10.85},{"city":"Harrisburg","state_name":"Pennsylvania","lat":40.26596,"lng":-76.88045,"zip":"17123","miles_from_dt":10.87},{"city":"Plainfield","state_name":"Pennsylvania","lat":40.20121,"lng":-77.28322,"zip":"17081","miles_from_dt":10.89},{"city":"Harrisburg","state_name":"Pennsylvania","lat":40.26328,"lng":-76.87698,"zip":"17127","miles_from_dt":11.02},{"city":"Harrisburg","state_name":"Pennsylvania","lat":40.26258,"lng":-76.87617,"zip":"17105","miles_from_dt":11.05},{"city":"Franklintown","state_name":"Pennsylvania","lat":40.07523,"lng":-77.02669,"zip":"17323","miles_from_dt":11.33},{"city":"Mount Holly Springs","state_name":"Pennsylvania","lat":40.09837,"lng":-77.20527,"zip":"17065","miles_from_dt":11.41},{"city":"Harrisburg","state_name":"Pennsylvania","lat":40.29406,"lng":-76.87783,"zip":"17106","miles_from_dt":11.55},{"city":"New Cumberland","state_name":"Pennsylvania","lat":40.20217,"lng":-76.86377,"zip":"17070","miles_from_dt":11.74},{"city":"Harrisburg","state_name":"Pennsylvania","lat":40.29648,"lng":-76.87461,"zip":"17107","miles_from_dt":11.77},{"city":"Harrisburg","state_name":"Pennsylvania","lat":40.27499,"lng":-76.86326,"zip":"17103","miles_from_dt":11.9},{"city":"Harrisburg","state_name":"Pennsylvania","lat":40.31776,"lng":-76.88354,"zip":"17110","miles_from_dt":11.97},{"city":"Harrisburg","state_name":"Pennsylvania","lat":40.23901,"lng":-76.84985,"zip":"17104","miles_from_dt":12.27},{"city":"Duncannon","state_name":"Pennsylvania","lat":40.41014,"lng":-77.04367,"zip":"17020","miles_from_dt":12.33},{"city":"Lewisberry","state_name":"Pennsylvania","lat":40.13438,"lng":-76.88188,"zip":"17339","miles_from_dt":12.61},{"city":"New Bloomfield","state_name":"Pennsylvania","lat":40.40685,"lng":-77.17795,"zip":"17068","miles_from_dt":12.97},{"city":"Harrisburg","state_name":"Pennsylvania","lat":40.23032,"lng":-76.82083,"zip":"17113","miles_from_dt":13.8},{"city":"Landisburg","state_name":"Pennsylvania","lat":40.31558,"lng":-77.32571,"zip":"17040","miles_from_dt":14.07},{"city":"Harrisburg","state_name":"Pennsylvania","lat":40.28986,"lng":-76.82414,"zip":"17109","miles_from_dt":14.16},{"city":"Wellsville","state_name":"Pennsylvania","lat":40.05696,"lng":-76.9392,"zip":"17365","miles_from_dt":14.35},{"city":"Rossville","state_name":"Pennsylvania","lat":40.06587,"lng":-76.92031,"zip":"17358","miles_from_dt":14.4},{"city":"Harrisburg","state_name":"Pennsylvania","lat":40.25965,"lng":-76.80772,"zip":"17140","miles_from_dt":14.6},{"city":"Harrisburg","state_name":"Pennsylvania","lat":40.29036,"lng":-76.81259,"zip":"17177","miles_from_dt":14.75},{"city":"Gardners","state_name":"Pennsylvania","lat":40.03616,"lng":-77.22772,"zip":"17324","miles_from_dt":15.68},{"city":"Dauphin","state_name":"Pennsylvania","lat":40.40246,"lng":-76.88117,"zip":"17018","miles_from_dt":15.74},{"city":"Highspire","state_name":"Pennsylvania","lat":40.20831,"lng":-76.78489,"zip":"17034","miles_from_dt":15.8},{"city":"Harrisburg","state_name":"Pennsylvania","lat":40.27041,"lng":-76.78265,"zip":"17111","miles_from_dt":16.01},{"city":"Etters","state_name":"Pennsylvania","lat":40.1585,"lng":-76.79468,"zip":"17319","miles_from_dt":16.06},{"city":"York Springs","state_name":"Pennsylvania","lat":40.00037,"lng":-77.10633,"zip":"17372","miles_from_dt":16.16},{"city":"New Buffalo","state_name":"Pennsylvania","lat":40.45722,"lng":-76.97921,"zip":"17069","miles_from_dt":16.34},{"city":"Idaville","state_name":"Pennsylvania","lat":40.0132,"lng":-77.20289,"zip":"17337","miles_from_dt":16.52},{"city":"Elliottsburg","state_name":"Pennsylvania","lat":40.40992,"lng":-77.30854,"zip":"17024","miles_from_dt":17.06},{"city":"Newport","state_name":"Pennsylvania","lat":40.47983,"lng":-77.14456,"zip":"17074","miles_from_dt":17.29},{"city":"Newville","state_name":"Pennsylvania","lat":40.17793,"lng":-77.40326,"zip":"17241","miles_from_dt":17.44},{"city":"York Haven","state_name":"Pennsylvania","lat":40.1174,"lng":-76.78124,"zip":"17370","miles_from_dt":17.82},{"city":"Dover","state_name":"Pennsylvania","lat":40.01859,"lng":-76.8685,"zip":"17315","miles_from_dt":18.66},{"city":"East Berlin","state_name":"Pennsylvania","lat":39.96721,"lng":-77.00226,"zip":"17316","miles_from_dt":18.87},{"city":"Middletown","state_name":"Pennsylvania","lat":40.19437,"lng":-76.72659,"zip":"17057","miles_from_dt":18.98},{"city":"Harrisburg","state_name":"Pennsylvania","lat":40.37497,"lng":-76.77163,"zip":"17112","miles_from_dt":19.06},{"city":"Bendersville","state_name":"Pennsylvania","lat":39.98383,"lng":-77.24966,"zip":"17306","miles_from_dt":19.41},{"city":"Aspers","state_name":"Pennsylvania","lat":39.97696,"lng":-77.23099,"zip":"17304","miles_from_dt":19.41},{"city":"Peach Glen","state_name":"Pennsylvania","lat":39.97383,"lng":-77.23158,"zip":"17375","miles_from_dt":19.62},{"city":"Loysville","state_name":"Pennsylvania","lat":40.37098,"lng":-77.41426,"zip":"17047","miles_from_dt":19.95},{"city":"Walnut Bottom","state_name":"Pennsylvania","lat":40.08745,"lng":-77.412,"zip":"17266","miles_from_dt":20.19},{"city":"Hummelstown","state_name":"Pennsylvania","lat":40.28579,"lng":-76.69611,"zip":"17036","miles_from_dt":20.7},{"city":"Manchester","state_name":"Pennsylvania","lat":40.07929,"lng":-76.72812,"zip":"17345","miles_from_dt":21.55},{"city":"Millerstown","state_name":"Pennsylvania","lat":40.55153,"lng":-77.16813,"zip":"17062","miles_from_dt":22.39},{"city":"Halifax","state_name":"Pennsylvania","lat":40.49448,"lng":-76.81788,"zip":"17032","miles_from_dt":22.75},{"city":"York","state_name":"Pennsylvania","lat":40.00496,"lng":-76.77217,"zip":"17404","miles_from_dt":22.77},{"city":"Ickesburg","state_name":"Pennsylvania","lat":40.43329,"lng":-77.42872,"zip":"17037","miles_from_dt":22.91},{"city":"Thomasville","state_name":"Pennsylvania","lat":39.92985,"lng":-76.90049,"zip":"17364","miles_from_dt":23.07},{"city":"Biglerville","state_name":"Pennsylvania","lat":39.94853,"lng":-77.314,"zip":"17307","miles_from_dt":23.22},{"city":"Bainbridge","state_name":"Pennsylvania","lat":40.10081,"lng":-76.66732,"zip":"17502","miles_from_dt":23.78},{"city":"New Oxford","state_name":"Pennsylvania","lat":39.88918,"lng":-77.07896,"zip":"17350","miles_from_dt":23.78},{"city":"Emigsville","state_name":"Pennsylvania","lat":40.01847,"lng":-76.7265,"zip":"17318","miles_from_dt":23.98},{"city":"Arendtsville","state_name":"Pennsylvania","lat":39.92615,"lng":-77.29755,"zip":"17303","miles_from_dt":24.11},{"city":"Hershey","state_name":"Pennsylvania","lat":40.26829,"lng":-76.62754,"zip":"17033","miles_from_dt":24.13},{"city":"Abbottstown","state_name":"Pennsylvania","lat":39.89119,"lng":-76.9815,"zip":"17301","miles_from_dt":24.23},{"city":"Blain","state_name":"Pennsylvania","lat":40.28495,"lng":-77.54364,"zip":"17006","miles_from_dt":24.67},{"city":"Mount Wolf","state_name":"Pennsylvania","lat":40.04927,"lng":-76.68247,"zip":"17347","miles_from_dt":24.68},{"city":"Millersburg","state_name":"Pennsylvania","lat":40.56542,"lng":-76.90046,"zip":"17061","miles_from_dt":24.8},{"city":"Liverpool","state_name":"Pennsylvania","lat":40.58841,"lng":-77.00389,"zip":"17045","miles_from_dt":24.81},{"city":"Shippensburg","state_name":"Pennsylvania","lat":40.0508,"lng":-77.49027,"zip":"17257","miles_from_dt":25.05},{"city":"Thompsontown","state_name":"Pennsylvania","lat":40.58414,"lng":-77.2168,"zip":"17094","miles_from_dt":25.2},{"city":"Mexico","state_name":"Pennsylvania","lat":40.53349,"lng":-77.35585,"zip":"17056","miles_from_dt":25.23},{"city":"York","state_name":"Pennsylvania","lat":39.93451,"lng":-76.80203,"zip":"17408","miles_from_dt":25.42},{"city":"Elizabethtown","state_name":"Pennsylvania","lat":40.16677,"lng":-76.60823,"zip":"17022","miles_from_dt":25.48},{"city":"Grantville","state_name":"Pennsylvania","lat":40.4033,"lng":-76.65073,"zip":"17028","miles_from_dt":25.59},{"city":"Port Royal","state_name":"Pennsylvania","lat":40.49762,"lng":-77.42579,"zip":"17082","miles_from_dt":25.71},{"city":"York","state_name":"Pennsylvania","lat":39.95893,"lng":-76.73359,"zip":"17401","miles_from_dt":26.46},{"city":"Campbelltown","state_name":"Pennsylvania","lat":40.27809,"lng":-76.58335,"zip":"17010","miles_from_dt":26.52},{"city":"York","state_name":"Pennsylvania","lat":39.96008,"lng":-76.7301,"zip":"17405","miles_from_dt":26.53},{"city":"Palmyra","state_name":"Pennsylvania","lat":40.28952,"lng":-76.58484,"zip":"17078","miles_from_dt":26.55},{"city":"Newburg","state_name":"Pennsylvania","lat":40.15411,"lng":-77.58227,"zip":"17240","miles_from_dt":27.05},{"city":"New Germantown","state_name":"Pennsylvania","lat":40.30061,"lng":-77.58928,"zip":"17071","miles_from_dt":27.22},{"city":"York New Salem","state_name":"Pennsylvania","lat":39.90258,"lng":-76.78797,"zip":"17371","miles_from_dt":27.66},{"city":"York","state_name":"Pennsylvania","lat":40.01224,"lng":-76.64249,"zip":"17406","miles_from_dt":27.84},{"city":"Elizabethville","state_name":"Pennsylvania","lat":40.5813,"lng":-76.81169,"zip":"17023","miles_from_dt":27.89},{"city":"Rheems","state_name":"Pennsylvania","lat":40.12574,"lng":-76.57035,"zip":"17570","miles_from_dt":28.07},{"city":"Cashtown","state_name":"Pennsylvania","lat":39.88481,"lng":-77.35878,"zip":"17310","miles_from_dt":28.21},{"city":"McKnightstown","state_name":"Pennsylvania","lat":39.86863,"lng":-77.32948,"zip":"17343","miles_from_dt":28.42},{"city":"Maytown","state_name":"Pennsylvania","lat":40.07492,"lng":-76.58339,"zip":"17550","miles_from_dt":28.57},{"city":"Marietta","state_name":"Pennsylvania","lat":40.07056,"lng":-76.58436,"zip":"17547","miles_from_dt":28.64},{"city":"Hanover","state_name":"Pennsylvania","lat":39.82421,"lng":-76.9907,"zip":"17333","miles_from_dt":28.67},{"city":"Lawn","state_name":"Pennsylvania","lat":40.21667,"lng":-76.5395,"zip":"17041","miles_from_dt":28.7},{"city":"Spring Grove","state_name":"Pennsylvania","lat":39.85088,"lng":-76.86872,"zip":"17362","miles_from_dt":28.74},{"city":"Dalmatia","state_name":"Pennsylvania","lat":40.6275,"lng":-76.89854,"zip":"17017","miles_from_dt":28.83},{"city":"Orrtanna","state_name":"Pennsylvania","lat":39.88741,"lng":-77.38714,"zip":"17353","miles_from_dt":28.87},{"city":"Honey Grove","state_name":"Pennsylvania","lat":40.41638,"lng":-77.57443,"zip":"17035","miles_from_dt":28.9},{"city":"Gettysburg","state_name":"Pennsylvania","lat":39.82762,"lng":-77.22641,"zip":"17325","miles_from_dt":29.06},{"city":"Annville","state_name":"Pennsylvania","lat":40.35735,"lng":-76.55528,"zip":"17003","miles_from_dt":29.09},{"city":"York","state_name":"Pennsylvania","lat":39.92142,"lng":-76.71277,"zip":"17403","miles_from_dt":29.11},{"city":"Berrysburg","state_name":"Pennsylvania","lat":40.60304,"lng":-76.81065,"zip":"17005","miles_from_dt":29.21},{"city":"Oakland Mills","state_name":"Pennsylvania","lat":40.62084,"lng":-77.30758,"zip":"17076","miles_from_dt":29.24},{"city":"York","state_name":"Pennsylvania","lat":39.95799,"lng":-76.66045,"zip":"17402","miles_from_dt":29.34},{"city":"Mifflintown","state_name":"Pennsylvania","lat":40.59241,"lng":-77.38165,"zip":"17059","miles_from_dt":29.36},{"city":"McSherrystown","state_name":"Pennsylvania","lat":39.80535,"lng":-77.01887,"zip":"17344","miles_from_dt":29.75},{"city":"Cocolamus","state_name":"Pennsylvania","lat":40.6596,"lng":-77.19358,"zip":"17014","miles_from_dt":29.96},{"city":"Hanover","state_name":"Pennsylvania","lat":39.80769,"lng":-76.97011,"zip":"17335","miles_from_dt":29.99}],"targetCityZipCode":"17072","targetCityState":"Pennsylvania"},"__N_SSG":true}