{"pageProps":{"stateName":"Pennsylvania","cityName":"strongstown","nearbyCities":[{"city":"Belsano","state_name":"Pennsylvania","lat":40.51853,"lng":-78.87794,"zip":"15922","miles_from_dt":1.78},{"city":"Twin Rocks","state_name":"Pennsylvania","lat":40.49848,"lng":-78.85184,"zip":"15960","miles_from_dt":3.71},{"city":"Nicktown","state_name":"Pennsylvania","lat":40.6001,"lng":-78.83309,"zip":"15762","miles_from_dt":5.38},{"city":"Nanty Glo","state_name":"Pennsylvania","lat":40.47437,"lng":-78.83513,"zip":"15943","miles_from_dt":5.57},{"city":"Vintondale","state_name":"Pennsylvania","lat":40.46187,"lng":-78.9382,"zip":"15961","miles_from_dt":5.77},{"city":"Heilwood","state_name":"Pennsylvania","lat":40.62264,"lng":-78.91347,"zip":"15745","miles_from_dt":5.8},{"city":"Colver","state_name":"Pennsylvania","lat":40.54148,"lng":-78.78019,"zip":"15927","miles_from_dt":6.17},{"city":"Penn Run","state_name":"Pennsylvania","lat":40.59661,"lng":-78.99574,"zip":"15765","miles_from_dt":6.5},{"city":"Mentcle","state_name":"Pennsylvania","lat":40.63399,"lng":-78.89019,"zip":"15761","miles_from_dt":6.53},{"city":"Alverda","state_name":"Pennsylvania","lat":40.64019,"lng":-78.87193,"zip":"15710","miles_from_dt":7.07},{"city":"Dilltown","state_name":"Pennsylvania","lat":40.47683,"lng":-79.0042,"zip":"15929","miles_from_dt":7.09},{"city":"Ebensburg","state_name":"Pennsylvania","lat":40.51612,"lng":-78.76225,"zip":"15931","miles_from_dt":7.3},{"city":"Revloc","state_name":"Pennsylvania","lat":40.48986,"lng":-78.76699,"zip":"15948","miles_from_dt":7.68},{"city":"Northern Cambria","state_name":"Pennsylvania","lat":40.63962,"lng":-78.82978,"zip":"15714","miles_from_dt":7.77},{"city":"Elmora","state_name":"Pennsylvania","lat":40.59871,"lng":-78.75356,"zip":"15737","miles_from_dt":8.6},{"city":"Marsteller","state_name":"Pennsylvania","lat":40.64583,"lng":-78.80509,"zip":"15760","miles_from_dt":8.8},{"city":"Spangler","state_name":"Pennsylvania","lat":40.63488,"lng":-78.78405,"zip":"15775","miles_from_dt":8.88},{"city":"Brush Valley","state_name":"Pennsylvania","lat":40.53896,"lng":-79.06625,"zip":"15720","miles_from_dt":8.89},{"city":"Johnstown","state_name":"Pennsylvania","lat":40.40783,"lng":-78.87047,"zip":"15909","miles_from_dt":9.2},{"city":"Armagh","state_name":"Pennsylvania","lat":40.46705,"lng":-79.05006,"zip":"15920","miles_from_dt":9.47},{"city":"Carrolltown","state_name":"Pennsylvania","lat":40.59833,"lng":-78.72532,"zip":"15722","miles_from_dt":9.92},{"city":"Seward","state_name":"Pennsylvania","lat":40.41837,"lng":-79.00051,"zip":"15954","miles_from_dt":9.97},{"city":"Homer City","state_name":"Pennsylvania","lat":40.52489,"lng":-79.087,"zip":"15748","miles_from_dt":10.03},{"city":"Clymer","state_name":"Pennsylvania","lat":40.6757,"lng":-78.96644,"zip":"15728","miles_from_dt":10.07},{"city":"Mineral Point","state_name":"Pennsylvania","lat":40.40584,"lng":-78.81215,"zip":"15942","miles_from_dt":10.26},{"city":"Saint Benedict","state_name":"Pennsylvania","lat":40.63075,"lng":-78.73041,"zip":"15773","miles_from_dt":10.81},{"city":"Johnstown","state_name":"Pennsylvania","lat":40.37806,"lng":-78.93356,"zip":"15906","miles_from_dt":11.3},{"city":"Starford","state_name":"Pennsylvania","lat":40.69749,"lng":-78.96255,"zip":"15777","miles_from_dt":11.42},{"city":"Commodore","state_name":"Pennsylvania","lat":40.70583,"lng":-78.92049,"zip":"15729","miles_from_dt":11.54},{"city":"Emeigh","state_name":"Pennsylvania","lat":40.69039,"lng":-78.78174,"zip":"15738","miles_from_dt":12.06},{"city":"Parkhill","state_name":"Pennsylvania","lat":40.35909,"lng":-78.86867,"zip":"15945","miles_from_dt":12.54},{"city":"Lucernemines","state_name":"Pennsylvania","lat":40.55667,"lng":-79.15152,"zip":"15754","miles_from_dt":13.43},{"city":"Summerhill","state_name":"Pennsylvania","lat":40.3891,"lng":-78.73284,"zip":"15958","miles_from_dt":13.53},{"city":"Hastings","state_name":"Pennsylvania","lat":40.68291,"lng":-78.71579,"zip":"16646","miles_from_dt":13.75},{"city":"Dixonville","state_name":"Pennsylvania","lat":40.72046,"lng":-79.00836,"zip":"15734","miles_from_dt":13.78},{"city":"Loretto","state_name":"Pennsylvania","lat":40.52128,"lng":-78.63218,"zip":"15940","miles_from_dt":14.02},{"city":"Wilmore","state_name":"Pennsylvania","lat":40.38942,"lng":-78.71644,"zip":"15962","miles_from_dt":14.08},{"city":"Cherry Tree","state_name":"Pennsylvania","lat":40.73545,"lng":-78.81746,"zip":"15724","miles_from_dt":14.16},{"city":"South Fork","state_name":"Pennsylvania","lat":40.35022,"lng":-78.78819,"zip":"15956","miles_from_dt":14.28},{"city":"Johnstown","state_name":"Pennsylvania","lat":40.33,"lng":-78.92001,"zip":"15907","miles_from_dt":14.51},{"city":"Johnstown","state_name":"Pennsylvania","lat":40.32845,"lng":-78.9146,"zip":"15901","miles_from_dt":14.59},{"city":"Indiana","state_name":"Pennsylvania","lat":40.62935,"lng":-79.15056,"zip":"15701","miles_from_dt":14.69},{"city":"Hillsdale","state_name":"Pennsylvania","lat":40.75285,"lng":-78.87455,"zip":"15746","miles_from_dt":14.77},{"city":"Indiana","state_name":"Pennsylvania","lat":40.61588,"lng":-79.15983,"zip":"15705","miles_from_dt":14.78},{"city":"Coral","state_name":"Pennsylvania","lat":40.50383,"lng":-79.1767,"zip":"15731","miles_from_dt":14.91},{"city":"Johnstown","state_name":"Pennsylvania","lat":40.32,"lng":-78.87911,"zip":"15902","miles_from_dt":15.18},{"city":"Saint Boniface","state_name":"Pennsylvania","lat":40.68796,"lng":-78.67905,"zip":"16675","miles_from_dt":15.39},{"city":"Chest Springs","state_name":"Pennsylvania","lat":40.5651,"lng":-78.60664,"zip":"16624","miles_from_dt":15.41},{"city":"Josephine","state_name":"Pennsylvania","lat":40.48377,"lng":-79.18256,"zip":"15750","miles_from_dt":15.5},{"city":"Robinson","state_name":"Pennsylvania","lat":40.4055,"lng":-79.13442,"zip":"15949","miles_from_dt":15.54},{"city":"New Florence","state_name":"Pennsylvania","lat":40.36295,"lng":-79.0816,"zip":"15944","miles_from_dt":15.58},{"city":"Saint Michael","state_name":"Pennsylvania","lat":40.3307,"lng":-78.77209,"zip":"15951","miles_from_dt":15.85},{"city":"Johnstown","state_name":"Pennsylvania","lat":40.30833,"lng":-78.85929,"zip":"15915","miles_from_dt":16.08},{"city":"Black Lick","state_name":"Pennsylvania","lat":40.47025,"lng":-79.19031,"zip":"15716","miles_from_dt":16.15},{"city":"Cassandra","state_name":"Pennsylvania","lat":40.40851,"lng":-78.6407,"zip":"15925","miles_from_dt":16.27},{"city":"Johnstown","state_name":"Pennsylvania","lat":40.3056,"lng":-78.84382,"zip":"15904","miles_from_dt":16.39},{"city":"Patton","state_name":"Pennsylvania","lat":40.65072,"lng":-78.61974,"zip":"16668","miles_from_dt":16.5},{"city":"Ernest","state_name":"Pennsylvania","lat":40.67875,"lng":-79.16454,"zip":"15739","miles_from_dt":17.02},{"city":"Gallitzin","state_name":"Pennsylvania","lat":40.50774,"lng":-78.57146,"zip":"16641","miles_from_dt":17.3},{"city":"Lilly","state_name":"Pennsylvania","lat":40.42215,"lng":-78.6057,"zip":"15938","miles_from_dt":17.37},{"city":"Johnstown","state_name":"Pennsylvania","lat":40.29423,"lng":-78.98035,"zip":"15905","miles_from_dt":17.48},{"city":"Marion Center","state_name":"Pennsylvania","lat":40.7721,"lng":-79.03045,"zip":"15759","miles_from_dt":17.5},{"city":"Salix","state_name":"Pennsylvania","lat":40.30348,"lng":-78.77614,"zip":"15952","miles_from_dt":17.5},{"city":"Cresson","state_name":"Pennsylvania","lat":40.46231,"lng":-78.58003,"zip":"16630","miles_from_dt":17.55},{"city":"Chambersville","state_name":"Pennsylvania","lat":40.70066,"lng":-79.1582,"zip":"15723","miles_from_dt":17.65},{"city":"Arcadia","state_name":"Pennsylvania","lat":40.79323,"lng":-78.84692,"zip":"15712","miles_from_dt":17.71},{"city":"Westover","state_name":"Pennsylvania","lat":40.75935,"lng":-78.72053,"zip":"16692","miles_from_dt":17.79},{"city":"Portage","state_name":"Pennsylvania","lat":40.37248,"lng":-78.63573,"zip":"15946","miles_from_dt":17.98},{"city":"Gipsy","state_name":"Pennsylvania","lat":40.80601,"lng":-78.88924,"zip":"15741","miles_from_dt":18.39},{"city":"Elton","state_name":"Pennsylvania","lat":40.28107,"lng":-78.79589,"zip":"15934","miles_from_dt":18.62},{"city":"Beaverdale","state_name":"Pennsylvania","lat":40.31642,"lng":-78.69786,"zip":"15921","miles_from_dt":18.65},{"city":"Tire Hill","state_name":"Pennsylvania","lat":40.26919,"lng":-78.91523,"zip":"15959","miles_from_dt":18.68},{"city":"Glen Campbell","state_name":"Pennsylvania","lat":40.81042,"lng":-78.8688,"zip":"15742","miles_from_dt":18.75},{"city":"Cresson","state_name":"Pennsylvania","lat":40.44736,"lng":-78.56054,"zip":"16699","miles_from_dt":18.85},{"city":"Blairsville","state_name":"Pennsylvania","lat":40.45354,"lng":-79.23896,"zip":"15717","miles_from_dt":18.94},{"city":"Bolivar","state_name":"Pennsylvania","lat":40.35518,"lng":-79.16447,"zip":"15923","miles_from_dt":18.97},{"city":"Sidman","state_name":"Pennsylvania","lat":40.30878,"lng":-78.69285,"zip":"15955","miles_from_dt":19.23},{"city":"Ashville","state_name":"Pennsylvania","lat":40.53723,"lng":-78.53214,"zip":"16613","miles_from_dt":19.23},{"city":"Aultman","state_name":"Pennsylvania","lat":40.5698,"lng":-79.26184,"zip":"15713","miles_from_dt":19.29},{"city":"Dunlo","state_name":"Pennsylvania","lat":40.29468,"lng":-78.71732,"zip":"15930","miles_from_dt":19.38},{"city":"Torrance","state_name":"Pennsylvania","lat":40.40008,"lng":-79.21846,"zip":"15779","miles_from_dt":19.46},{"city":"Burnside","state_name":"Pennsylvania","lat":40.82029,"lng":-78.78739,"zip":"15721","miles_from_dt":20.22},{"city":"Kent","state_name":"Pennsylvania","lat":40.5408,"lng":-79.28177,"zip":"15752","miles_from_dt":20.23},{"city":"Coupon","state_name":"Pennsylvania","lat":40.53759,"lng":-78.51316,"zip":"16629","miles_from_dt":20.23},{"city":"Home","state_name":"Pennsylvania","lat":40.76533,"lng":-79.14562,"zip":"15747","miles_from_dt":20.32},{"city":"Flinton","state_name":"Pennsylvania","lat":40.70657,"lng":-78.5702,"zip":"16640","miles_from_dt":20.71},{"city":"Davidsville","state_name":"Pennsylvania","lat":40.23943,"lng":-78.91591,"zip":"15928","miles_from_dt":20.73},{"city":"Rochester Mills","state_name":"Pennsylvania","lat":40.83309,"lng":-78.99009,"zip":"15771","miles_from_dt":20.83},{"city":"Creekside","state_name":"Pennsylvania","lat":40.72829,"lng":-79.21336,"zip":"15732","miles_from_dt":21.11},{"city":"Dysart","state_name":"Pennsylvania","lat":40.60214,"lng":-78.50161,"zip":"16636","miles_from_dt":21.27},{"city":"McIntyre","state_name":"Pennsylvania","lat":40.57134,"lng":-79.30096,"zip":"15756","miles_from_dt":21.35},{"city":"La Jose","state_name":"Pennsylvania","lat":40.78681,"lng":-78.64728,"zip":"15753","miles_from_dt":21.54},{"city":"Clune","state_name":"Pennsylvania","lat":40.56498,"lng":-79.31496,"zip":"15727","miles_from_dt":22.04},{"city":"Seanor","state_name":"Pennsylvania","lat":40.21113,"lng":-78.89049,"zip":"15953","miles_from_dt":22.66},{"city":"Jerome","state_name":"Pennsylvania","lat":40.21463,"lng":-78.98105,"zip":"15937","miles_from_dt":22.85},{"city":"Plumville","state_name":"Pennsylvania","lat":40.79167,"lng":-79.18215,"zip":"16246","miles_from_dt":22.95},{"city":"Rossiter","state_name":"Pennsylvania","lat":40.87392,"lng":-78.89984,"zip":"15772","miles_from_dt":23.07},{"city":"Duncansville","state_name":"Pennsylvania","lat":40.41621,"lng":-78.48743,"zip":"16635","miles_from_dt":23.22},{"city":"Windber","state_name":"Pennsylvania","lat":40.21676,"lng":-78.77234,"zip":"15963","miles_from_dt":23.23},{"city":"Clarksburg","state_name":"Pennsylvania","lat":40.51751,"lng":-79.33954,"zip":"15725","miles_from_dt":23.33},{"city":"Hollsopple","state_name":"Pennsylvania","lat":40.20112,"lng":-78.96755,"zip":"15935","miles_from_dt":23.64},{"city":"Beyer","state_name":"Pennsylvania","lat":40.79436,"lng":-79.2023,"zip":"16211","miles_from_dt":23.79},{"city":"Shelocta","state_name":"Pennsylvania","lat":40.65729,"lng":-79.32508,"zip":"15774","miles_from_dt":23.91},{"city":"West Lebanon","state_name":"Pennsylvania","lat":40.60297,"lng":-79.34495,"zip":"15783","miles_from_dt":23.95},{"city":"Sagamore","state_name":"Pennsylvania","lat":40.77566,"lng":-79.23782,"zip":"16250","miles_from_dt":24.2},{"city":"Marchand","state_name":"Pennsylvania","lat":40.87431,"lng":-79.04554,"zip":"15758","miles_from_dt":24.37},{"city":"Derry","state_name":"Pennsylvania","lat":40.35064,"lng":-79.30667,"zip":"15627","miles_from_dt":25.2},{"city":"Irvona","state_name":"Pennsylvania","lat":40.8066,"lng":-78.56353,"zip":"16656","miles_from_dt":25.44},{"city":"Coalport","state_name":"Pennsylvania","lat":40.75272,"lng":-78.50036,"zip":"16627","miles_from_dt":25.53},{"city":"New Derry","state_name":"Pennsylvania","lat":40.36038,"lng":-79.32146,"zip":"15671","miles_from_dt":25.54},{"city":"Mahaffey","state_name":"Pennsylvania","lat":40.8902,"lng":-78.73733,"zip":"15757","miles_from_dt":25.62},{"city":"Fallentimber","state_name":"Pennsylvania","lat":40.68566,"lng":-78.44912,"zip":"16639","miles_from_dt":25.64},{"city":"Smicksburg","state_name":"Pennsylvania","lat":40.8661,"lng":-79.13611,"zip":"16256","miles_from_dt":25.78},{"city":"Hooversville","state_name":"Pennsylvania","lat":40.16221,"lng":-78.89584,"zip":"15936","miles_from_dt":26.03},{"city":"Ligonier","state_name":"Pennsylvania","lat":40.25467,"lng":-79.22217,"zip":"15658","miles_from_dt":26.07},{"city":"Altoona","state_name":"Pennsylvania","lat":40.52003,"lng":-78.40017,"zip":"16603","miles_from_dt":26.22},{"city":"Boswell","state_name":"Pennsylvania","lat":40.18537,"lng":-79.0794,"zip":"15531","miles_from_dt":26.26},{"city":"East Freedom","state_name":"Pennsylvania","lat":40.34214,"lng":-78.47079,"zip":"16637","miles_from_dt":26.29},{"city":"Glasgow","state_name":"Pennsylvania","lat":40.7094,"lng":-78.4485,"zip":"16644","miles_from_dt":26.35},{"city":"Newry","state_name":"Pennsylvania","lat":40.38898,"lng":-78.43491,"zip":"16665","miles_from_dt":26.5},{"city":"Claysburg","state_name":"Pennsylvania","lat":40.28482,"lng":-78.50855,"zip":"16625","miles_from_dt":27.01},{"city":"Rural Valley","state_name":"Pennsylvania","lat":40.76209,"lng":-79.32163,"zip":"16249","miles_from_dt":27.07},{"city":"Imler","state_name":"Pennsylvania","lat":40.24898,"lng":-78.55092,"zip":"16655","miles_from_dt":27.13},{"city":"Nu Mine","state_name":"Pennsylvania","lat":40.80499,"lng":-79.27905,"zip":"16244","miles_from_dt":27.16},{"city":"Elderton","state_name":"Pennsylvania","lat":40.69945,"lng":-79.36946,"zip":"15736","miles_from_dt":27.16},{"city":"Blandburg","state_name":"Pennsylvania","lat":40.68367,"lng":-78.41591,"zip":"16619","miles_from_dt":27.2},{"city":"Valier","state_name":"Pennsylvania","lat":40.91628,"lng":-79.05606,"zip":"15780","miles_from_dt":27.3},{"city":"Alum Bank","state_name":"Pennsylvania","lat":40.19972,"lng":-78.63176,"zip":"15521","miles_from_dt":27.32},{"city":"Jennerstown","state_name":"Pennsylvania","lat":40.1629,"lng":-79.07019,"zip":"15547","miles_from_dt":27.54},{"city":"Hamilton","state_name":"Pennsylvania","lat":40.91722,"lng":-79.07119,"zip":"15744","miles_from_dt":27.61},{"city":"Altoona","state_name":"Pennsylvania","lat":40.55338,"lng":-78.37283,"zip":"16601","miles_from_dt":27.63},{"city":"Bradenville","state_name":"Pennsylvania","lat":40.32336,"lng":-79.33882,"zip":"15620","miles_from_dt":27.64},{"city":"Glen Hope","state_name":"Pennsylvania","lat":40.80204,"lng":-78.49932,"zip":"16645","miles_from_dt":27.67},{"city":"Altoona","state_name":"Pennsylvania","lat":40.51491,"lng":-78.37052,"zip":"16602","miles_from_dt":27.79},{"city":"Laughlintown","state_name":"Pennsylvania","lat":40.19739,"lng":-79.18141,"zip":"15655","miles_from_dt":27.96},{"city":"Northpoint","state_name":"Pennsylvania","lat":40.90718,"lng":-79.12795,"zip":"15763","miles_from_dt":28.11},{"city":"Beccaria","state_name":"Pennsylvania","lat":40.76832,"lng":-78.45128,"zip":"16616","miles_from_dt":28.27},{"city":"Queen","state_name":"Pennsylvania","lat":40.25828,"lng":-78.50556,"zip":"16670","miles_from_dt":28.35},{"city":"Saltsburg","state_name":"Pennsylvania","lat":40.5023,"lng":-79.43873,"zip":"15681","miles_from_dt":28.62},{"city":"Loyalhanna","state_name":"Pennsylvania","lat":40.32192,"lng":-79.36007,"zip":"15661","miles_from_dt":28.64},{"city":"Spring Church","state_name":"Pennsylvania","lat":40.61802,"lng":-79.43635,"zip":"15686","miles_from_dt":28.86},{"city":"Jenners","state_name":"Pennsylvania","lat":40.13717,"lng":-79.04758,"zip":"15546","miles_from_dt":28.87},{"city":"Avonmore","state_name":"Pennsylvania","lat":40.56229,"lng":-79.44628,"zip":"15618","miles_from_dt":28.93},{"city":"Punxsutawney","state_name":"Pennsylvania","lat":40.95859,"lng":-78.96974,"zip":"15767","miles_from_dt":29.16},{"city":"Yatesboro","state_name":"Pennsylvania","lat":40.80118,"lng":-79.34108,"zip":"16263","miles_from_dt":29.48},{"city":"New Alexandria","state_name":"Pennsylvania","lat":40.40783,"lng":-79.4321,"zip":"15670","miles_from_dt":29.6},{"city":"Walston","state_name":"Pennsylvania","lat":40.96375,"lng":-78.98679,"zip":"15781","miles_from_dt":29.65},{"city":"Sproul","state_name":"Pennsylvania","lat":40.27206,"lng":-78.4565,"zip":"16682","miles_from_dt":29.69},{"city":"Dayton","state_name":"Pennsylvania","lat":40.87171,"lng":-79.25719,"zip":"16222","miles_from_dt":29.7},{"city":"Big Run","state_name":"Pennsylvania","lat":40.97017,"lng":-78.87655,"zip":"15715","miles_from_dt":29.74},{"city":"Smithmill","state_name":"Pennsylvania","lat":40.75149,"lng":-78.40254,"zip":"16680","miles_from_dt":29.84},{"city":"Gray","state_name":"Pennsylvania","lat":40.13254,"lng":-79.09656,"zip":"15544","miles_from_dt":29.98}],"targetCityZipCode":"15957","targetCityState":"Pennsylvania"},"__N_SSG":true}