{"pageProps":{"stateName":"Idaho","cityName":"careywood","nearbyCities":[{"city":"Cocolalla","state_name":"Idaho","lat":48.10462,"lng":-116.63734,"zip":"83813","miles_from_dt":3.91},{"city":"Athol","state_name":"Idaho","lat":47.95631,"lng":-116.6434,"zip":"83801","miles_from_dt":7.87},{"city":"Bayview","state_name":"Idaho","lat":48.02261,"lng":-116.39878,"zip":"83803","miles_from_dt":8.88},{"city":"Sagle","state_name":"Idaho","lat":48.19234,"lng":-116.52918,"zip":"83860","miles_from_dt":9.3},{"city":"Dover","state_name":"Idaho","lat":48.24694,"lng":-116.6076,"zip":"83825","miles_from_dt":12.81},{"city":"Laclede","state_name":"Idaho","lat":48.19911,"lng":-116.77851,"zip":"83841","miles_from_dt":13.14},{"city":"Spirit Lake","state_name":"Idaho","lat":47.98095,"lng":-116.89239,"zip":"83869","miles_from_dt":15.48},{"city":"Ponderay","state_name":"Idaho","lat":48.31105,"lng":-116.53933,"zip":"83852","miles_from_dt":17.29},{"city":"Kootenai","state_name":"Idaho","lat":48.31263,"lng":-116.51506,"zip":"83840","miles_from_dt":17.56},{"city":"Blanchard","state_name":"Idaho","lat":48.03714,"lng":-116.97315,"zip":"83804","miles_from_dt":18.24},{"city":"Hayden","state_name":"Idaho","lat":47.79557,"lng":-116.66843,"zip":"83835","miles_from_dt":18.87},{"city":"Clark Fork","state_name":"Idaho","lat":48.11296,"lng":-116.15574,"zip":"83811","miles_from_dt":20},{"city":"Oldtown","state_name":"Idaho","lat":48.16785,"lng":-117.0014,"zip":"83822","miles_from_dt":20.76},{"city":"Rathdrum","state_name":"Idaho","lat":47.85245,"lng":-116.90173,"zip":"83858","miles_from_dt":20.78},{"city":"Hope","state_name":"Idaho","lat":48.27046,"lng":-116.24804,"zip":"83836","miles_from_dt":21.07},{"city":"Colburn","state_name":"Idaho","lat":48.39961,"lng":-116.53755,"zip":"83865","miles_from_dt":23.39},{"city":"Priest River","state_name":"Idaho","lat":48.34228,"lng":-116.91058,"zip":"83856","miles_from_dt":24.61},{"city":"Coeur D Alene","state_name":"Idaho","lat":47.72498,"lng":-116.78732,"zip":"83815","miles_from_dt":25.2},{"city":"Sandpoint","state_name":"Idaho","lat":48.43432,"lng":-116.50559,"zip":"83864","miles_from_dt":25.94},{"city":"Heron","state_name":"Montana","lat":48.00803,"lng":-115.9707,"zip":"59844","miles_from_dt":28.54},{"city":"Coeur D Alene","state_name":"Idaho","lat":47.66727,"lng":-116.77906,"zip":"83816","miles_from_dt":28.8},{"city":"Newport","state_name":"Washington","lat":48.16211,"lng":-117.18826,"zip":"99156","miles_from_dt":28.92},{"city":"Post Falls","state_name":"Idaho","lat":47.71486,"lng":-116.94554,"zip":"83877","miles_from_dt":29.38},{"city":"Post Falls","state_name":"Idaho","lat":47.7267,"lng":-116.97511,"zip":"83854","miles_from_dt":29.54}],"targetCityZipCode":"83809","targetCityState":"Idaho"},"__N_SSG":true}