{"pageProps":{"stateName":"Idaho","cityName":"garden-valley","nearbyCities":[{"city":"Placerville","state_name":"Idaho","lat":43.96157,"lng":-115.97398,"zip":"83666","miles_from_dt":10.85},{"city":"Banks","state_name":"Idaho","lat":44.09676,"lng":-116.15049,"zip":"83602","miles_from_dt":13},{"city":"Idaho City","state_name":"Idaho","lat":43.88543,"lng":-115.77369,"zip":"83631","miles_from_dt":16.32},{"city":"Horseshoe Bend","state_name":"Idaho","lat":43.91115,"lng":-116.16947,"zip":"83629","miles_from_dt":19.4},{"city":"Sweet","state_name":"Idaho","lat":44.0189,"lng":-116.30793,"zip":"83670","miles_from_dt":21.69},{"city":"Ola","state_name":"Idaho","lat":44.23554,"lng":-116.30057,"zip":"83657","miles_from_dt":22.28},{"city":"Lowman","state_name":"Idaho","lat":44.13249,"lng":-115.29625,"zip":"83637","miles_from_dt":29.56}],"targetCityZipCode":"83622","targetCityState":"Idaho"},"__N_SSG":true}