{"pageProps":{"stateName":"Idaho","cityName":"greencreek","nearbyCities":[{"city":"Ferdinand","state_name":"Idaho","lat":46.14759,"lng":-116.4169,"zip":"83526","miles_from_dt":8.72},{"city":"Nezperce","state_name":"Idaho","lat":46.27358,"lng":-116.23815,"zip":"83543","miles_from_dt":10.81},{"city":"Kamiah","state_name":"Idaho","lat":46.21794,"lng":-116.02665,"zip":"83536","miles_from_dt":12.41},{"city":"Craigmont","state_name":"Idaho","lat":46.22939,"lng":-116.47224,"zip":"83523","miles_from_dt":13.55},{"city":"Fenn","state_name":"Idaho","lat":45.92633,"lng":-116.12516,"zip":"83531","miles_from_dt":14.3},{"city":"Stites","state_name":"Idaho","lat":45.9777,"lng":-115.93948,"zip":"83552","miles_from_dt":17.39},{"city":"Grangeville","state_name":"Idaho","lat":45.91516,"lng":-116.02117,"zip":"83530","miles_from_dt":17.49},{"city":"Cottonwood","state_name":"Idaho","lat":45.91273,"lng":-116.50102,"zip":"83522","miles_from_dt":18.87},{"city":"Reubens","state_name":"Idaho","lat":46.34878,"lng":-116.50843,"zip":"83548","miles_from_dt":20.52},{"city":"Peck","state_name":"Idaho","lat":46.42664,"lng":-116.4213,"zip":"83545","miles_from_dt":23.07},{"city":"Winchester","state_name":"Idaho","lat":46.08662,"lng":-116.72221,"zip":"83555","miles_from_dt":23.23},{"city":"Weippe","state_name":"Idaho","lat":46.38365,"lng":-115.9038,"zip":"83553","miles_from_dt":24.48},{"city":"Culdesac","state_name":"Idaho","lat":46.3586,"lng":-116.65439,"zip":"83524","miles_from_dt":25.91},{"city":"Orofino","state_name":"Idaho","lat":46.49365,"lng":-116.1525,"zip":"83544","miles_from_dt":26.35},{"city":"Lenore","state_name":"Idaho","lat":46.49297,"lng":-116.50156,"zip":"83541","miles_from_dt":28.81},{"city":"Ahsahka","state_name":"Idaho","lat":46.53936,"lng":-116.32366,"zip":"83520","miles_from_dt":29.44},{"city":"White Bird","state_name":"Idaho","lat":45.68522,"lng":-116.29936,"zip":"83554","miles_from_dt":29.96}],"targetCityZipCode":"83533","targetCityState":"Idaho"},"__N_SSG":true}