{"pageProps":{"stateName":"Idaho","cityName":"hamer","nearbyCities":[{"city":"Terreton","state_name":"Idaho","lat":43.8463,"lng":-112.41356,"zip":"83450","miles_from_dt":11.44},{"city":"Menan","state_name":"Idaho","lat":43.75636,"lng":-112.00758,"zip":"83434","miles_from_dt":15.96},{"city":"Roberts","state_name":"Idaho","lat":43.69748,"lng":-112.24406,"zip":"83444","miles_from_dt":16.18},{"city":"Monteview","state_name":"Idaho","lat":43.98469,"lng":-112.58043,"zip":"83435","miles_from_dt":18.51},{"city":"Lewisville","state_name":"Idaho","lat":43.68808,"lng":-112.03012,"zip":"83431","miles_from_dt":19.2},{"city":"Rexburg","state_name":"Idaho","lat":43.81092,"lng":-111.80779,"zip":"83440","miles_from_dt":22.05},{"city":"Parker","state_name":"Idaho","lat":43.9597,"lng":-111.75932,"zip":"83438","miles_from_dt":22.9},{"city":"Rexburg","state_name":"Idaho","lat":43.81639,"lng":-111.7826,"zip":"83460","miles_from_dt":23.08},{"city":"Saint Anthony","state_name":"Idaho","lat":44.07014,"lng":-111.73075,"zip":"83445","miles_from_dt":26.06},{"city":"Sugar City","state_name":"Idaho","lat":43.85082,"lng":-111.70529,"zip":"83448","miles_from_dt":26.13},{"city":"Ucon","state_name":"Idaho","lat":43.5946,"lng":-111.95698,"zip":"83454","miles_from_dt":26.62},{"city":"Idaho Falls","state_name":"Idaho","lat":43.53011,"lng":-112.16786,"zip":"83402","miles_from_dt":27.79},{"city":"Rigby","state_name":"Idaho","lat":43.62931,"lng":-111.82507,"zip":"83442","miles_from_dt":28.6},{"city":"Dubois","state_name":"Idaho","lat":44.33967,"lng":-112.33199,"zip":"83423","miles_from_dt":28.79},{"city":"Teton","state_name":"Idaho","lat":43.86595,"lng":-111.63489,"zip":"83451","miles_from_dt":29.39}],"targetCityZipCode":"83425","targetCityState":"Idaho"},"__N_SSG":true}