{"pageProps":{"stateName":"Idaho","cityName":"salmon","nearbyCities":[{"city":"Tendoy","state_name":"Idaho","lat":44.92444,"lng":-113.61293,"zip":"83468","miles_from_dt":15.47},{"city":"Lemhi","state_name":"Idaho","lat":44.77581,"lng":-113.69949,"zip":"83465","miles_from_dt":19.48},{"city":"Carmen","state_name":"Idaho","lat":45.30698,"lng":-113.81069,"zip":"83462","miles_from_dt":20.27},{"city":"Cobalt","state_name":"Idaho","lat":45.11158,"lng":-114.43608,"zip":"83229","miles_from_dt":27.07},{"city":"Shoup","state_name":"Idaho","lat":45.1127,"lng":-114.47772,"zip":"83469","miles_from_dt":29.07},{"city":"Ellis","state_name":"Idaho","lat":44.60163,"lng":-114.03404,"zip":"83235","miles_from_dt":29.65}],"targetCityZipCode":"83467","targetCityState":"Idaho"},"__N_SSG":true}