{"pageProps":{"stateName":"Idaho","cityName":"troy","nearbyCities":[{"city":"Moscow","state_name":"Idaho","lat":46.72257,"lng":-116.94132,"zip":"83843","miles_from_dt":9.76},{"city":"Princeton","state_name":"Idaho","lat":46.8895,"lng":-116.79776,"zip":"83857","miles_from_dt":10.31},{"city":"Deary","state_name":"Idaho","lat":46.80554,"lng":-116.51934,"zip":"83823","miles_from_dt":11.19},{"city":"Kendrick","state_name":"Idaho","lat":46.62877,"lng":-116.52348,"zip":"83537","miles_from_dt":13.04},{"city":"Moscow","state_name":"Idaho","lat":46.72823,"lng":-117.01946,"zip":"83844","miles_from_dt":13.39},{"city":"Viola","state_name":"Idaho","lat":46.85772,"lng":-116.97251,"zip":"83872","miles_from_dt":13.52},{"city":"Juliaetta","state_name":"Idaho","lat":46.54011,"lng":-116.72599,"zip":"83535","miles_from_dt":14.23},{"city":"Genesee","state_name":"Idaho","lat":46.55223,"lng":-116.90666,"zip":"83832","miles_from_dt":15.58},{"city":"Harvard","state_name":"Idaho","lat":46.97566,"lng":-116.67484,"zip":"83834","miles_from_dt":16.16},{"city":"Potlatch","state_name":"Idaho","lat":46.97188,"lng":-116.92464,"zip":"83855","miles_from_dt":17.93},{"city":"Pullman","state_name":"Washington","lat":46.72889,"lng":-117.15574,"zip":"99164","miles_from_dt":19.84},{"city":"Bovill","state_name":"Idaho","lat":46.88243,"lng":-116.37038,"zip":"83806","miles_from_dt":19.85},{"city":"Lenore","state_name":"Idaho","lat":46.49297,"lng":-116.50156,"zip":"83541","miles_from_dt":20.8},{"city":"Palouse","state_name":"Washington","lat":46.89496,"lng":-117.13169,"zip":"99161","miles_from_dt":21.29},{"city":"Pullman","state_name":"Washington","lat":46.72798,"lng":-117.21654,"zip":"99163","miles_from_dt":22.73},{"city":"Colton","state_name":"Washington","lat":46.58628,"lng":-117.1935,"zip":"99113","miles_from_dt":24.28},{"city":"Ahsahka","state_name":"Idaho","lat":46.53936,"lng":-116.32366,"zip":"83520","miles_from_dt":24.36},{"city":"Albion","state_name":"Washington","lat":46.79218,"lng":-117.25029,"zip":"99102","miles_from_dt":24.49},{"city":"Uniontown","state_name":"Washington","lat":46.49239,"lng":-117.10762,"zip":"99179","miles_from_dt":24.8},{"city":"Desmet","state_name":"Idaho","lat":47.10638,"lng":-116.93901,"zip":"83824","miles_from_dt":26.65},{"city":"Peck","state_name":"Idaho","lat":46.42664,"lng":-116.4213,"zip":"83545","miles_from_dt":26.73},{"city":"Elk River","state_name":"Idaho","lat":46.78035,"lng":-116.17469,"zip":"83827","miles_from_dt":26.88},{"city":"Culdesac","state_name":"Idaho","lat":46.3586,"lng":-116.65439,"zip":"83524","miles_from_dt":27.05},{"city":"Garfield","state_name":"Washington","lat":46.99917,"lng":-117.18556,"zip":"99130","miles_from_dt":27.46},{"city":"Tensed","state_name":"Idaho","lat":47.13862,"lng":-116.85372,"zip":"83870","miles_from_dt":27.67},{"city":"Lapwai","state_name":"Idaho","lat":46.34649,"lng":-116.78273,"zip":"83540","miles_from_dt":27.67},{"city":"Clarkia","state_name":"Idaho","lat":47.00311,"lng":-116.28295,"zip":"83812","miles_from_dt":27.96},{"city":"Fernwood","state_name":"Idaho","lat":47.07651,"lng":-116.35272,"zip":"83830","miles_from_dt":29.25},{"city":"Farmington","state_name":"Washington","lat":47.10045,"lng":-117.08523,"zip":"99128","miles_from_dt":29.48},{"city":"Reubens","state_name":"Idaho","lat":46.34878,"lng":-116.50843,"zip":"83548","miles_from_dt":29.54}],"targetCityZipCode":"83871","targetCityState":"Idaho"},"__N_SSG":true}