{"pageProps":{"stateName":"Oklahoma","cityName":"chattanooga","nearbyCities":[{"city":"Loveland","state_name":"Oklahoma","lat":34.33066,"lng":-98.70295,"zip":"73553","miles_from_dt":6},{"city":"Faxon","state_name":"Oklahoma","lat":34.47099,"lng":-98.55756,"zip":"73540","miles_from_dt":6.84},{"city":"Cache","state_name":"Oklahoma","lat":34.5724,"lng":-98.62704,"zip":"73527","miles_from_dt":11.7},{"city":"Grandfield","state_name":"Oklahoma","lat":34.22336,"lng":-98.73053,"zip":"73546","miles_from_dt":13.33},{"city":"Hollister","state_name":"Oklahoma","lat":34.30754,"lng":-98.87487,"zip":"73551","miles_from_dt":14.69},{"city":"Lawton","state_name":"Oklahoma","lat":34.5718,"lng":-98.4834,"zip":"73505","miles_from_dt":14.84},{"city":"Geronimo","state_name":"Oklahoma","lat":34.46389,"lng":-98.38385,"zip":"73543","miles_from_dt":15.5},{"city":"Devol","state_name":"Oklahoma","lat":34.18845,"lng":-98.52703,"zip":"73531","miles_from_dt":16.28},{"city":"Indiahoma","state_name":"Oklahoma","lat":34.62709,"lng":-98.75631,"zip":"73552","miles_from_dt":16.68},{"city":"Frederick","state_name":"Oklahoma","lat":34.4024,"lng":-98.93893,"zip":"73542","miles_from_dt":16.78},{"city":"Walters","state_name":"Oklahoma","lat":34.37318,"lng":-98.32638,"zip":"73572","miles_from_dt":18.34},{"city":"Lawton","state_name":"Oklahoma","lat":34.62122,"lng":-98.45959,"zip":"73506","miles_from_dt":18.38},{"city":"Manitou","state_name":"Oklahoma","lat":34.50539,"lng":-98.9639,"zip":"73555","miles_from_dt":19.51},{"city":"Randlett","state_name":"Oklahoma","lat":34.19469,"lng":-98.41203,"zip":"73562","miles_from_dt":19.61},{"city":"Lawton","state_name":"Oklahoma","lat":34.60079,"lng":-98.39374,"zip":"73502","miles_from_dt":19.78},{"city":"Fort Sill","state_name":"Oklahoma","lat":34.67348,"lng":-98.49649,"zip":"73503","miles_from_dt":20.46},{"city":"Burkburnett","state_name":"Texas","lat":34.09521,"lng":-98.62276,"zip":"76354","miles_from_dt":21.27},{"city":"Snyder","state_name":"Oklahoma","lat":34.61647,"lng":-98.94258,"zip":"73566","miles_from_dt":22.45},{"city":"Lawton","state_name":"Oklahoma","lat":34.56211,"lng":-98.2864,"zip":"73501","miles_from_dt":23.22},{"city":"Medicine Park","state_name":"Oklahoma","lat":34.73072,"lng":-98.50022,"zip":"73557","miles_from_dt":24.04},{"city":"Lawton","state_name":"Oklahoma","lat":34.74802,"lng":-98.50201,"zip":"73507","miles_from_dt":25.13},{"city":"Davidson","state_name":"Oklahoma","lat":34.25845,"lng":-99.05664,"zip":"73530","miles_from_dt":25.56},{"city":"Temple","state_name":"Oklahoma","lat":34.26327,"lng":-98.21629,"zip":"73568","miles_from_dt":26.36},{"city":"Meers","state_name":"Oklahoma","lat":34.78294,"lng":-98.57782,"zip":"73558","miles_from_dt":26.45},{"city":"Tipton","state_name":"Oklahoma","lat":34.50988,"lng":-99.1071,"zip":"73570","miles_from_dt":27.38},{"city":"Harrold","state_name":"Texas","lat":34.13998,"lng":-99.00529,"zip":"76364","miles_from_dt":27.46},{"city":"Mountain Park","state_name":"Oklahoma","lat":34.73473,"lng":-98.94317,"zip":"73559","miles_from_dt":28.47},{"city":"Iowa Park","state_name":"Texas","lat":33.97361,"lng":-98.7168,"zip":"76367","miles_from_dt":29.9}],"targetCityZipCode":"73528","targetCityState":"Oklahoma"},"__N_SSG":true}