{"pageProps":{"stateName":"Oklahoma","cityName":"hendrix","nearbyCities":[{"city":"Kemp","state_name":"Oklahoma","lat":33.75491,"lng":-96.31612,"zip":"74747","miles_from_dt":3.12},{"city":"Achille","state_name":"Oklahoma","lat":33.83141,"lng":-96.37768,"zip":"74720","miles_from_dt":5.47},{"city":"Ravenna","state_name":"Texas","lat":33.70793,"lng":-96.24342,"zip":"75476","miles_from_dt":6.68},{"city":"Albany","state_name":"Oklahoma","lat":33.87977,"lng":-96.16266,"zip":"74721","miles_from_dt":9.47},{"city":"Ivanhoe","state_name":"Texas","lat":33.765,"lng":-96.11966,"zip":"75447","miles_from_dt":10.19},{"city":"Colbert","state_name":"Oklahoma","lat":33.83053,"lng":-96.47546,"zip":"74733","miles_from_dt":10.78},{"city":"Calera","state_name":"Oklahoma","lat":33.90466,"lng":-96.43361,"zip":"74730","miles_from_dt":11.04},{"city":"Denison","state_name":"Texas","lat":33.72686,"lng":-96.47552,"zip":"75021","miles_from_dt":11.54},{"city":"Savoy","state_name":"Texas","lat":33.63007,"lng":-96.3386,"zip":"75479","miles_from_dt":11.72},{"city":"Bokchito","state_name":"Oklahoma","lat":33.94966,"lng":-96.18135,"zip":"74726","miles_from_dt":12.4},{"city":"Durant","state_name":"Oklahoma","lat":33.9322,"lng":-96.43523,"zip":"74702","miles_from_dt":12.47},{"city":"Bells","state_name":"Texas","lat":33.62504,"lng":-96.43193,"zip":"75414","miles_from_dt":14.23},{"city":"Durant","state_name":"Oklahoma","lat":34.00974,"lng":-96.3769,"zip":"74701","miles_from_dt":15.52},{"city":"Platter","state_name":"Oklahoma","lat":33.90777,"lng":-96.53496,"zip":"74753","miles_from_dt":15.92},{"city":"Bonham","state_name":"Texas","lat":33.57235,"lng":-96.1773,"zip":"75418","miles_from_dt":16.77},{"city":"Ector","state_name":"Texas","lat":33.55261,"lng":-96.27796,"zip":"75439","miles_from_dt":16.78},{"city":"Cartwright","state_name":"Oklahoma","lat":33.8753,"lng":-96.57313,"zip":"74731","miles_from_dt":17.03},{"city":"Telephone","state_name":"Texas","lat":33.77628,"lng":-95.98899,"zip":"75488","miles_from_dt":17.54},{"city":"Denison","state_name":"Texas","lat":33.77264,"lng":-96.60391,"zip":"75020","miles_from_dt":17.97},{"city":"Dodd City","state_name":"Texas","lat":33.60701,"lng":-96.07462,"zip":"75438","miles_from_dt":18.09},{"city":"Sherman","state_name":"Texas","lat":33.6054,"lng":-96.54657,"zip":"75090","miles_from_dt":19.64},{"city":"Mead","state_name":"Oklahoma","lat":33.99471,"lng":-96.54114,"zip":"73449","miles_from_dt":19.79},{"city":"Bennington","state_name":"Oklahoma","lat":33.98958,"lng":-96.0233,"zip":"74723","miles_from_dt":20.46},{"city":"Sherman","state_name":"Texas","lat":33.63487,"lng":-96.60905,"zip":"75091","miles_from_dt":21.32},{"city":"Whitewright","state_name":"Texas","lat":33.49741,"lng":-96.39485,"zip":"75491","miles_from_dt":21.38},{"city":"Randolph","state_name":"Texas","lat":33.48593,"lng":-96.25757,"zip":"75475","miles_from_dt":21.45},{"city":"Gober","state_name":"Texas","lat":33.55431,"lng":-96.04411,"zip":"75443","miles_from_dt":21.96},{"city":"Tom Bean","state_name":"Texas","lat":33.5204,"lng":-96.48467,"zip":"75489","miles_from_dt":21.96},{"city":"Windom","state_name":"Texas","lat":33.59139,"lng":-96.0004,"zip":"75492","miles_from_dt":21.96},{"city":"Caddo","state_name":"Oklahoma","lat":34.14674,"lng":-96.25289,"zip":"74729","miles_from_dt":24.3},{"city":"Pottsboro","state_name":"Texas","lat":33.79608,"lng":-96.71913,"zip":"75076","miles_from_dt":24.53},{"city":"Trenton","state_name":"Texas","lat":33.4363,"lng":-96.30771,"zip":"75490","miles_from_dt":24.79},{"city":"Sherman","state_name":"Texas","lat":33.64869,"lng":-96.70011,"zip":"75092","miles_from_dt":25.55},{"city":"Bailey","state_name":"Texas","lat":33.43596,"lng":-96.16477,"zip":"75413","miles_from_dt":25.87},{"city":"Honey Grove","state_name":"Texas","lat":33.61385,"lng":-95.89177,"zip":"75446","miles_from_dt":26.28},{"city":"Kenefic","state_name":"Oklahoma","lat":34.16082,"lng":-96.44879,"zip":"74748","miles_from_dt":26.71},{"city":"Kingston","state_name":"Oklahoma","lat":33.93643,"lng":-96.74708,"zip":"73439","miles_from_dt":27.86},{"city":"Leonard","state_name":"Texas","lat":33.39284,"lng":-96.24469,"zip":"75452","miles_from_dt":27.9},{"city":"Caney","state_name":"Oklahoma","lat":34.20521,"lng":-96.18893,"zip":"74533","miles_from_dt":28.85},{"city":"Howe","state_name":"Texas","lat":33.52988,"lng":-96.6831,"zip":"75459","miles_from_dt":29.01},{"city":"Van Alstyne","state_name":"Texas","lat":33.43246,"lng":-96.55041,"zip":"75495","miles_from_dt":29.11},{"city":"Boswell","state_name":"Oklahoma","lat":34.01907,"lng":-95.86018,"zip":"74727","miles_from_dt":29.24},{"city":"Southmayd","state_name":"Texas","lat":33.62785,"lng":-96.76539,"zip":"76268","miles_from_dt":29.58}],"targetCityZipCode":"74741","targetCityState":"Oklahoma"},"__N_SSG":true}