{"pageProps":{"stateName":"North-carolina","cityName":"denton","nearbyCities":[{"city":"Southmont","state_name":"North Carolina","lat":35.65976,"lng":-80.26786,"zip":"27351","miles_from_dt":10.67},{"city":"Lexington","state_name":"North Carolina","lat":35.73469,"lng":-80.20845,"zip":"27292","miles_from_dt":11.11},{"city":"New London","state_name":"North Carolina","lat":35.44978,"lng":-80.16552,"zip":"28127","miles_from_dt":11.55},{"city":"Richfield","state_name":"North Carolina","lat":35.50009,"lng":-80.25783,"zip":"28137","miles_from_dt":11.92},{"city":"Badin","state_name":"North Carolina","lat":35.40826,"lng":-80.10743,"zip":"28009","miles_from_dt":13.64},{"city":"Asheboro","state_name":"North Carolina","lat":35.6399,"lng":-79.85094,"zip":"27205","miles_from_dt":13.68},{"city":"Misenheimer","state_name":"North Carolina","lat":35.48609,"lng":-80.28628,"zip":"28109","miles_from_dt":13.78},{"city":"Gold Hill","state_name":"North Carolina","lat":35.51859,"lng":-80.32175,"zip":"28071","miles_from_dt":14.36},{"city":"Troy","state_name":"North Carolina","lat":35.42489,"lng":-79.94912,"zip":"27371","miles_from_dt":14.78},{"city":"Trinity","state_name":"North Carolina","lat":35.8116,"lng":-79.99133,"zip":"27370","miles_from_dt":15.25},{"city":"Asheboro","state_name":"North Carolina","lat":35.66844,"lng":-79.80847,"zip":"27204","miles_from_dt":16.44},{"city":"Salisbury","state_name":"North Carolina","lat":35.62194,"lng":-80.39563,"zip":"28146","miles_from_dt":17.23},{"city":"Thomasville","state_name":"North Carolina","lat":35.85684,"lng":-80.09987,"zip":"27360","miles_from_dt":17.33},{"city":"Lexington","state_name":"North Carolina","lat":35.82116,"lng":-80.25058,"zip":"27294","miles_from_dt":17.38},{"city":"Sophia","state_name":"North Carolina","lat":35.80631,"lng":-79.88917,"zip":"27350","miles_from_dt":17.87},{"city":"Albemarle","state_name":"North Carolina","lat":35.35439,"lng":-80.19363,"zip":"28002","miles_from_dt":18.28},{"city":"Thomasville","state_name":"North Carolina","lat":35.87601,"lng":-80.09968,"zip":"27361","miles_from_dt":18.65},{"city":"Asheboro","state_name":"North Carolina","lat":35.73253,"lng":-79.78857,"zip":"27203","miles_from_dt":19.09},{"city":"Linwood","state_name":"North Carolina","lat":35.75131,"lng":-80.38402,"zip":"27299","miles_from_dt":19.34},{"city":"Albemarle","state_name":"North Carolina","lat":35.33594,"lng":-80.20419,"zip":"28001","miles_from_dt":19.67},{"city":"Ether","state_name":"North Carolina","lat":35.46096,"lng":-79.78784,"zip":"27247","miles_from_dt":19.75},{"city":"Granite Quarry","state_name":"North Carolina","lat":35.61326,"lng":-80.44241,"zip":"28072","miles_from_dt":19.83},{"city":"Lexington","state_name":"North Carolina","lat":35.85926,"lng":-80.25786,"zip":"27293","miles_from_dt":19.86},{"city":"Star","state_name":"North Carolina","lat":35.43991,"lng":-79.7982,"zip":"27356","miles_from_dt":20.04},{"city":"East Spencer","state_name":"North Carolina","lat":35.6803,"lng":-80.43626,"zip":"28039","miles_from_dt":20.14},{"city":"Spencer","state_name":"North Carolina","lat":35.69411,"lng":-80.43528,"zip":"28159","miles_from_dt":20.35},{"city":"Salisbury","state_name":"North Carolina","lat":35.66126,"lng":-80.44721,"zip":"28145","miles_from_dt":20.45},{"city":"Rockwell","state_name":"North Carolina","lat":35.52121,"lng":-80.44193,"zip":"28138","miles_from_dt":20.65},{"city":"Faith","state_name":"North Carolina","lat":35.58747,"lng":-80.46249,"zip":"28041","miles_from_dt":21},{"city":"Lexington","state_name":"North Carolina","lat":35.86756,"lng":-80.31623,"zip":"27295","miles_from_dt":22.08},{"city":"Salisbury","state_name":"North Carolina","lat":35.70645,"lng":-80.46341,"zip":"28144","miles_from_dt":22.12},{"city":"Cedar Falls","state_name":"North Carolina","lat":35.75286,"lng":-79.73163,"zip":"27230","miles_from_dt":22.58},{"city":"High Point","state_name":"North Carolina","lat":35.90931,"lng":-79.93829,"zip":"27263","miles_from_dt":22.61},{"city":"Mount Pleasant","state_name":"North Carolina","lat":35.40136,"lng":-80.40406,"zip":"28124","miles_from_dt":22.61},{"city":"Seagrove","state_name":"North Carolina","lat":35.52467,"lng":-79.70014,"zip":"27341","miles_from_dt":22.67},{"city":"Randleman","state_name":"North Carolina","lat":35.83809,"lng":-79.80376,"zip":"27317","miles_from_dt":22.72},{"city":"Welcome","state_name":"North Carolina","lat":35.91752,"lng":-80.25777,"zip":"27374","miles_from_dt":23.47},{"city":"High Point","state_name":"North Carolina","lat":35.96191,"lng":-80.03845,"zip":"27262","miles_from_dt":24.73},{"city":"High Point","state_name":"North Carolina","lat":35.95473,"lng":-79.98697,"zip":"27260","miles_from_dt":24.76},{"city":"Franklinville","state_name":"North Carolina","lat":35.78916,"lng":-79.70953,"zip":"27248","miles_from_dt":24.87},{"city":"High Point","state_name":"North Carolina","lat":35.97139,"lng":-79.99471,"zip":"27268","miles_from_dt":25.78},{"city":"High Point","state_name":"North Carolina","lat":35.97534,"lng":-79.99949,"zip":"27261","miles_from_dt":25.99},{"city":"High Point","state_name":"North Carolina","lat":35.98051,"lng":-79.99583,"zip":"27264","miles_from_dt":26.38},{"city":"Biscoe","state_name":"North Carolina","lat":35.34254,"lng":-79.74936,"zip":"27209","miles_from_dt":26.43},{"city":"Ramseur","state_name":"North Carolina","lat":35.68996,"lng":-79.62366,"zip":"27316","miles_from_dt":26.89},{"city":"Salisbury","state_name":"North Carolina","lat":35.67997,"lng":-80.56275,"zip":"28147","miles_from_dt":27.08},{"city":"Norwood","state_name":"North Carolina","lat":35.21476,"lng":-80.15862,"zip":"28128","miles_from_dt":27.22},{"city":"Mount Gilead","state_name":"North Carolina","lat":35.22098,"lng":-79.97685,"zip":"27306","miles_from_dt":27.28},{"city":"Locust","state_name":"North Carolina","lat":35.29675,"lng":-80.39327,"zip":"28097","miles_from_dt":27.31},{"city":"High Point","state_name":"North Carolina","lat":36.00947,"lng":-80.03272,"zip":"27265","miles_from_dt":28.03},{"city":"Wallburg","state_name":"North Carolina","lat":36.01277,"lng":-80.1392,"zip":"27373","miles_from_dt":28.2},{"city":"Jamestown","state_name":"North Carolina","lat":35.99656,"lng":-79.92869,"zip":"27282","miles_from_dt":28.44},{"city":"Winston Salem","state_name":"North Carolina","lat":36.01488,"lng":-80.17819,"zip":"27107","miles_from_dt":28.64},{"city":"Kannapolis","state_name":"North Carolina","lat":35.49108,"lng":-80.58092,"zip":"28083","miles_from_dt":28.75},{"city":"China Grove","state_name":"North Carolina","lat":35.56922,"lng":-80.60321,"zip":"28023","miles_from_dt":29},{"city":"Oakboro","state_name":"North Carolina","lat":35.23224,"lng":-80.32737,"zip":"28129","miles_from_dt":29.01},{"city":"Concord","state_name":"North Carolina","lat":35.38095,"lng":-80.52719,"zip":"28025","miles_from_dt":29.1},{"city":"Pleasant Garden","state_name":"North Carolina","lat":35.92892,"lng":-79.75142,"zip":"27313","miles_from_dt":29.31},{"city":"Climax","state_name":"North Carolina","lat":35.8882,"lng":-79.6988,"zip":"27233","miles_from_dt":29.38},{"city":"Concord","state_name":"North Carolina","lat":35.37613,"lng":-80.53368,"zip":"28026","miles_from_dt":29.59},{"city":"Candor","state_name":"North Carolina","lat":35.24853,"lng":-79.79873,"zip":"27229","miles_from_dt":29.61},{"city":"Cooleemee","state_name":"North Carolina","lat":35.8121,"lng":-80.55508,"zip":"27014","miles_from_dt":29.76},{"city":"Landis","state_name":"North Carolina","lat":35.54437,"lng":-80.61463,"zip":"28088","miles_from_dt":29.84}],"targetCityZipCode":"27239","targetCityState":"North Carolina"},"__N_SSG":true}