{"pageProps":{"stateName":"North-carolina","cityName":"hassell","nearbyCities":[{"city":"Hamilton","state_name":"North Carolina","lat":35.9343,"lng":-77.23186,"zip":"27840","miles_from_dt":3.06},{"city":"Oak City","state_name":"North Carolina","lat":35.96968,"lng":-77.27198,"zip":"27857","miles_from_dt":4.22},{"city":"Robersonville","state_name":"North Carolina","lat":35.81355,"lng":-77.26306,"zip":"27871","miles_from_dt":6.59},{"city":"Parmele","state_name":"North Carolina","lat":35.81716,"lng":-77.31899,"zip":"27861","miles_from_dt":6.74},{"city":"Everetts","state_name":"North Carolina","lat":35.83527,"lng":-77.17152,"zip":"27825","miles_from_dt":7.75},{"city":"Hobgood","state_name":"North Carolina","lat":35.99332,"lng":-77.39509,"zip":"27843","miles_from_dt":8.86},{"city":"Bethel","state_name":"North Carolina","lat":35.80506,"lng":-77.37616,"zip":"27812","miles_from_dt":9.07},{"city":"Speed","state_name":"North Carolina","lat":35.9702,"lng":-77.44228,"zip":"27881","miles_from_dt":10.23},{"city":"Lewiston Woodville","state_name":"North Carolina","lat":36.06796,"lng":-77.20675,"zip":"27849","miles_from_dt":11.66},{"city":"Conetoe","state_name":"North Carolina","lat":35.81412,"lng":-77.45731,"zip":"27819","miles_from_dt":12.07},{"city":"Williamston","state_name":"North Carolina","lat":35.81844,"lng":-77.06434,"zip":"27892","miles_from_dt":13.42},{"city":"Tarboro","state_name":"North Carolina","lat":35.90369,"lng":-77.52248,"zip":"27886","miles_from_dt":13.81},{"city":"Stokes","state_name":"North Carolina","lat":35.70771,"lng":-77.27176,"zip":"27884","miles_from_dt":13.85},{"city":"Scotland Neck","state_name":"North Carolina","lat":36.12874,"lng":-77.41037,"zip":"27874","miles_from_dt":16.93},{"city":"Greenville","state_name":"North Carolina","lat":35.6571,"lng":-77.37981,"zip":"27834","miles_from_dt":18.29},{"city":"Windsor","state_name":"North Carolina","lat":35.98198,"lng":-76.94704,"zip":"27983","miles_from_dt":19.14},{"city":"Kelford","state_name":"North Carolina","lat":36.18597,"lng":-77.20738,"zip":"27847","miles_from_dt":19.51},{"city":"Falkland","state_name":"North Carolina","lat":35.69823,"lng":-77.51224,"zip":"27827","miles_from_dt":19.64},{"city":"Roxobel","state_name":"North Carolina","lat":36.20096,"lng":-77.24601,"zip":"27872","miles_from_dt":20.23},{"city":"Greenville","state_name":"North Carolina","lat":35.607,"lng":-77.37177,"zip":"27835","miles_from_dt":21.47},{"city":"Greenville","state_name":"North Carolina","lat":35.60328,"lng":-77.35948,"zip":"27836","miles_from_dt":21.56},{"city":"Pinetops","state_name":"North Carolina","lat":35.8075,"lng":-77.64789,"zip":"27864","miles_from_dt":21.99},{"city":"Greenville","state_name":"North Carolina","lat":35.59701,"lng":-77.3758,"zip":"27833","miles_from_dt":22.2},{"city":"Macclesfield","state_name":"North Carolina","lat":35.75288,"lng":-77.63581,"zip":"27852","miles_from_dt":22.86},{"city":"Simpson","state_name":"North Carolina","lat":35.57456,"lng":-77.27968,"zip":"27879","miles_from_dt":23.03},{"city":"Aulander","state_name":"North Carolina","lat":36.20863,"lng":-77.08861,"zip":"27805","miles_from_dt":23.2},{"city":"Rocky Mount","state_name":"North Carolina","lat":35.92473,"lng":-77.69304,"zip":"27815","miles_from_dt":23.4},{"city":"Jamesville","state_name":"North Carolina","lat":35.76519,"lng":-76.89191,"zip":"27846","miles_from_dt":23.74},{"city":"Fountain","state_name":"North Carolina","lat":35.69272,"lng":-77.61215,"zip":"27829","miles_from_dt":24.03},{"city":"Rich Square","state_name":"North Carolina","lat":36.26631,"lng":-77.31665,"zip":"27869","miles_from_dt":24.77},{"city":"Bellarthur","state_name":"North Carolina","lat":35.58307,"lng":-77.49049,"zip":"27811","miles_from_dt":25.47},{"city":"Rocky Mount","state_name":"North Carolina","lat":35.91209,"lng":-77.73656,"zip":"27801","miles_from_dt":25.82},{"city":"Greenville","state_name":"North Carolina","lat":35.53229,"lng":-77.29709,"zip":"27858","miles_from_dt":25.97},{"city":"Washington","state_name":"North Carolina","lat":35.58909,"lng":-77.02386,"zip":"27889","miles_from_dt":26.2},{"city":"Tillery","state_name":"North Carolina","lat":36.25427,"lng":-77.48761,"zip":"27887","miles_from_dt":26.61},{"city":"Battleboro","state_name":"North Carolina","lat":36.01932,"lng":-77.74085,"zip":"27809","miles_from_dt":27.13},{"city":"Grimesland","state_name":"North Carolina","lat":35.51606,"lng":-77.20892,"zip":"27837","miles_from_dt":27.33},{"city":"Winterville","state_name":"North Carolina","lat":35.52046,"lng":-77.41651,"zip":"28590","miles_from_dt":27.9},{"city":"Farmville","state_name":"North Carolina","lat":35.58509,"lng":-77.58519,"zip":"27828","miles_from_dt":28.26},{"city":"Woodland","state_name":"North Carolina","lat":36.3246,"lng":-77.20969,"zip":"27897","miles_from_dt":28.92},{"city":"Whitakers","state_name":"North Carolina","lat":36.09968,"lng":-77.74103,"zip":"27891","miles_from_dt":29.18},{"city":"Powellsville","state_name":"North Carolina","lat":36.22232,"lng":-76.90838,"zip":"27967","miles_from_dt":29.87}],"targetCityZipCode":"27841","targetCityState":"North Carolina"},"__N_SSG":true}