{"pageProps":{"stateName":"North-carolina","cityName":"middleburg","nearbyCities":[{"city":"Norlina","state_name":"North Carolina","lat":36.4312,"lng":-78.23343,"zip":"27563","miles_from_dt":4.97},{"city":"Ridgeway","state_name":"North Carolina","lat":36.43861,"lng":-78.23662,"zip":"27570","miles_from_dt":5.07},{"city":"Henderson","state_name":"North Carolina","lat":36.35343,"lng":-78.38887,"zip":"27537","miles_from_dt":5.26},{"city":"Manson","state_name":"North Carolina","lat":36.48047,"lng":-78.30643,"zip":"27553","miles_from_dt":5.65},{"city":"Henderson","state_name":"North Carolina","lat":36.32645,"lng":-78.40754,"zip":"27536","miles_from_dt":7.26},{"city":"Wise","state_name":"North Carolina","lat":36.47294,"lng":-78.16622,"zip":"27594","miles_from_dt":9.65},{"city":"Townsville","state_name":"North Carolina","lat":36.4934,"lng":-78.44601,"zip":"27584","miles_from_dt":9.88},{"city":"Warrenton","state_name":"North Carolina","lat":36.33461,"lng":-78.12819,"zip":"27589","miles_from_dt":11.21},{"city":"Stovall","state_name":"North Carolina","lat":36.44736,"lng":-78.5691,"zip":"27582","miles_from_dt":14.66},{"city":"Macon","state_name":"North Carolina","lat":36.43339,"lng":-78.05231,"zip":"27551","miles_from_dt":14.72},{"city":"Bullock","state_name":"North Carolina","lat":36.51253,"lng":-78.55143,"zip":"27507","miles_from_dt":15.43},{"city":"Kittrell","state_name":"North Carolina","lat":36.20018,"lng":-78.44097,"zip":"27544","miles_from_dt":15.44},{"city":"Boydton","state_name":"Virginia","lat":36.62378,"lng":-78.34144,"zip":"23917","miles_from_dt":15.6},{"city":"Bracey","state_name":"Virginia","lat":36.59103,"lng":-78.13305,"zip":"23919","miles_from_dt":16.62},{"city":"Vaughan","state_name":"North Carolina","lat":36.42679,"lng":-78.00429,"zip":"27586","miles_from_dt":17.31},{"city":"Clarksville","state_name":"Virginia","lat":36.60899,"lng":-78.51258,"zip":"23927","miles_from_dt":18.27},{"city":"Oxford","state_name":"North Carolina","lat":36.36203,"lng":-78.64604,"zip":"27565","miles_from_dt":18.74},{"city":"Louisburg","state_name":"North Carolina","lat":36.10439,"lng":-78.24282,"zip":"27549","miles_from_dt":20.67},{"city":"Baskerville","state_name":"Virginia","lat":36.70668,"lng":-78.28627,"zip":"23915","miles_from_dt":21.29},{"city":"Franklinton","state_name":"North Carolina","lat":36.11721,"lng":-78.46997,"zip":"27525","miles_from_dt":21.3},{"city":"Ebony","state_name":"Virginia","lat":36.57048,"lng":-77.99322,"zip":"23845","miles_from_dt":21.38},{"city":"La Crosse","state_name":"Virginia","lat":36.66005,"lng":-78.07699,"zip":"23950","miles_from_dt":22.3},{"city":"Hollister","state_name":"North Carolina","lat":36.24555,"lng":-77.94945,"zip":"27844","miles_from_dt":22.87},{"city":"Buffalo Junction","state_name":"Virginia","lat":36.62452,"lng":-78.64001,"zip":"24529","miles_from_dt":23.96},{"city":"Littleton","state_name":"North Carolina","lat":36.40202,"lng":-77.88141,"zip":"27850","miles_from_dt":24.05},{"city":"Nelson","state_name":"Virginia","lat":36.58328,"lng":-78.68,"zip":"24580","miles_from_dt":24.08},{"city":"Castalia","state_name":"North Carolina","lat":36.10732,"lng":-78.07245,"zip":"27816","miles_from_dt":24.17},{"city":"Skipwith","state_name":"Virginia","lat":36.72123,"lng":-78.51922,"zip":"23968","miles_from_dt":25.03},{"city":"South Hill","state_name":"Virginia","lat":36.74818,"lng":-78.18637,"zip":"23970","miles_from_dt":25.11},{"city":"White Plains","state_name":"Virginia","lat":36.6244,"lng":-77.93658,"zip":"23893","miles_from_dt":26.1},{"city":"Henrico","state_name":"North Carolina","lat":36.52458,"lng":-77.85593,"zip":"27842","miles_from_dt":26.89},{"city":"Gasburg","state_name":"Virginia","lat":36.58389,"lng":-77.88588,"zip":"23857","miles_from_dt":26.99},{"city":"Stem","state_name":"North Carolina","lat":36.20155,"lng":-78.73355,"zip":"27581","miles_from_dt":27.13},{"city":"Youngsville","state_name":"North Carolina","lat":36.00906,"lng":-78.44448,"zip":"27596","miles_from_dt":27.85},{"city":"Creedmoor","state_name":"North Carolina","lat":36.10565,"lng":-78.67676,"zip":"27522","miles_from_dt":28.65},{"city":"Chase City","state_name":"Virginia","lat":36.80919,"lng":-78.43396,"zip":"23924","miles_from_dt":29.09},{"city":"Brodnax","state_name":"Virginia","lat":36.72452,"lng":-77.97266,"zip":"23920","miles_from_dt":29.38},{"city":"Virgilina","state_name":"Virginia","lat":36.60521,"lng":-78.7828,"zip":"24598","miles_from_dt":29.78},{"city":"Valentines","state_name":"Virginia","lat":36.56762,"lng":-77.81658,"zip":"23887","miles_from_dt":29.99}],"targetCityZipCode":"27556","targetCityState":"North Carolina"},"__N_SSG":true}