{"pageProps":{"stateName":"North-carolina","cityName":"pinetops","nearbyCities":[{"city":"Macclesfield","state_name":"North Carolina","lat":35.75288,"lng":-77.63581,"zip":"27852","miles_from_dt":3.83},{"city":"Fountain","state_name":"North Carolina","lat":35.69272,"lng":-77.61215,"zip":"27829","miles_from_dt":8.16},{"city":"Rocky Mount","state_name":"North Carolina","lat":35.92473,"lng":-77.69304,"zip":"27815","miles_from_dt":8.47},{"city":"Rocky Mount","state_name":"North Carolina","lat":35.91209,"lng":-77.73656,"zip":"27801","miles_from_dt":8.76},{"city":"Tarboro","state_name":"North Carolina","lat":35.90369,"lng":-77.52248,"zip":"27886","miles_from_dt":9.67},{"city":"Conetoe","state_name":"North Carolina","lat":35.81412,"lng":-77.45731,"zip":"27819","miles_from_dt":10.71},{"city":"Falkland","state_name":"North Carolina","lat":35.69823,"lng":-77.51224,"zip":"27827","miles_from_dt":10.72},{"city":"Elm City","state_name":"North Carolina","lat":35.80402,"lng":-77.83868,"zip":"27822","miles_from_dt":10.72},{"city":"Sharpsburg","state_name":"North Carolina","lat":35.86606,"lng":-77.83062,"zip":"27878","miles_from_dt":11.02},{"city":"Rocky Mount","state_name":"North Carolina","lat":35.86371,"lng":-77.84019,"zip":"27802","miles_from_dt":11.47},{"city":"Saratoga","state_name":"North Carolina","lat":35.65331,"lng":-77.77606,"zip":"27873","miles_from_dt":12.84},{"city":"Rocky Mount","state_name":"North Carolina","lat":35.89627,"lng":-77.85407,"zip":"27803","miles_from_dt":13.09},{"city":"Walstonburg","state_name":"North Carolina","lat":35.59589,"lng":-77.70448,"zip":"27888","miles_from_dt":14.93},{"city":"Bethel","state_name":"North Carolina","lat":35.80506,"lng":-77.37616,"zip":"27812","miles_from_dt":15.26},{"city":"Battleboro","state_name":"North Carolina","lat":36.01932,"lng":-77.74085,"zip":"27809","miles_from_dt":15.51},{"city":"Farmville","state_name":"North Carolina","lat":35.58509,"lng":-77.58519,"zip":"27828","miles_from_dt":15.73},{"city":"Speed","state_name":"North Carolina","lat":35.9702,"lng":-77.44228,"zip":"27881","miles_from_dt":16.09},{"city":"Wilson","state_name":"North Carolina","lat":35.69351,"lng":-77.90458,"zip":"27893","miles_from_dt":16.43},{"city":"Wilson","state_name":"North Carolina","lat":35.73253,"lng":-77.92592,"zip":"27894","miles_from_dt":16.45},{"city":"Rocky Mount","state_name":"North Carolina","lat":35.98958,"lng":-77.84778,"zip":"27804","miles_from_dt":16.83},{"city":"Wilson","state_name":"North Carolina","lat":35.75993,"lng":-77.94339,"zip":"27895","miles_from_dt":16.92},{"city":"Stantonsburg","state_name":"North Carolina","lat":35.59141,"lng":-77.80095,"zip":"27883","miles_from_dt":17.21},{"city":"Bellarthur","state_name":"North Carolina","lat":35.58307,"lng":-77.49049,"zip":"27811","miles_from_dt":17.83},{"city":"Greenville","state_name":"North Carolina","lat":35.6571,"lng":-77.37981,"zip":"27834","miles_from_dt":18.29},{"city":"Wilson","state_name":"North Carolina","lat":35.79303,"lng":-77.97399,"zip":"27896","miles_from_dt":18.34},{"city":"Parmele","state_name":"North Carolina","lat":35.81716,"lng":-77.31899,"zip":"27861","miles_from_dt":18.48},{"city":"Hobgood","state_name":"North Carolina","lat":35.99332,"lng":-77.39509,"zip":"27843","miles_from_dt":19.11},{"city":"Black Creek","state_name":"North Carolina","lat":35.63083,"lng":-77.93587,"zip":"27813","miles_from_dt":20.26},{"city":"Greenville","state_name":"North Carolina","lat":35.607,"lng":-77.37177,"zip":"27835","miles_from_dt":20.79},{"city":"Whitakers","state_name":"North Carolina","lat":36.09968,"lng":-77.74103,"zip":"27891","miles_from_dt":20.81},{"city":"Greenville","state_name":"North Carolina","lat":35.59701,"lng":-77.3758,"zip":"27833","miles_from_dt":21.09},{"city":"Greenville","state_name":"North Carolina","lat":35.60328,"lng":-77.35948,"zip":"27836","miles_from_dt":21.48},{"city":"Robersonville","state_name":"North Carolina","lat":35.81355,"lng":-77.26306,"zip":"27871","miles_from_dt":21.62},{"city":"Red Oak","state_name":"North Carolina","lat":36.03849,"lng":-77.90884,"zip":"27868","miles_from_dt":21.63},{"city":"Hassell","state_name":"North Carolina","lat":35.90859,"lng":-77.27632,"zip":"27841","miles_from_dt":21.99},{"city":"Stokes","state_name":"North Carolina","lat":35.70771,"lng":-77.27176,"zip":"27884","miles_from_dt":22.23},{"city":"Maury","state_name":"North Carolina","lat":35.47569,"lng":-77.5926,"zip":"28554","miles_from_dt":23.09},{"city":"Nashville","state_name":"North Carolina","lat":36.00998,"lng":-77.98151,"zip":"27856","miles_from_dt":23.35},{"city":"Winterville","state_name":"North Carolina","lat":35.52046,"lng":-77.41651,"zip":"28590","miles_from_dt":23.69},{"city":"Oak City","state_name":"North Carolina","lat":35.96968,"lng":-77.27198,"zip":"27857","miles_from_dt":23.87},{"city":"Lucama","state_name":"North Carolina","lat":35.63965,"lng":-78.02739,"zip":"27851","miles_from_dt":24.27},{"city":"Fremont","state_name":"North Carolina","lat":35.55557,"lng":-77.95224,"zip":"27830","miles_from_dt":24.39},{"city":"Snow Hill","state_name":"North Carolina","lat":35.45116,"lng":-77.68053,"zip":"28580","miles_from_dt":24.64},{"city":"Bailey","state_name":"North Carolina","lat":35.80915,"lng":-78.0917,"zip":"27807","miles_from_dt":24.92},{"city":"Hamilton","state_name":"North Carolina","lat":35.9343,"lng":-77.23186,"zip":"27840","miles_from_dt":24.93},{"city":"Sims","state_name":"North Carolina","lat":35.73656,"lng":-78.08912,"zip":"27880","miles_from_dt":25.27},{"city":"Scotland Neck","state_name":"North Carolina","lat":36.12874,"lng":-77.41037,"zip":"27874","miles_from_dt":25.84},{"city":"Simpson","state_name":"North Carolina","lat":35.57456,"lng":-77.27968,"zip":"27879","miles_from_dt":26.21},{"city":"Everetts","state_name":"North Carolina","lat":35.83527,"lng":-77.17152,"zip":"27825","miles_from_dt":26.82},{"city":"Hookerton","state_name":"North Carolina","lat":35.41769,"lng":-77.56366,"zip":"28538","miles_from_dt":27.29},{"city":"Greenville","state_name":"North Carolina","lat":35.53229,"lng":-77.29709,"zip":"27858","miles_from_dt":27.38},{"city":"Enfield","state_name":"North Carolina","lat":36.20616,"lng":-77.71685,"zip":"27823","miles_from_dt":27.76},{"city":"Spring Hope","state_name":"North Carolina","lat":35.94222,"lng":-78.11825,"zip":"27882","miles_from_dt":27.98},{"city":"Pikeville","state_name":"North Carolina","lat":35.48739,"lng":-77.96993,"zip":"27863","miles_from_dt":28.56},{"city":"Ayden","state_name":"North Carolina","lat":35.44276,"lng":-77.3897,"zip":"28513","miles_from_dt":29.04}],"targetCityZipCode":"27864","targetCityState":"North Carolina"},"__N_SSG":true}