{"pageProps":{"stateName":"North-carolina","cityName":"rutherfordton","nearbyCities":[{"city":"Spindale","state_name":"North Carolina","lat":35.36064,"lng":-81.92234,"zip":"28160","miles_from_dt":4.32},{"city":"Forest City","state_name":"North Carolina","lat":35.31301,"lng":-81.86971,"zip":"28043","miles_from_dt":7.57},{"city":"Harris","state_name":"North Carolina","lat":35.23933,"lng":-81.8783,"zip":"28074","miles_from_dt":10.02},{"city":"Mill Spring","state_name":"North Carolina","lat":35.34256,"lng":-82.18219,"zip":"28756","miles_from_dt":10.46},{"city":"Columbus","state_name":"North Carolina","lat":35.23408,"lng":-82.12794,"zip":"28722","miles_from_dt":10.76},{"city":"Union Mills","state_name":"North Carolina","lat":35.5062,"lng":-81.95986,"zip":"28167","miles_from_dt":11.15},{"city":"Tryon","state_name":"North Carolina","lat":35.23569,"lng":-82.1519,"zip":"28782","miles_from_dt":11.66},{"city":"Caroleen","state_name":"North Carolina","lat":35.28395,"lng":-81.79396,"zip":"28019","miles_from_dt":12.28},{"city":"Lake Lure","state_name":"North Carolina","lat":35.461,"lng":-82.16779,"zip":"28746","miles_from_dt":12.42},{"city":"Henrietta","state_name":"North Carolina","lat":35.25904,"lng":-81.79074,"zip":"28076","miles_from_dt":13.15},{"city":"Ellenboro","state_name":"North Carolina","lat":35.38738,"lng":-81.74762,"zip":"28040","miles_from_dt":14.35},{"city":"Cliffside","state_name":"North Carolina","lat":35.24347,"lng":-81.77066,"zip":"28024","miles_from_dt":14.66},{"city":"Fingerville","state_name":"South Carolina","lat":35.13444,"lng":-82.00172,"zip":"29338","miles_from_dt":14.68},{"city":"Bostic","state_name":"North Carolina","lat":35.48458,"lng":-81.79393,"zip":"28018","miles_from_dt":14.86},{"city":"Lynn","state_name":"North Carolina","lat":35.22687,"lng":-82.2228,"zip":"28750","miles_from_dt":15.23},{"city":"Chimney Rock","state_name":"North Carolina","lat":35.42766,"lng":-82.25145,"zip":"28720","miles_from_dt":15.39},{"city":"Chesnee","state_name":"South Carolina","lat":35.12911,"lng":-81.90902,"zip":"29323","miles_from_dt":15.85},{"city":"Mooresboro","state_name":"North Carolina","lat":35.23,"lng":-81.74814,"zip":"28114","miles_from_dt":16.23},{"city":"Campobello","state_name":"South Carolina","lat":35.12254,"lng":-82.13157,"zip":"29322","miles_from_dt":17.27},{"city":"Bat Cave","state_name":"North Carolina","lat":35.45683,"lng":-82.27971,"zip":"28710","miles_from_dt":17.65},{"city":"Saluda","state_name":"North Carolina","lat":35.25246,"lng":-82.31166,"zip":"28773","miles_from_dt":18.95},{"city":"Lattimore","state_name":"North Carolina","lat":35.3202,"lng":-81.66067,"zip":"28089","miles_from_dt":19.09},{"city":"Inman","state_name":"South Carolina","lat":35.07045,"lng":-82.0688,"zip":"29349","miles_from_dt":19.52},{"city":"Gramling","state_name":"South Carolina","lat":35.08222,"lng":-82.12646,"zip":"29348","miles_from_dt":19.69},{"city":"Boiling Springs","state_name":"North Carolina","lat":35.24708,"lng":-81.67059,"zip":"28017","miles_from_dt":19.7},{"city":"Mayo","state_name":"South Carolina","lat":35.08262,"lng":-81.86281,"zip":"29368","miles_from_dt":19.77},{"city":"Edneyville","state_name":"North Carolina","lat":35.39634,"lng":-82.34372,"zip":"28727","miles_from_dt":19.87},{"city":"Landrum","state_name":"South Carolina","lat":35.14411,"lng":-82.26187,"zip":"29356","miles_from_dt":20.51},{"city":"Polkville","state_name":"North Carolina","lat":35.4206,"lng":-81.64241,"zip":"28136","miles_from_dt":20.65},{"city":"Boiling Springs","state_name":"South Carolina","lat":35.04179,"lng":-81.9766,"zip":"29316","miles_from_dt":21.1},{"city":"Hendersonville","state_name":"North Carolina","lat":35.39289,"lng":-82.36786,"zip":"28792","miles_from_dt":21.17},{"city":"Dana","state_name":"North Carolina","lat":35.32905,"lng":-82.37446,"zip":"28724","miles_from_dt":21.36},{"city":"Gerton","state_name":"North Carolina","lat":35.47544,"lng":-82.3485,"zip":"28735","miles_from_dt":21.71},{"city":"Flat Rock","state_name":"North Carolina","lat":35.28905,"lng":-82.37796,"zip":"28731","miles_from_dt":21.9},{"city":"Gaffney","state_name":"South Carolina","lat":35.1184,"lng":-81.71321,"zip":"29341","miles_from_dt":22.51},{"city":"Old Fort","state_name":"North Carolina","lat":35.63517,"lng":-82.18929,"zip":"28762","miles_from_dt":22.61},{"city":"Cowpens","state_name":"South Carolina","lat":35.05362,"lng":-81.80463,"zip":"29330","miles_from_dt":22.99},{"city":"Glenwood","state_name":"North Carolina","lat":35.68389,"lng":-82.00944,"zip":"28737","miles_from_dt":23.21},{"city":"Casar","state_name":"North Carolina","lat":35.52408,"lng":-81.64328,"zip":"28020","miles_from_dt":23.38},{"city":"Black Mountain","state_name":"North Carolina","lat":35.59666,"lng":-82.28767,"zip":"28711","miles_from_dt":23.75},{"city":"Shelby","state_name":"North Carolina","lat":35.34712,"lng":-81.57502,"zip":"28150","miles_from_dt":23.84},{"city":"Shelby","state_name":"North Carolina","lat":35.24188,"lng":-81.59289,"zip":"28152","miles_from_dt":23.97},{"city":"East Flat Rock","state_name":"North Carolina","lat":35.282,"lng":-82.41752,"zip":"28726","miles_from_dt":24.18},{"city":"Nebo","state_name":"North Carolina","lat":35.69134,"lng":-81.90714,"zip":"28761","miles_from_dt":24.25},{"city":"Spartanburg","state_name":"South Carolina","lat":34.99424,"lng":-81.96883,"zip":"29303","miles_from_dt":24.4},{"city":"Ridgecrest","state_name":"North Carolina","lat":35.62104,"lng":-82.2782,"zip":"28770","miles_from_dt":24.64},{"city":"Fairview","state_name":"North Carolina","lat":35.52792,"lng":-82.37588,"zip":"28730","miles_from_dt":24.74},{"city":"Spartanburg","state_name":"South Carolina","lat":34.98926,"lng":-81.95461,"zip":"29305","miles_from_dt":24.8},{"city":"Marion","state_name":"North Carolina","lat":35.71124,"lng":-82.03631,"zip":"28752","miles_from_dt":25.18},{"city":"Tuxedo","state_name":"North Carolina","lat":35.23229,"lng":-82.43118,"zip":"28784","miles_from_dt":25.79},{"city":"Lawndale","state_name":"North Carolina","lat":35.45987,"lng":-81.55957,"zip":"28090","miles_from_dt":25.88},{"city":"Shelby","state_name":"North Carolina","lat":35.28834,"lng":-81.54386,"zip":"28151","miles_from_dt":25.93},{"city":"Converse","state_name":"South Carolina","lat":34.99262,"lng":-81.83682,"zip":"29329","miles_from_dt":26.08},{"city":"Wellford","state_name":"South Carolina","lat":34.97623,"lng":-82.1024,"zip":"29385","miles_from_dt":26.27},{"city":"Una","state_name":"South Carolina","lat":34.96684,"lng":-81.96857,"zip":"29378","miles_from_dt":26.28},{"city":"Drayton","state_name":"South Carolina","lat":34.97092,"lng":-81.91069,"zip":"29333","miles_from_dt":26.41},{"city":"Clifton","state_name":"South Carolina","lat":34.98944,"lng":-81.82523,"zip":"29324","miles_from_dt":26.52},{"city":"Spartanburg","state_name":"South Carolina","lat":34.98381,"lng":-81.83146,"zip":"29307","miles_from_dt":26.76},{"city":"Arcadia","state_name":"South Carolina","lat":34.95847,"lng":-81.9922,"zip":"29320","miles_from_dt":26.81},{"city":"Montreat","state_name":"North Carolina","lat":35.64781,"lng":-82.30006,"zip":"28757","miles_from_dt":26.85},{"city":"Lyman","state_name":"South Carolina","lat":34.98079,"lng":-82.16869,"zip":"29365","miles_from_dt":27.07},{"city":"Hendersonville","state_name":"North Carolina","lat":35.32798,"lng":-82.47818,"zip":"28793","miles_from_dt":27.21},{"city":"Spartanburg","state_name":"South Carolina","lat":34.95809,"lng":-81.90577,"zip":"29304","miles_from_dt":27.33},{"city":"Fletcher","state_name":"North Carolina","lat":35.44667,"lng":-82.46577,"zip":"28732","miles_from_dt":27.33},{"city":"Fairforest","state_name":"South Carolina","lat":34.95037,"lng":-82.01495,"zip":"29336","miles_from_dt":27.39},{"city":"Earl","state_name":"North Carolina","lat":35.19966,"lng":-81.54335,"zip":"28038","miles_from_dt":27.6},{"city":"Spartanburg","state_name":"South Carolina","lat":34.94718,"lng":-81.92678,"zip":"29319","miles_from_dt":27.87},{"city":"Tigerville","state_name":"South Carolina","lat":35.06245,"lng":-82.35226,"zip":"29688","miles_from_dt":28.1},{"city":"Fallston","state_name":"North Carolina","lat":35.42334,"lng":-81.50747,"zip":"28042","miles_from_dt":28.13},{"city":"Mountain Home","state_name":"North Carolina","lat":35.37489,"lng":-82.49569,"zip":"28758","miles_from_dt":28.23},{"city":"Spartanburg","state_name":"South Carolina","lat":34.93516,"lng":-82.01301,"zip":"29301","miles_from_dt":28.43},{"city":"Naples","state_name":"North Carolina","lat":35.39261,"lng":-82.503,"zip":"28760","miles_from_dt":28.74},{"city":"Hendersonville","state_name":"North Carolina","lat":35.35674,"lng":-82.508,"zip":"28791","miles_from_dt":28.87},{"city":"Glen Alpine","state_name":"North Carolina","lat":35.72914,"lng":-81.77826,"zip":"28628","miles_from_dt":29.06},{"city":"Glendale","state_name":"South Carolina","lat":34.94524,"lng":-81.83627,"zip":"29346","miles_from_dt":29.18},{"city":"Startex","state_name":"South Carolina","lat":34.93036,"lng":-82.0971,"zip":"29377","miles_from_dt":29.3},{"city":"Swannanoa","state_name":"North Carolina","lat":35.61667,"lng":-82.40768,"zip":"28778","miles_from_dt":29.68},{"city":"Zirconia","state_name":"North Carolina","lat":35.20036,"lng":-82.49507,"zip":"28790","miles_from_dt":29.92}],"targetCityZipCode":"28139","targetCityState":"North Carolina"},"__N_SSG":true}