{"pageProps":{"stateName":"North-carolina","cityName":"sharpsburg","nearbyCities":[{"city":"Rocky Mount","state_name":"North Carolina","lat":35.86371,"lng":-77.84019,"zip":"27802","miles_from_dt":0.56},{"city":"Rocky Mount","state_name":"North Carolina","lat":35.89627,"lng":-77.85407,"zip":"27803","miles_from_dt":2.46},{"city":"Elm City","state_name":"North Carolina","lat":35.80402,"lng":-77.83868,"zip":"27822","miles_from_dt":4.3},{"city":"Rocky Mount","state_name":"North Carolina","lat":35.91209,"lng":-77.73656,"zip":"27801","miles_from_dt":6.16},{"city":"Rocky Mount","state_name":"North Carolina","lat":35.98958,"lng":-77.84778,"zip":"27804","miles_from_dt":8.57},{"city":"Rocky Mount","state_name":"North Carolina","lat":35.92473,"lng":-77.69304,"zip":"27815","miles_from_dt":8.71},{"city":"Wilson","state_name":"North Carolina","lat":35.79303,"lng":-77.97399,"zip":"27896","miles_from_dt":9.49},{"city":"Wilson","state_name":"North Carolina","lat":35.75993,"lng":-77.94339,"zip":"27895","miles_from_dt":9.68},{"city":"Wilson","state_name":"North Carolina","lat":35.73253,"lng":-77.92592,"zip":"27894","miles_from_dt":10.65},{"city":"Pinetops","state_name":"North Carolina","lat":35.8075,"lng":-77.64789,"zip":"27864","miles_from_dt":11.02},{"city":"Battleboro","state_name":"North Carolina","lat":36.01932,"lng":-77.74085,"zip":"27809","miles_from_dt":11.7},{"city":"Wilson","state_name":"North Carolina","lat":35.69351,"lng":-77.90458,"zip":"27893","miles_from_dt":12.6},{"city":"Red Oak","state_name":"North Carolina","lat":36.03849,"lng":-77.90884,"zip":"27868","miles_from_dt":12.67},{"city":"Nashville","state_name":"North Carolina","lat":36.00998,"lng":-77.98151,"zip":"27856","miles_from_dt":13.04},{"city":"Macclesfield","state_name":"North Carolina","lat":35.75288,"lng":-77.63581,"zip":"27852","miles_from_dt":13.44},{"city":"Saratoga","state_name":"North Carolina","lat":35.65331,"lng":-77.77606,"zip":"27873","miles_from_dt":14.98},{"city":"Bailey","state_name":"North Carolina","lat":35.80915,"lng":-78.0917,"zip":"27807","miles_from_dt":15.17},{"city":"Whitakers","state_name":"North Carolina","lat":36.09968,"lng":-77.74103,"zip":"27891","miles_from_dt":16.87},{"city":"Spring Hope","state_name":"North Carolina","lat":35.94222,"lng":-78.11825,"zip":"27882","miles_from_dt":16.97},{"city":"Sims","state_name":"North Carolina","lat":35.73656,"lng":-78.08912,"zip":"27880","miles_from_dt":17.04},{"city":"Fountain","state_name":"North Carolina","lat":35.69272,"lng":-77.61215,"zip":"27829","miles_from_dt":17.13},{"city":"Black Creek","state_name":"North Carolina","lat":35.63083,"lng":-77.93587,"zip":"27813","miles_from_dt":17.26},{"city":"Tarboro","state_name":"North Carolina","lat":35.90369,"lng":-77.52248,"zip":"27886","miles_from_dt":17.48},{"city":"Stantonsburg","state_name":"North Carolina","lat":35.59141,"lng":-77.80095,"zip":"27883","miles_from_dt":19.01},{"city":"Lucama","state_name":"North Carolina","lat":35.63965,"lng":-78.02739,"zip":"27851","miles_from_dt":19.13},{"city":"Walstonburg","state_name":"North Carolina","lat":35.59589,"lng":-77.70448,"zip":"27888","miles_from_dt":19.93},{"city":"Conetoe","state_name":"North Carolina","lat":35.81412,"lng":-77.45731,"zip":"27819","miles_from_dt":21.26},{"city":"Falkland","state_name":"North Carolina","lat":35.69823,"lng":-77.51224,"zip":"27827","miles_from_dt":21.3},{"city":"Castalia","state_name":"North Carolina","lat":36.10732,"lng":-78.07245,"zip":"27816","miles_from_dt":21.45},{"city":"Middlesex","state_name":"North Carolina","lat":35.77941,"lng":-78.2,"zip":"27557","miles_from_dt":21.58},{"city":"Fremont","state_name":"North Carolina","lat":35.55557,"lng":-77.95224,"zip":"27830","miles_from_dt":22.47},{"city":"Speed","state_name":"North Carolina","lat":35.9702,"lng":-77.44228,"zip":"27881","miles_from_dt":22.93},{"city":"Farmville","state_name":"North Carolina","lat":35.58509,"lng":-77.58519,"zip":"27828","miles_from_dt":23.78},{"city":"Enfield","state_name":"North Carolina","lat":36.20616,"lng":-77.71685,"zip":"27823","miles_from_dt":24.3},{"city":"Kenly","state_name":"North Carolina","lat":35.61776,"lng":-78.1377,"zip":"27542","miles_from_dt":24.31},{"city":"Bunn","state_name":"North Carolina","lat":35.95882,"lng":-78.25105,"zip":"27508","miles_from_dt":24.43},{"city":"Bethel","state_name":"North Carolina","lat":35.80506,"lng":-77.37616,"zip":"27812","miles_from_dt":25.86},{"city":"Hobgood","state_name":"North Carolina","lat":35.99332,"lng":-77.39509,"zip":"27843","miles_from_dt":25.95},{"city":"Zebulon","state_name":"North Carolina","lat":35.84034,"lng":-78.30303,"zip":"27597","miles_from_dt":26.57},{"city":"Hollister","state_name":"North Carolina","lat":36.24555,"lng":-77.94945,"zip":"27844","miles_from_dt":27},{"city":"Pikeville","state_name":"North Carolina","lat":35.48739,"lng":-77.96993,"zip":"27863","miles_from_dt":27.26},{"city":"Bellarthur","state_name":"North Carolina","lat":35.58307,"lng":-77.49049,"zip":"27811","miles_from_dt":27.32},{"city":"Louisburg","state_name":"North Carolina","lat":36.10439,"lng":-78.24282,"zip":"27549","miles_from_dt":28.35},{"city":"Parmele","state_name":"North Carolina","lat":35.81716,"lng":-77.31899,"zip":"27861","miles_from_dt":28.92},{"city":"Greenville","state_name":"North Carolina","lat":35.6571,"lng":-77.37981,"zip":"27834","miles_from_dt":29.14},{"city":"Micro","state_name":"North Carolina","lat":35.56242,"lng":-78.20353,"zip":"27555","miles_from_dt":29.63},{"city":"Scotland Neck","state_name":"North Carolina","lat":36.12874,"lng":-77.41037,"zip":"27874","miles_from_dt":29.7},{"city":"Snow Hill","state_name":"North Carolina","lat":35.45116,"lng":-77.68053,"zip":"28580","miles_from_dt":29.82}],"targetCityZipCode":"27878","targetCityState":"North Carolina"},"__N_SSG":true}