{"pageProps":{"stateName":"North-carolina","cityName":"tar-heel","nearbyCities":[{"city":"White Oak","state_name":"North Carolina","lat":34.77885,"lng":-78.72953,"zip":"28399","miles_from_dt":4.8},{"city":"Dublin","state_name":"North Carolina","lat":34.65808,"lng":-78.70971,"zip":"28332","miles_from_dt":7.16},{"city":"Saint Pauls","state_name":"North Carolina","lat":34.79687,"lng":-78.95035,"zip":"28384","miles_from_dt":9.84},{"city":"Lumberton","state_name":"North Carolina","lat":34.60527,"lng":-78.94097,"zip":"28358","miles_from_dt":12.21},{"city":"Bladenboro","state_name":"North Carolina","lat":34.55378,"lng":-78.77456,"zip":"28320","miles_from_dt":12.52},{"city":"Elizabethtown","state_name":"North Carolina","lat":34.66094,"lng":-78.57733,"zip":"28337","miles_from_dt":13.38},{"city":"Hope Mills","state_name":"North Carolina","lat":34.92691,"lng":-78.91313,"zip":"28348","miles_from_dt":14.86},{"city":"Fayetteville","state_name":"North Carolina","lat":34.94713,"lng":-78.73225,"zip":"28312","miles_from_dt":15.07},{"city":"Parkton","state_name":"North Carolina","lat":34.9079,"lng":-78.99018,"zip":"28371","miles_from_dt":16.31},{"city":"Fayetteville","state_name":"North Carolina","lat":34.9582,"lng":-78.89487,"zip":"28306","miles_from_dt":16.43},{"city":"Lumberton","state_name":"North Carolina","lat":34.67588,"lng":-79.07582,"zip":"28360","miles_from_dt":16.51},{"city":"Rex","state_name":"North Carolina","lat":34.85872,"lng":-79.0506,"zip":"28378","miles_from_dt":16.88},{"city":"Lumberton","state_name":"North Carolina","lat":34.58686,"lng":-79.05475,"zip":"28359","miles_from_dt":17.98},{"city":"Clarkton","state_name":"North Carolina","lat":34.48979,"lng":-78.62598,"zip":"28433","miles_from_dt":19.42},{"city":"Lumber Bridge","state_name":"North Carolina","lat":34.90606,"lng":-79.08688,"zip":"28357","miles_from_dt":20.39},{"city":"Garland","state_name":"North Carolina","lat":34.79047,"lng":-78.4355,"zip":"28441","miles_from_dt":20.79},{"city":"Shannon","state_name":"North Carolina","lat":34.85889,"lng":-79.12984,"zip":"28386","miles_from_dt":20.9},{"city":"Stedman","state_name":"North Carolina","lat":35.03045,"lng":-78.70009,"zip":"28391","miles_from_dt":21.08},{"city":"Fayetteville","state_name":"North Carolina","lat":35.03326,"lng":-78.92904,"zip":"28302","miles_from_dt":21.95},{"city":"Autryville","state_name":"North Carolina","lat":35.0176,"lng":-78.61665,"zip":"28318","miles_from_dt":21.97},{"city":"Pembroke","state_name":"North Carolina","lat":34.69991,"lng":-79.1786,"zip":"28372","miles_from_dt":21.98},{"city":"Proctorville","state_name":"North Carolina","lat":34.47723,"lng":-79.04337,"zip":"28375","miles_from_dt":22.71},{"city":"Fayetteville","state_name":"North Carolina","lat":35.05321,"lng":-78.90687,"zip":"28305","miles_from_dt":22.86},{"city":"Fayetteville","state_name":"North Carolina","lat":35.02498,"lng":-78.99072,"zip":"28304","miles_from_dt":22.9},{"city":"Evergreen","state_name":"North Carolina","lat":34.4166,"lng":-78.92221,"zip":"28438","miles_from_dt":23.1},{"city":"Roseboro","state_name":"North Carolina","lat":34.97546,"lng":-78.50561,"zip":"28382","miles_from_dt":23.35},{"city":"Fayetteville","state_name":"North Carolina","lat":35.07442,"lng":-78.88376,"zip":"28301","miles_from_dt":23.96},{"city":"Fayetteville","state_name":"North Carolina","lat":35.07188,"lng":-78.89907,"zip":"28309","miles_from_dt":23.99},{"city":"Red Springs","state_name":"North Carolina","lat":34.83526,"lng":-79.21282,"zip":"28377","miles_from_dt":24.77},{"city":"Orrum","state_name":"North Carolina","lat":34.42184,"lng":-79.02901,"zip":"28369","miles_from_dt":25.37},{"city":"Fayetteville","state_name":"North Carolina","lat":35.0557,"lng":-79.01678,"zip":"28314","miles_from_dt":25.47},{"city":"Council","state_name":"North Carolina","lat":34.47154,"lng":-78.47479,"zip":"28434","miles_from_dt":25.72},{"city":"Fayetteville","state_name":"North Carolina","lat":35.0852,"lng":-78.95815,"zip":"28303","miles_from_dt":25.89},{"city":"Fairmont","state_name":"North Carolina","lat":34.47136,"lng":-79.1403,"zip":"28340","miles_from_dt":26.79},{"city":"Salemburg","state_name":"North Carolina","lat":35.04461,"lng":-78.50012,"zip":"28385","miles_from_dt":27.14},{"city":"Harrells","state_name":"North Carolina","lat":34.6885,"lng":-78.31798,"zip":"28444","miles_from_dt":27.32},{"city":"Wade","state_name":"North Carolina","lat":35.13643,"lng":-78.73855,"zip":"28395","miles_from_dt":27.88},{"city":"Barnesville","state_name":"North Carolina","lat":34.38429,"lng":-79.06613,"zip":"28319","miles_from_dt":28.69},{"city":"Chadbourn","state_name":"North Carolina","lat":34.31661,"lng":-78.84397,"zip":"28431","miles_from_dt":28.95},{"city":"Rowland","state_name":"North Carolina","lat":34.57553,"lng":-79.26856,"zip":"28383","miles_from_dt":29.14}],"targetCityZipCode":"28392","targetCityState":"North Carolina"},"__N_SSG":true}