{"pageProps":{"stateName":"North-carolina","cityName":"williamston","nearbyCities":[{"city":"Everetts","state_name":"North Carolina","lat":35.83527,"lng":-77.17152,"zip":"27825","miles_from_dt":6.13},{"city":"Jamesville","state_name":"North Carolina","lat":35.76519,"lng":-76.89191,"zip":"27846","miles_from_dt":10.36},{"city":"Robersonville","state_name":"North Carolina","lat":35.81355,"lng":-77.26306,"zip":"27871","miles_from_dt":11.16},{"city":"Hamilton","state_name":"North Carolina","lat":35.9343,"lng":-77.23186,"zip":"27840","miles_from_dt":12.34},{"city":"Windsor","state_name":"North Carolina","lat":35.98198,"lng":-76.94704,"zip":"27983","miles_from_dt":13.05},{"city":"Hassell","state_name":"North Carolina","lat":35.90859,"lng":-77.27632,"zip":"27841","miles_from_dt":13.42},{"city":"Stokes","state_name":"North Carolina","lat":35.70771,"lng":-77.27176,"zip":"27884","miles_from_dt":13.93},{"city":"Parmele","state_name":"North Carolina","lat":35.81716,"lng":-77.31899,"zip":"27861","miles_from_dt":14.3},{"city":"Oak City","state_name":"North Carolina","lat":35.96968,"lng":-77.27198,"zip":"27857","miles_from_dt":15.63},{"city":"Washington","state_name":"North Carolina","lat":35.58909,"lng":-77.02386,"zip":"27889","miles_from_dt":15.98},{"city":"Bethel","state_name":"North Carolina","lat":35.80506,"lng":-77.37616,"zip":"27812","miles_from_dt":17.54},{"city":"Plymouth","state_name":"North Carolina","lat":35.78437,"lng":-76.75026,"zip":"27962","miles_from_dt":17.8},{"city":"Lewiston Woodville","state_name":"North Carolina","lat":36.06796,"lng":-77.20675,"zip":"27849","miles_from_dt":18.97},{"city":"Pinetown","state_name":"North Carolina","lat":35.60588,"lng":-76.83244,"zip":"27865","miles_from_dt":19.62},{"city":"Simpson","state_name":"North Carolina","lat":35.57456,"lng":-77.27968,"zip":"27879","miles_from_dt":20.72},{"city":"Greenville","state_name":"North Carolina","lat":35.6571,"lng":-77.37981,"zip":"27834","miles_from_dt":20.93},{"city":"Conetoe","state_name":"North Carolina","lat":35.81412,"lng":-77.45731,"zip":"27819","miles_from_dt":22.07},{"city":"Hobgood","state_name":"North Carolina","lat":35.99332,"lng":-77.39509,"zip":"27843","miles_from_dt":22.13},{"city":"Greenville","state_name":"North Carolina","lat":35.60328,"lng":-77.35948,"zip":"27836","miles_from_dt":22.26},{"city":"Grimesland","state_name":"North Carolina","lat":35.51606,"lng":-77.20892,"zip":"27837","miles_from_dt":22.38},{"city":"Greenville","state_name":"North Carolina","lat":35.607,"lng":-77.37177,"zip":"27835","miles_from_dt":22.61},{"city":"Greenville","state_name":"North Carolina","lat":35.59701,"lng":-77.3758,"zip":"27833","miles_from_dt":23.23},{"city":"Merry Hill","state_name":"North Carolina","lat":36.05577,"lng":-76.76293,"zip":"27957","miles_from_dt":23.52},{"city":"Speed","state_name":"North Carolina","lat":35.9702,"lng":-77.44228,"zip":"27881","miles_from_dt":23.64},{"city":"Greenville","state_name":"North Carolina","lat":35.53229,"lng":-77.29709,"zip":"27858","miles_from_dt":23.68},{"city":"Pantego","state_name":"North Carolina","lat":35.67693,"lng":-76.65001,"zip":"27860","miles_from_dt":25.25},{"city":"Chocowinity","state_name":"North Carolina","lat":35.4506,"lng":-77.0825,"zip":"27817","miles_from_dt":25.38},{"city":"Tarboro","state_name":"North Carolina","lat":35.90369,"lng":-77.52248,"zip":"27886","miles_from_dt":26.38},{"city":"Falkland","state_name":"North Carolina","lat":35.69823,"lng":-77.51224,"zip":"27827","miles_from_dt":26.5},{"city":"Kelford","state_name":"North Carolina","lat":36.18597,"lng":-77.20738,"zip":"27847","miles_from_dt":26.58},{"city":"Aulander","state_name":"North Carolina","lat":36.20863,"lng":-77.08861,"zip":"27805","miles_from_dt":26.94},{"city":"Roper","state_name":"North Carolina","lat":35.87596,"lng":-76.57945,"zip":"27970","miles_from_dt":27.51},{"city":"Colerain","state_name":"North Carolina","lat":36.17835,"lng":-76.83822,"zip":"27924","miles_from_dt":27.86},{"city":"Roxobel","state_name":"North Carolina","lat":36.20096,"lng":-77.24601,"zip":"27872","miles_from_dt":28.27},{"city":"Winterville","state_name":"North Carolina","lat":35.52046,"lng":-77.41651,"zip":"28590","miles_from_dt":28.54},{"city":"Scotland Neck","state_name":"North Carolina","lat":36.12874,"lng":-77.41037,"zip":"27874","miles_from_dt":28.88},{"city":"Bellarthur","state_name":"North Carolina","lat":35.58307,"lng":-77.49049,"zip":"27811","miles_from_dt":28.94},{"city":"Powellsville","state_name":"North Carolina","lat":36.22232,"lng":-76.90838,"zip":"27967","miles_from_dt":29.18},{"city":"Bath","state_name":"North Carolina","lat":35.47228,"lng":-76.76494,"zip":"27808","miles_from_dt":29.21}],"targetCityZipCode":"27892","targetCityState":"North Carolina"},"__N_SSG":true}