{"pageProps":{"stateName":"Louisiana","cityName":"amite","nearbyCities":[{"city":"Roseland","state_name":"Louisiana","lat":30.79332,"lng":-90.50702,"zip":"70456","miles_from_dt":4},{"city":"Fluker","state_name":"Louisiana","lat":30.83057,"lng":-90.53315,"zip":"70436","miles_from_dt":6.92},{"city":"Independence","state_name":"Louisiana","lat":30.62885,"lng":-90.54257,"zip":"70443","miles_from_dt":8.06},{"city":"Husser","state_name":"Louisiana","lat":30.70307,"lng":-90.33433,"zip":"70442","miles_from_dt":9.61},{"city":"Tangipahoa","state_name":"Louisiana","lat":30.87577,"lng":-90.51384,"zip":"70465","miles_from_dt":9.66},{"city":"Loranger","state_name":"Louisiana","lat":30.63612,"lng":-90.35159,"zip":"70446","miles_from_dt":10.82},{"city":"Tickfaw","state_name":"Louisiana","lat":30.5685,"lng":-90.50195,"zip":"70466","miles_from_dt":11.63},{"city":"Kentwood","state_name":"Louisiana","lat":30.90833,"lng":-90.48707,"zip":"70444","miles_from_dt":11.81},{"city":"Natalbany","state_name":"Louisiana","lat":30.54964,"lng":-90.48111,"zip":"70451","miles_from_dt":12.92},{"city":"Hammond","state_name":"Louisiana","lat":30.5281,"lng":-90.45472,"zip":"70401","miles_from_dt":14.55},{"city":"Hammond","state_name":"Louisiana","lat":30.51652,"lng":-90.46932,"zip":"70402","miles_from_dt":15.24},{"city":"Hammond","state_name":"Louisiana","lat":30.51227,"lng":-90.45631,"zip":"70404","miles_from_dt":15.62},{"city":"Albany","state_name":"Louisiana","lat":30.53065,"lng":-90.60229,"zip":"70711","miles_from_dt":15.68},{"city":"Holden","state_name":"Louisiana","lat":30.56173,"lng":-90.67689,"zip":"70744","miles_from_dt":16.38},{"city":"Pine Grove","state_name":"Louisiana","lat":30.69385,"lng":-90.76918,"zip":"70453","miles_from_dt":16.82},{"city":"Greensburg","state_name":"Louisiana","lat":30.85987,"lng":-90.7489,"zip":"70441","miles_from_dt":17.52},{"city":"Hammond","state_name":"Louisiana","lat":30.47989,"lng":-90.48639,"zip":"70403","miles_from_dt":17.71},{"city":"Robert","state_name":"Louisiana","lat":30.52438,"lng":-90.31883,"zip":"70455","miles_from_dt":17.88},{"city":"Folsom","state_name":"Louisiana","lat":30.60909,"lng":-90.20928,"zip":"70437","miles_from_dt":18.95},{"city":"Mount Hermon","state_name":"Louisiana","lat":30.93667,"lng":-90.26755,"zip":"70450","miles_from_dt":19.12},{"city":"Osyka","state_name":"Mississippi","lat":31.02727,"lng":-90.50334,"zip":"39657","miles_from_dt":20.01},{"city":"Walker","state_name":"Louisiana","lat":30.55621,"lng":-90.81858,"zip":"70785","miles_from_dt":23.15},{"city":"Franklinton","state_name":"Louisiana","lat":30.84139,"lng":-90.11186,"zip":"70438","miles_from_dt":23.67},{"city":"Akers","state_name":"Louisiana","lat":30.39704,"lng":-90.36853,"zip":"70421","miles_from_dt":24.53},{"city":"Ponchatoula","state_name":"Louisiana","lat":30.39525,"lng":-90.3682,"zip":"70454","miles_from_dt":24.65},{"city":"Magnolia","state_name":"Mississippi","lat":31.11034,"lng":-90.46701,"zip":"39652","miles_from_dt":25.76},{"city":"Denham Springs","state_name":"Louisiana","lat":30.61453,"lng":-90.90086,"zip":"70706","miles_from_dt":25.82},{"city":"Springfield","state_name":"Louisiana","lat":30.3656,"lng":-90.58368,"zip":"70462","miles_from_dt":26.17},{"city":"Covington","state_name":"Louisiana","lat":30.55955,"lng":-90.101,"zip":"70435","miles_from_dt":26.25},{"city":"Saint Benedict","state_name":"Louisiana","lat":30.52743,"lng":-90.11332,"zip":"70457","miles_from_dt":26.73},{"city":"Clinton","state_name":"Louisiana","lat":30.84337,"lng":-90.93244,"zip":"70722","miles_from_dt":27.26},{"city":"Livingston","state_name":"Louisiana","lat":30.40542,"lng":-90.74462,"zip":"70754","miles_from_dt":27.39},{"city":"Madisonville","state_name":"Louisiana","lat":30.42144,"lng":-90.20257,"zip":"70447","miles_from_dt":27.71},{"city":"Covington","state_name":"Louisiana","lat":30.46184,"lng":-90.13796,"zip":"70433","miles_from_dt":28.32},{"city":"Watson","state_name":"Louisiana","lat":30.58236,"lng":-90.95429,"zip":"70786","miles_from_dt":29.58},{"city":"Chatawa","state_name":"Mississippi","lat":31.16979,"lng":-90.47385,"zip":"39632","miles_from_dt":29.83},{"city":"Greenwell Springs","state_name":"Louisiana","lat":30.60107,"lng":-90.9684,"zip":"70739","miles_from_dt":29.93}],"targetCityZipCode":"70422","targetCityState":"Louisiana"},"__N_SSG":true}