{"pageProps":{"stateName":"Louisiana","cityName":"saline","nearbyCities":[{"city":"Ashland","state_name":"Louisiana","lat":32.11675,"lng":-93.116,"zip":"71002","miles_from_dt":7.33},{"city":"Goldonna","state_name":"Louisiana","lat":32.01097,"lng":-92.89372,"zip":"71031","miles_from_dt":7.94},{"city":"Castor","state_name":"Louisiana","lat":32.22899,"lng":-93.10818,"zip":"71016","miles_from_dt":11.82},{"city":"Campti","state_name":"Louisiana","lat":31.90466,"lng":-93.08894,"zip":"71411","miles_from_dt":13.65},{"city":"Calvin","state_name":"Louisiana","lat":31.96419,"lng":-92.77125,"zip":"71410","miles_from_dt":15.66},{"city":"Bienville","state_name":"Louisiana","lat":32.33318,"lng":-92.96396,"zip":"71008","miles_from_dt":17.12},{"city":"Clarence","state_name":"Louisiana","lat":31.82593,"lng":-93.02515,"zip":"71414","miles_from_dt":18.02},{"city":"Coushatta","state_name":"Louisiana","lat":32.03951,"lng":-93.30701,"zip":"71019","miles_from_dt":18.52},{"city":"Powhatan","state_name":"Louisiana","lat":31.87478,"lng":-93.19829,"zip":"71066","miles_from_dt":18.8},{"city":"Hall Summit","state_name":"Louisiana","lat":32.18442,"lng":-93.30553,"zip":"71034","miles_from_dt":19.36},{"city":"Dodson","state_name":"Louisiana","lat":32.07653,"lng":-92.65767,"zip":"71422","miles_from_dt":19.87},{"city":"Jamestown","state_name":"Louisiana","lat":32.3461,"lng":-93.16595,"zip":"71045","miles_from_dt":20.48},{"city":"Hodge","state_name":"Louisiana","lat":32.27255,"lng":-92.72077,"zip":"71247","miles_from_dt":20.62},{"city":"Jonesboro","state_name":"Louisiana","lat":32.21891,"lng":-92.67162,"zip":"71251","miles_from_dt":21.11},{"city":"Saint Maurice","state_name":"Louisiana","lat":31.75711,"lng":-92.96201,"zip":"71471","miles_from_dt":22.77},{"city":"Quitman","state_name":"Louisiana","lat":32.34696,"lng":-92.74418,"zip":"71268","miles_from_dt":23.25},{"city":"Natchitoches","state_name":"Louisiana","lat":31.75761,"lng":-93.08624,"zip":"71458","miles_from_dt":23.26},{"city":"Ringgold","state_name":"Louisiana","lat":32.28464,"lng":-93.32186,"zip":"71068","miles_from_dt":23.47},{"city":"Winnfield","state_name":"Louisiana","lat":31.89482,"lng":-92.66373,"zip":"71483","miles_from_dt":23.56},{"city":"Natchitoches","state_name":"Louisiana","lat":31.74902,"lng":-93.09795,"zip":"71497","miles_from_dt":24},{"city":"Natchitoches","state_name":"Louisiana","lat":31.74045,"lng":-93.09375,"zip":"71457","miles_from_dt":24.51},{"city":"Joyce","state_name":"Louisiana","lat":31.94043,"lng":-92.59994,"zip":"71440","miles_from_dt":25.34},{"city":"Atlanta","state_name":"Louisiana","lat":31.75404,"lng":-92.75257,"zip":"71404","miles_from_dt":27},{"city":"Gibsland","state_name":"Louisiana","lat":32.48961,"lng":-93.07315,"zip":"71028","miles_from_dt":28.15},{"city":"Montgomery","state_name":"Louisiana","lat":31.69334,"lng":-92.86131,"zip":"71454","miles_from_dt":28.21},{"city":"Taylor","state_name":"Louisiana","lat":32.50124,"lng":-93.07281,"zip":"71080","miles_from_dt":28.94},{"city":"Heflin","state_name":"Louisiana","lat":32.4265,"lng":-93.29064,"zip":"71039","miles_from_dt":29.1},{"city":"Dubberly","state_name":"Louisiana","lat":32.47897,"lng":-93.20336,"zip":"71024","miles_from_dt":29.65}],"targetCityZipCode":"71070","targetCityState":"Louisiana"},"__N_SSG":true}