{"pageProps":{"stateName":"Louisiana","cityName":"taylor","nearbyCities":[{"city":"Gibsland","state_name":"Louisiana","lat":32.48961,"lng":-93.07315,"zip":"71028","miles_from_dt":0.8},{"city":"Dubberly","state_name":"Louisiana","lat":32.47897,"lng":-93.20336,"zip":"71024","miles_from_dt":7.78},{"city":"Athens","state_name":"Louisiana","lat":32.62969,"lng":-93.02787,"zip":"71003","miles_from_dt":9.23},{"city":"Arcadia","state_name":"Louisiana","lat":32.59188,"lng":-92.90028,"zip":"71001","miles_from_dt":11.85},{"city":"Jamestown","state_name":"Louisiana","lat":32.3461,"lng":-93.16595,"zip":"71045","miles_from_dt":12},{"city":"Bienville","state_name":"Louisiana","lat":32.33318,"lng":-92.96396,"zip":"71008","miles_from_dt":13.21},{"city":"Sibley","state_name":"Louisiana","lat":32.5241,"lng":-93.30547,"zip":"71073","miles_from_dt":13.68},{"city":"Heflin","state_name":"Louisiana","lat":32.4265,"lng":-93.29064,"zip":"71039","miles_from_dt":13.73},{"city":"Simsboro","state_name":"Louisiana","lat":32.51276,"lng":-92.81991,"zip":"71275","miles_from_dt":14.79},{"city":"Minden","state_name":"Louisiana","lat":32.61226,"lng":-93.29517,"zip":"71058","miles_from_dt":15.06},{"city":"Minden","state_name":"Louisiana","lat":32.67335,"lng":-93.29713,"zip":"71055","miles_from_dt":17.66},{"city":"Castor","state_name":"Louisiana","lat":32.22899,"lng":-93.10818,"zip":"71016","miles_from_dt":18.87},{"city":"Doyline","state_name":"Louisiana","lat":32.4662,"lng":-93.40797,"zip":"71023","miles_from_dt":19.72},{"city":"Homer","state_name":"Louisiana","lat":32.78564,"lng":-93.01238,"zip":"71040","miles_from_dt":19.91},{"city":"Ringgold","state_name":"Louisiana","lat":32.28464,"lng":-93.32186,"zip":"71068","miles_from_dt":20.85},{"city":"Grambling","state_name":"Louisiana","lat":32.52697,"lng":-92.7145,"zip":"71245","miles_from_dt":21},{"city":"Quitman","state_name":"Louisiana","lat":32.34696,"lng":-92.74418,"zip":"71268","miles_from_dt":21.95},{"city":"Ruston","state_name":"Louisiana","lat":32.52928,"lng":-92.6517,"zip":"71272","miles_from_dt":24.66},{"city":"Ruston","state_name":"Louisiana","lat":32.49378,"lng":-92.64139,"zip":"71270","miles_from_dt":25.2},{"city":"Princeton","state_name":"Louisiana","lat":32.59836,"lng":-93.49118,"zip":"71067","miles_from_dt":25.32},{"city":"Hall Summit","state_name":"Louisiana","lat":32.18442,"lng":-93.30553,"zip":"71034","miles_from_dt":25.73},{"city":"Hodge","state_name":"Louisiana","lat":32.27255,"lng":-92.72077,"zip":"71247","miles_from_dt":25.92},{"city":"Lisbon","state_name":"Louisiana","lat":32.83597,"lng":-92.85071,"zip":"71048","miles_from_dt":26.45},{"city":"Ashland","state_name":"Louisiana","lat":32.11675,"lng":-93.116,"zip":"71002","miles_from_dt":26.61},{"city":"Dubach","state_name":"Louisiana","lat":32.68988,"lng":-92.6726,"zip":"71235","miles_from_dt":26.72},{"city":"Haughton","state_name":"Louisiana","lat":32.56359,"lng":-93.52804,"zip":"71037","miles_from_dt":26.92},{"city":"Elm Grove","state_name":"Louisiana","lat":32.3417,"lng":-93.49639,"zip":"71051","miles_from_dt":27.09},{"city":"Ruston","state_name":"Louisiana","lat":32.55825,"lng":-92.59036,"zip":"71273","miles_from_dt":28.44},{"city":"Saline","state_name":"Louisiana","lat":32.08629,"lng":-92.99618,"zip":"71070","miles_from_dt":28.94}],"targetCityZipCode":"71080","targetCityState":"Louisiana"},"__N_SSG":true}