{"pageProps":{"stateName":"North-dakota","cityName":"columbus","nearbyCities":[{"city":"Lignite","state_name":"North Dakota","lat":48.82146,"lng":-102.59927,"zip":"58752","miles_from_dt":9.66},{"city":"Noonan","state_name":"North Dakota","lat":48.87261,"lng":-103.03805,"zip":"58765","miles_from_dt":10.7},{"city":"Portal","state_name":"North Dakota","lat":48.96035,"lng":-102.61236,"zip":"58772","miles_from_dt":11.38},{"city":"Mcgregor","state_name":"North Dakota","lat":48.62857,"lng":-102.94666,"zip":"58755","miles_from_dt":16.96},{"city":"Flaxton","state_name":"North Dakota","lat":48.90743,"lng":-102.39392,"zip":"58737","miles_from_dt":19.07},{"city":"Powers Lake","state_name":"North Dakota","lat":48.58631,"lng":-102.66852,"zip":"58773","miles_from_dt":19.61},{"city":"Wildrose","state_name":"North Dakota","lat":48.64198,"lng":-103.15094,"zip":"58795","miles_from_dt":21.63},{"city":"Crosby","state_name":"North Dakota","lat":48.86171,"lng":-103.30652,"zip":"58730","miles_from_dt":22.88},{"city":"Bowbells","state_name":"North Dakota","lat":48.82069,"lng":-102.25667,"zip":"58721","miles_from_dt":25.12}],"targetCityZipCode":"58727","targetCityState":"North Dakota"},"__N_SSG":true}