{"pageProps":{"stateName":"North-dakota","cityName":"manning","nearbyCities":[{"city":"Dunn Center","state_name":"North Dakota","lat":47.37739,"lng":-102.60575,"zip":"58626","miles_from_dt":16.3},{"city":"Killdeer","state_name":"North Dakota","lat":47.44409,"lng":-102.89681,"zip":"58640","miles_from_dt":17},{"city":"Dickinson","state_name":"North Dakota","lat":46.90964,"lng":-102.82766,"zip":"58601","miles_from_dt":20.16},{"city":"Fairfield","state_name":"North Dakota","lat":47.23532,"lng":-103.29713,"zip":"58627","miles_from_dt":21.8},{"city":"Dickinson","state_name":"North Dakota","lat":46.88493,"lng":-102.78373,"zip":"58602","miles_from_dt":22.01},{"city":"Marshall","state_name":"North Dakota","lat":47.14095,"lng":-102.35867,"zip":"58644","miles_from_dt":22.9},{"city":"Gladstone","state_name":"North Dakota","lat":46.91981,"lng":-102.57603,"zip":"58630","miles_from_dt":23.02},{"city":"Taylor","state_name":"North Dakota","lat":46.95207,"lng":-102.46801,"zip":"58656","miles_from_dt":24.48},{"city":"Halliday","state_name":"North Dakota","lat":47.38924,"lng":-102.35351,"zip":"58636","miles_from_dt":26.15},{"city":"Grassy Butte","state_name":"North Dakota","lat":47.43683,"lng":-103.35647,"zip":"58634","miles_from_dt":29.34},{"city":"Belfield","state_name":"North Dakota","lat":46.88035,"lng":-103.24434,"zip":"58622","miles_from_dt":29.37}],"targetCityZipCode":"58642","targetCityState":"North Dakota"},"__N_SSG":true}