{"pageProps":{"stateName":"Kansas","cityName":"eskridge","nearbyCities":[{"city":"Harveyville","state_name":"Kansas","lat":38.80851,"lng":-96.00241,"zip":"66431","miles_from_dt":7.4},{"city":"Allen","state_name":"Kansas","lat":38.67694,"lng":-96.18374,"zip":"66833","miles_from_dt":12.24},{"city":"Alma","state_name":"Kansas","lat":38.96894,"lng":-96.30539,"zip":"66401","miles_from_dt":12.58},{"city":"Dover","state_name":"Kansas","lat":38.97046,"lng":-95.93279,"zip":"66420","miles_from_dt":13.5},{"city":"Burlingame","state_name":"Kansas","lat":38.77375,"lng":-95.88305,"zip":"66413","miles_from_dt":14.27},{"city":"Maple Hill","state_name":"Kansas","lat":39.04712,"lng":-96.03942,"zip":"66507","miles_from_dt":14.49},{"city":"Paxico","state_name":"Kansas","lat":39.06349,"lng":-96.15567,"zip":"66526","miles_from_dt":14.85},{"city":"McFarland","state_name":"Kansas","lat":39.05279,"lng":-96.23688,"zip":"66501","miles_from_dt":15.19},{"city":"Auburn","state_name":"Kansas","lat":38.91782,"lng":-95.84926,"zip":"66402","miles_from_dt":15.83},{"city":"Alta Vista","state_name":"Kansas","lat":38.86528,"lng":-96.44822,"zip":"66834","miles_from_dt":17.23},{"city":"Topeka","state_name":"Kansas","lat":38.97277,"lng":-95.84718,"zip":"66610","miles_from_dt":17.43},{"city":"Admire","state_name":"Kansas","lat":38.59733,"lng":-96.08755,"zip":"66830","miles_from_dt":17.52},{"city":"Topeka","state_name":"Kansas","lat":39.05214,"lng":-95.89491,"zip":"66615","miles_from_dt":18.85},{"city":"Topeka","state_name":"Kansas","lat":39.01324,"lng":-95.84812,"zip":"66630","miles_from_dt":18.91},{"city":"Topeka","state_name":"Kansas","lat":39.01362,"lng":-95.84115,"zip":"66614","miles_from_dt":19.23},{"city":"Wakarusa","state_name":"Kansas","lat":38.8941,"lng":-95.72589,"zip":"66546","miles_from_dt":21.98},{"city":"Reading","state_name":"Kansas","lat":38.54284,"lng":-95.98387,"zip":"66868","miles_from_dt":22.55},{"city":"Osage City","state_name":"Kansas","lat":38.60993,"lng":-95.83791,"zip":"66523","miles_from_dt":22.81},{"city":"Americus","state_name":"Kansas","lat":38.53458,"lng":-96.26266,"zip":"66835","miles_from_dt":22.87},{"city":"Scranton","state_name":"Kansas","lat":38.75118,"lng":-95.72255,"zip":"66537","miles_from_dt":22.98},{"city":"Topeka","state_name":"Kansas","lat":38.94662,"lng":-95.71574,"zip":"66620","miles_from_dt":23.29},{"city":"Council Grove","state_name":"Kansas","lat":38.64383,"lng":-96.47187,"zip":"66846","miles_from_dt":23.3},{"city":"Rossville","state_name":"Kansas","lat":39.16097,"lng":-95.95045,"zip":"66533","miles_from_dt":23.56},{"city":"Carbondale","state_name":"Kansas","lat":38.82631,"lng":-95.68563,"zip":"66414","miles_from_dt":23.99},{"city":"Topeka","state_name":"Kansas","lat":38.94661,"lng":-95.68993,"zip":"66619","miles_from_dt":24.62},{"city":"Topeka","state_name":"Kansas","lat":39.02631,"lng":-95.72231,"zip":"66622","miles_from_dt":25.1},{"city":"Dwight","state_name":"Kansas","lat":38.87427,"lng":-96.59789,"zip":"66849","miles_from_dt":25.33},{"city":"Topeka","state_name":"Kansas","lat":39.03875,"lng":-95.72623,"zip":"66604","miles_from_dt":25.35},{"city":"Topeka","state_name":"Kansas","lat":39.03883,"lng":-95.72523,"zip":"66647","miles_from_dt":25.4},{"city":"Topeka","state_name":"Kansas","lat":39.04185,"lng":-95.72735,"zip":"66667","miles_from_dt":25.41},{"city":"Silver Lake","state_name":"Kansas","lat":39.14937,"lng":-95.84707,"zip":"66539","miles_from_dt":25.68},{"city":"Topeka","state_name":"Kansas","lat":39.01526,"lng":-95.69601,"zip":"66611","miles_from_dt":26.01},{"city":"Saint Marys","state_name":"Kansas","lat":39.2247,"lng":-96.07396,"zip":"66536","miles_from_dt":26.07},{"city":"Belvue","state_name":"Kansas","lat":39.22517,"lng":-96.19218,"zip":"66407","miles_from_dt":26.15},{"city":"Topeka","state_name":"Kansas","lat":39.03313,"lng":-95.70237,"zip":"66621","miles_from_dt":26.27},{"city":"Topeka","state_name":"Kansas","lat":39.06191,"lng":-95.72296,"zip":"66606","miles_from_dt":26.35},{"city":"Topeka","state_name":"Kansas","lat":38.98193,"lng":-95.66974,"zip":"66609","miles_from_dt":26.41},{"city":"Topeka","state_name":"Kansas","lat":39.01635,"lng":-95.67207,"zip":"66624","miles_from_dt":27.2},{"city":"Topeka","state_name":"Kansas","lat":39.04026,"lng":-95.68037,"zip":"66612","miles_from_dt":27.54},{"city":"Topeka","state_name":"Kansas","lat":39.04725,"lng":-95.68282,"zip":"66626","miles_from_dt":27.66},{"city":"Topeka","state_name":"Kansas","lat":39.04781,"lng":-95.68325,"zip":"66625","miles_from_dt":27.66},{"city":"Topeka","state_name":"Kansas","lat":39.04806,"lng":-95.68262,"zip":"66629","miles_from_dt":27.7},{"city":"Wamego","state_name":"Kansas","lat":39.23469,"lng":-96.30384,"zip":"66547","miles_from_dt":28.2},{"city":"Topeka","state_name":"Kansas","lat":39.05711,"lng":-95.67655,"zip":"66601","miles_from_dt":28.29},{"city":"Topeka","state_name":"Kansas","lat":39.05634,"lng":-95.67566,"zip":"66636","miles_from_dt":28.31},{"city":"Topeka","state_name":"Kansas","lat":39.0535,"lng":-95.67307,"zip":"66699","miles_from_dt":28.33},{"city":"Topeka","state_name":"Kansas","lat":39.05742,"lng":-95.67539,"zip":"66603","miles_from_dt":28.36},{"city":"Topeka","state_name":"Kansas","lat":39.05585,"lng":-95.67322,"zip":"66683","miles_from_dt":28.4},{"city":"Topeka","state_name":"Kansas","lat":39.14188,"lng":-95.74997,"zip":"66618","miles_from_dt":28.72},{"city":"Topeka","state_name":"Kansas","lat":39.01167,"lng":-95.63283,"zip":"66605","miles_from_dt":29},{"city":"Topeka","state_name":"Kansas","lat":39.06888,"lng":-95.66674,"zip":"66675","miles_from_dt":29.16},{"city":"Manhattan","state_name":"Kansas","lat":39.14146,"lng":-96.52906,"zip":"66502","miles_from_dt":29.49},{"city":"Topeka","state_name":"Kansas","lat":39.07984,"lng":-95.66708,"zip":"66608","miles_from_dt":29.54},{"city":"Lyndon","state_name":"Kansas","lat":38.60841,"lng":-95.67236,"zip":"66451","miles_from_dt":29.76},{"city":"Topeka","state_name":"Kansas","lat":39.0422,"lng":-95.63502,"zip":"66607","miles_from_dt":29.77}],"targetCityZipCode":"66423","targetCityState":"Kansas"},"__N_SSG":true}