{"pageProps":{"stateName":"Kansas","cityName":"moran","nearbyCities":[{"city":"La Harpe","state_name":"Kansas","lat":37.93421,"lng":-95.28466,"zip":"66751","miles_from_dt":6.59},{"city":"Bronson","state_name":"Kansas","lat":37.93923,"lng":-95.04001,"zip":"66716","miles_from_dt":7.2},{"city":"Elsmore","state_name":"Kansas","lat":37.80097,"lng":-95.1947,"zip":"66732","miles_from_dt":7.81},{"city":"Gas","state_name":"Kansas","lat":37.92023,"lng":-95.34755,"zip":"66742","miles_from_dt":9.87},{"city":"Uniontown","state_name":"Kansas","lat":37.83751,"lng":-94.97867,"zip":"66779","miles_from_dt":11.52},{"city":"Savonburg","state_name":"Kansas","lat":37.74559,"lng":-95.18813,"zip":"66772","miles_from_dt":11.54},{"city":"Kincaid","state_name":"Kansas","lat":38.0987,"lng":-95.17011,"zip":"66039","miles_from_dt":12.87},{"city":"Iola","state_name":"Kansas","lat":37.93597,"lng":-95.41069,"zip":"66749","miles_from_dt":13.4},{"city":"Stark","state_name":"Kansas","lat":37.69957,"lng":-95.14855,"zip":"66775","miles_from_dt":14.69},{"city":"Redfield","state_name":"Kansas","lat":37.85317,"lng":-94.89379,"zip":"66769","miles_from_dt":15.49},{"city":"Blue Mound","state_name":"Kansas","lat":38.09231,"lng":-94.98853,"zip":"66010","miles_from_dt":15.8},{"city":"Mapleton","state_name":"Kansas","lat":38.00377,"lng":-94.88848,"zip":"66754","miles_from_dt":16.48},{"city":"Humboldt","state_name":"Kansas","lat":37.79882,"lng":-95.43577,"zip":"66748","miles_from_dt":16.63},{"city":"Colony","state_name":"Kansas","lat":38.06786,"lng":-95.40395,"zip":"66015","miles_from_dt":16.8},{"city":"Welda","state_name":"Kansas","lat":38.16952,"lng":-95.32701,"zip":"66091","miles_from_dt":19.78},{"city":"Hepler","state_name":"Kansas","lat":37.6708,"lng":-94.95317,"zip":"66746","miles_from_dt":20.35},{"city":"Walnut","state_name":"Kansas","lat":37.60895,"lng":-95.05881,"zip":"66780","miles_from_dt":21.74},{"city":"Piqua","state_name":"Kansas","lat":37.91469,"lng":-95.56694,"zip":"66761","miles_from_dt":21.84},{"city":"Erie","state_name":"Kansas","lat":37.59014,"lng":-95.25282,"zip":"66733","miles_from_dt":22.69},{"city":"Fort Scott","state_name":"Kansas","lat":37.82862,"lng":-94.75999,"zip":"66701","miles_from_dt":23},{"city":"Centerville","state_name":"Kansas","lat":38.22305,"lng":-94.98371,"zip":"66014","miles_from_dt":23.67},{"city":"Mound City","state_name":"Kansas","lat":38.1509,"lng":-94.84705,"zip":"66056","miles_from_dt":24.01},{"city":"Chanute","state_name":"Kansas","lat":37.64631,"lng":-95.459,"zip":"66720","miles_from_dt":24.31},{"city":"Neosho Falls","state_name":"Kansas","lat":38.01862,"lng":-95.59602,"zip":"66758","miles_from_dt":24.54},{"city":"Fulton","state_name":"Kansas","lat":38.01473,"lng":-94.7162,"zip":"66738","miles_from_dt":25.63},{"city":"Garnett","state_name":"Kansas","lat":38.2806,"lng":-95.27237,"zip":"66032","miles_from_dt":26.05},{"city":"Westphalia","state_name":"Kansas","lat":38.21003,"lng":-95.49771,"zip":"66093","miles_from_dt":27.33},{"city":"Prescott","state_name":"Kansas","lat":38.07741,"lng":-94.71159,"zip":"66767","miles_from_dt":27.36},{"city":"Farlington","state_name":"Kansas","lat":37.61534,"lng":-94.82172,"zip":"66734","miles_from_dt":27.87},{"city":"Le Roy","state_name":"Kansas","lat":38.10202,"lng":-95.63526,"zip":"66857","miles_from_dt":28.7},{"city":"Saint Paul","state_name":"Kansas","lat":37.49211,"lng":-95.14883,"zip":"66771","miles_from_dt":28.98},{"city":"Parker","state_name":"Kansas","lat":38.31772,"lng":-94.9741,"zip":"66072","miles_from_dt":29.89}],"targetCityZipCode":"66755","targetCityState":"Kansas"},"__N_SSG":true}