{"pageProps":{"stateName":"Florida","cityName":"candler","nearbyCities":[{"city":"Ocala","state_name":"Florida","lat":29.15515,"lng":-82.21106,"zip":"34474","miles_from_dt":0.77},{"city":"Ocala","state_name":"Florida","lat":29.18547,"lng":-82.1418,"zip":"34478","miles_from_dt":4.79},{"city":"Ocala","state_name":"Florida","lat":29.18624,"lng":-82.13865,"zip":"34483","miles_from_dt":4.99},{"city":"Ocala","state_name":"Florida","lat":29.16054,"lng":-82.12786,"zip":"34471","miles_from_dt":5.43},{"city":"Ocala","state_name":"Florida","lat":29.18771,"lng":-82.12902,"zip":"34477","miles_from_dt":5.57},{"city":"Ocala","state_name":"Florida","lat":29.08579,"lng":-82.19279,"zip":"34476","miles_from_dt":5.65},{"city":"Ocala","state_name":"Florida","lat":29.11902,"lng":-82.30769,"zip":"34481","miles_from_dt":6.3},{"city":"Ocala","state_name":"Florida","lat":29.24984,"lng":-82.27702,"zip":"34482","miles_from_dt":6.87},{"city":"Ocala","state_name":"Florida","lat":29.25282,"lng":-82.16065,"zip":"34475","miles_from_dt":6.96},{"city":"Ocala","state_name":"Florida","lat":29.10178,"lng":-82.09975,"zip":"34480","miles_from_dt":8.34},{"city":"Ocala","state_name":"Florida","lat":29.20098,"lng":-82.08262,"zip":"34470","miles_from_dt":8.52},{"city":"Ocala","state_name":"Florida","lat":29.25285,"lng":-82.10945,"zip":"34479","miles_from_dt":8.91},{"city":"Ocala","state_name":"Florida","lat":29.00506,"lng":-82.18833,"zip":"34473","miles_from_dt":11.14},{"city":"Dunnellon","state_name":"Florida","lat":29.06588,"lng":-82.36353,"zip":"34432","miles_from_dt":11.16},{"city":"Lowell","state_name":"Florida","lat":29.33268,"lng":-82.19855,"zip":"32663","miles_from_dt":11.62},{"city":"Dunnellon","state_name":"Florida","lat":29.05306,"lng":-82.37846,"zip":"34430","miles_from_dt":12.41},{"city":"Anthony","state_name":"Florida","lat":29.30659,"lng":-82.07553,"zip":"32617","miles_from_dt":12.99},{"city":"Belleview","state_name":"Florida","lat":29.05359,"lng":-82.04008,"zip":"34420","miles_from_dt":13.18},{"city":"Belleview","state_name":"Florida","lat":29.04924,"lng":-82.03642,"zip":"34421","miles_from_dt":13.54},{"city":"Reddick","state_name":"Florida","lat":29.36214,"lng":-82.26236,"zip":"32686","miles_from_dt":13.86},{"city":"Ocala","state_name":"Florida","lat":29.11187,"lng":-81.99625,"zip":"34472","miles_from_dt":13.87},{"city":"Fairfield","state_name":"Florida","lat":29.3646,"lng":-82.25419,"zip":"32634","miles_from_dt":13.94},{"city":"Sparr","state_name":"Florida","lat":29.35005,"lng":-82.11109,"zip":"32192","miles_from_dt":14.28},{"city":"Summerfield","state_name":"Florida","lat":28.99634,"lng":-82.04665,"zip":"34491","miles_from_dt":15.54},{"city":"Silver Springs","state_name":"Florida","lat":29.22688,"lng":-81.94807,"zip":"34489","miles_from_dt":16.83},{"city":"Summerfield","state_name":"Florida","lat":29.22688,"lng":-81.94807,"zip":"34492","miles_from_dt":16.83},{"city":"Oxford","state_name":"Florida","lat":28.93417,"lng":-82.08867,"zip":"34484","miles_from_dt":17.7},{"city":"Dunnellon","state_name":"Florida","lat":28.99535,"lng":-82.43775,"zip":"34434","miles_from_dt":17.72},{"city":"Silver Springs","state_name":"Florida","lat":29.22584,"lng":-81.93226,"zip":"34488","miles_from_dt":17.74},{"city":"Orange Lake","state_name":"Florida","lat":29.42694,"lng":-82.21527,"zip":"32681","miles_from_dt":18.05},{"city":"Citra","state_name":"Florida","lat":29.39836,"lng":-82.08127,"zip":"32113","miles_from_dt":18.06},{"city":"Holder","state_name":"Florida","lat":28.97143,"lng":-82.42414,"zip":"34445","miles_from_dt":18.27},{"city":"Morriston","state_name":"Florida","lat":29.26327,"lng":-82.50321,"zip":"32668","miles_from_dt":18.55},{"city":"Dunnellon","state_name":"Florida","lat":29.1339,"lng":-82.52963,"zip":"34431","miles_from_dt":18.99},{"city":"Hernando","state_name":"Florida","lat":28.93084,"lng":-82.39122,"zip":"34442","miles_from_dt":19.24},{"city":"Ocklawaha","state_name":"Florida","lat":29.04323,"lng":-81.92937,"zip":"32183","miles_from_dt":19.33},{"city":"McIntosh","state_name":"Florida","lat":29.44986,"lng":-82.22187,"zip":"32664","miles_from_dt":19.63},{"city":"Ocklawaha","state_name":"Florida","lat":29.09631,"lng":-81.89686,"zip":"32179","miles_from_dt":19.95},{"city":"Inverness","state_name":"Florida","lat":28.89276,"lng":-82.33663,"zip":"34453","miles_from_dt":20.08},{"city":"Hernando","state_name":"Florida","lat":28.89864,"lng":-82.37562,"zip":"34441","miles_from_dt":20.68},{"city":"Eastlake Weir","state_name":"Florida","lat":29.01061,"lng":-81.92036,"zip":"32133","miles_from_dt":20.88},{"city":"The Villages","state_name":"Florida","lat":28.91629,"lng":-81.99374,"zip":"32162","miles_from_dt":21.83},{"city":"Dunnellon","state_name":"Florida","lat":28.996,"lng":-82.52383,"zip":"34433","miles_from_dt":21.88},{"city":"Williston","state_name":"Florida","lat":29.39544,"lng":-82.46728,"zip":"32696","miles_from_dt":21.9},{"city":"Evinston","state_name":"Florida","lat":29.48379,"lng":-82.22285,"zip":"32633","miles_from_dt":21.97},{"city":"Lake Panasoffkee","state_name":"Florida","lat":28.84679,"lng":-82.18218,"zip":"33538","miles_from_dt":22.01},{"city":"Beverly Hills","state_name":"Florida","lat":28.91299,"lng":-82.46318,"zip":"34464","miles_from_dt":22.85},{"city":"Weirsdale","state_name":"Florida","lat":28.9854,"lng":-81.89814,"zip":"32195","miles_from_dt":22.93},{"city":"Lecanto","state_name":"Florida","lat":28.93117,"lng":-82.49137,"zip":"34460","miles_from_dt":23.1},{"city":"Beverly Hills","state_name":"Florida","lat":28.92869,"lng":-82.49092,"zip":"34465","miles_from_dt":23.2},{"city":"Inverness","state_name":"Florida","lat":28.82699,"lng":-82.25767,"zip":"34450","miles_from_dt":23.39},{"city":"Micanopy","state_name":"Florida","lat":29.49484,"lng":-82.31084,"zip":"32667","miles_from_dt":23.42},{"city":"Inverness","state_name":"Florida","lat":28.83848,"lng":-82.33157,"zip":"34451","miles_from_dt":23.51},{"city":"Wildwood","state_name":"Florida","lat":28.84516,"lng":-82.06065,"zip":"34785","miles_from_dt":23.98},{"city":"Lady Lake","state_name":"Florida","lat":28.92727,"lng":-81.92696,"zip":"32158","miles_from_dt":24.02},{"city":"Lochloosa","state_name":"Florida","lat":29.51144,"lng":-82.099,"zip":"32662","miles_from_dt":24.92},{"city":"Lady Lake","state_name":"Florida","lat":28.92456,"lng":-81.90528,"zip":"32159","miles_from_dt":25.12},{"city":"Coleman","state_name":"Florida","lat":28.79788,"lng":-82.0752,"zip":"33521","miles_from_dt":26.7},{"city":"Fort McCoy","state_name":"Florida","lat":29.37177,"lng":-81.82562,"zip":"32134","miles_from_dt":27.62},{"city":"The Villages","state_name":"Florida","lat":28.81878,"lng":-81.98663,"zip":"32163","miles_from_dt":27.63},{"city":"Fruitland Park","state_name":"Florida","lat":28.86788,"lng":-81.89638,"zip":"34731","miles_from_dt":28.22},{"city":"Inglis","state_name":"Florida","lat":29.10451,"lng":-82.68694,"zip":"34449","miles_from_dt":28.69},{"city":"Lecanto","state_name":"Florida","lat":28.81544,"lng":-82.48029,"zip":"34461","miles_from_dt":28.85},{"city":"Crystal River","state_name":"Florida","lat":28.9608,"lng":-82.63421,"zip":"34428","miles_from_dt":28.87},{"city":"Orange Springs","state_name":"Florida","lat":29.50926,"lng":-81.94113,"zip":"32182","miles_from_dt":29},{"city":"Hawthorne","state_name":"Florida","lat":29.56889,"lng":-82.08021,"zip":"32640","miles_from_dt":29.03},{"city":"Inverness","state_name":"Florida","lat":28.76231,"lng":-82.37986,"zip":"34452","miles_from_dt":29.41},{"city":"Island Grove","state_name":"Florida","lat":29.59009,"lng":-82.12737,"zip":"32654","miles_from_dt":29.79},{"city":"Crystal River","state_name":"Florida","lat":28.86279,"lng":-82.57233,"zip":"34423","miles_from_dt":29.9}],"targetCityZipCode":"32111","targetCityState":"Florida"},"__N_SSG":true}