{"pageProps":{"stateName":"Florida","cityName":"eastpoint","nearbyCities":[{"city":"Apalachicola","state_name":"Florida","lat":29.72652,"lng":-84.99701,"zip":"32329","miles_from_dt":9.77},{"city":"Apalachicola","state_name":"Florida","lat":29.74232,"lng":-85.06938,"zip":"32320","miles_from_dt":11.96},{"city":"Sumatra","state_name":"Florida","lat":30.0232,"lng":-84.97941,"zip":"32335","miles_from_dt":12.88},{"city":"Carrabelle","state_name":"Florida","lat":29.89948,"lng":-84.62327,"zip":"32322","miles_from_dt":17.59},{"city":"Lanark Village","state_name":"Florida","lat":29.89185,"lng":-84.6122,"zip":"32323","miles_from_dt":18.15},{"city":"Wewahitchka","state_name":"Florida","lat":30.00239,"lng":-85.18615,"zip":"32465","miles_from_dt":19.76},{"city":"Port Saint Joe","state_name":"Florida","lat":29.81185,"lng":-85.30354,"zip":"32457","miles_from_dt":23.76},{"city":"Port Saint Joe","state_name":"Florida","lat":29.84586,"lng":-85.3188,"zip":"32456","miles_from_dt":24.55},{"city":"Sopchoppy","state_name":"Florida","lat":30.09535,"lng":-84.54468,"zip":"32358","miles_from_dt":27.82},{"city":"Bristol","state_name":"Florida","lat":30.26196,"lng":-84.9891,"zip":"32321","miles_from_dt":29.02},{"city":"Hosford","state_name":"Florida","lat":30.2612,"lng":-84.75835,"zip":"32334","miles_from_dt":29.99}],"targetCityZipCode":"32328","targetCityState":"Florida"},"__N_SSG":true}