{"pageProps":{"stateName":"Florida","cityName":"lawtey","nearbyCities":[{"city":"Raiford","state_name":"Florida","lat":30.09074,"lng":-82.23222,"zip":"32083","miles_from_dt":7.51},{"city":"Graham","state_name":"Florida","lat":29.96671,"lng":-82.12227,"zip":"32042","miles_from_dt":7.85},{"city":"Starke","state_name":"Florida","lat":29.93205,"lng":-82.11324,"zip":"32091","miles_from_dt":10.19},{"city":"Jacksonville","state_name":"Florida","lat":30.20784,"lng":-82.01096,"zip":"32234","miles_from_dt":10.54},{"city":"Macclenny","state_name":"Florida","lat":30.27045,"lng":-82.11974,"zip":"32063","miles_from_dt":13.15},{"city":"Middleburg","state_name":"Florida","lat":30.08218,"lng":-81.88245,"zip":"32068","miles_from_dt":13.48},{"city":"Glen Saint Mary","state_name":"Florida","lat":30.24696,"lng":-82.23531,"zip":"32040","miles_from_dt":13.82},{"city":"Middleburg","state_name":"Florida","lat":30.07206,"lng":-81.86142,"zip":"32050","miles_from_dt":14.75},{"city":"Hampton","state_name":"Florida","lat":29.85344,"lng":-82.16425,"zip":"32044","miles_from_dt":15.97},{"city":"Lake Butler","state_name":"Florida","lat":30.0281,"lng":-82.39143,"zip":"32054","miles_from_dt":17.39},{"city":"Brooker","state_name":"Florida","lat":29.89914,"lng":-82.31216,"zip":"32622","miles_from_dt":17.48},{"city":"Orange Park","state_name":"Florida","lat":30.15613,"lng":-81.81762,"zip":"32065","miles_from_dt":18.13},{"city":"Jacksonville","state_name":"Florida","lat":30.26043,"lng":-81.86764,"zip":"32221","miles_from_dt":18.99},{"city":"Jacksonville","state_name":"Florida","lat":30.21651,"lng":-81.8293,"zip":"32222","miles_from_dt":19.13},{"city":"Orange Park","state_name":"Florida","lat":30.03256,"lng":-81.79199,"zip":"32067","miles_from_dt":19.18},{"city":"Penney Farms","state_name":"Florida","lat":29.97814,"lng":-81.80563,"zip":"32079","miles_from_dt":19.4},{"city":"Doctors Inlet","state_name":"Florida","lat":30.10501,"lng":-81.78051,"zip":"32030","miles_from_dt":19.66},{"city":"Keystone Heights","state_name":"Florida","lat":29.82533,"lng":-81.95287,"zip":"32656","miles_from_dt":19.83},{"city":"Waldo","state_name":"Florida","lat":29.79086,"lng":-82.15367,"zip":"32694","miles_from_dt":20.1},{"city":"Worthington Springs","state_name":"Florida","lat":29.92831,"lng":-82.42538,"zip":"32697","miles_from_dt":21.73},{"city":"Lake Geneva","state_name":"Florida","lat":29.77303,"lng":-82.01018,"zip":"32160","miles_from_dt":21.93},{"city":"Orange Park","state_name":"Florida","lat":30.16766,"lng":-81.74069,"zip":"32073","miles_from_dt":22.78},{"city":"Jacksonville","state_name":"Florida","lat":30.22145,"lng":-81.76301,"zip":"32238","miles_from_dt":22.81},{"city":"Sanderson","state_name":"Florida","lat":30.36999,"lng":-82.29741,"zip":"32087","miles_from_dt":22.99},{"city":"Fleming Island","state_name":"Florida","lat":30.11013,"lng":-81.72218,"zip":"32006","miles_from_dt":23.17},{"city":"Jacksonville","state_name":"Florida","lat":30.2171,"lng":-81.75384,"zip":"32244","miles_from_dt":23.18},{"city":"Jacksonville","state_name":"Florida","lat":30.33693,"lng":-81.85335,"zip":"32220","miles_from_dt":23.34},{"city":"Fleming Island","state_name":"Florida","lat":30.09813,"lng":-81.71255,"zip":"32003","miles_from_dt":23.69},{"city":"Gainesville","state_name":"Florida","lat":29.76296,"lng":-82.27978,"zip":"32609","miles_from_dt":24.15},{"city":"Green Cove Springs","state_name":"Florida","lat":29.92991,"lng":-81.74304,"zip":"32043","miles_from_dt":24.16},{"city":"La Crosse","state_name":"Florida","lat":29.84817,"lng":-82.41214,"zip":"32658","miles_from_dt":24.26},{"city":"Lulu","state_name":"Florida","lat":30.08311,"lng":-82.51666,"zip":"32061","miles_from_dt":24.52},{"city":"Jacksonville","state_name":"Florida","lat":30.27561,"lng":-81.76425,"zip":"32201","miles_from_dt":24.57},{"city":"Bryceville","state_name":"Florida","lat":30.42078,"lng":-81.97252,"zip":"32009","miles_from_dt":24.83},{"city":"Earleton","state_name":"Florida","lat":29.71719,"lng":-82.10225,"zip":"32631","miles_from_dt":24.98},{"city":"Jacksonville","state_name":"Florida","lat":30.26491,"lng":-81.74746,"zip":"32210","miles_from_dt":25.03},{"city":"Melrose","state_name":"Florida","lat":29.72301,"lng":-81.99145,"zip":"32666","miles_from_dt":25.55},{"city":"Putnam Hall","state_name":"Florida","lat":29.73095,"lng":-81.95736,"zip":"32185","miles_from_dt":25.67},{"city":"Florahome","state_name":"Florida","lat":29.76274,"lng":-81.86306,"zip":"32140","miles_from_dt":26.31},{"city":"Jacksonville","state_name":"Florida","lat":30.33493,"lng":-81.77092,"zip":"32099","miles_from_dt":26.72},{"city":"Jacksonville","state_name":"Florida","lat":30.20749,"lng":-81.68334,"zip":"32214","miles_from_dt":26.87},{"city":"Grandin","state_name":"Florida","lat":29.72432,"lng":-81.91968,"zip":"32138","miles_from_dt":26.96},{"city":"Jacksonville","state_name":"Florida","lat":30.21916,"lng":-81.67869,"zip":"32212","miles_from_dt":27.4},{"city":"Saint George","state_name":"Georgia","lat":30.47778,"lng":-82.10755,"zip":"31562","miles_from_dt":27.41},{"city":"Jacksonville","state_name":"Florida","lat":30.30605,"lng":-81.72997,"zip":"32236","miles_from_dt":27.44},{"city":"Jacksonville","state_name":"Florida","lat":30.30275,"lng":-81.72257,"zip":"32205","miles_from_dt":27.68},{"city":"Lake City","state_name":"Florida","lat":30.11266,"lng":-82.57072,"zip":"32025","miles_from_dt":27.84},{"city":"Jacksonville","state_name":"Florida","lat":30.1549,"lng":-81.64821,"zip":"32223","miles_from_dt":27.98},{"city":"Jacksonville","state_name":"Florida","lat":30.34164,"lng":-81.73549,"zip":"32254","miles_from_dt":28.64},{"city":"Jacksonville","state_name":"Florida","lat":30.41815,"lng":-81.81367,"zip":"32219","miles_from_dt":29.18},{"city":"Gainesville","state_name":"Florida","lat":29.74506,"lng":-82.40546,"zip":"32653","miles_from_dt":29.18},{"city":"Alachua","state_name":"Florida","lat":29.81706,"lng":-82.49065,"zip":"32615","miles_from_dt":29.26},{"city":"Jacksonville","state_name":"Florida","lat":30.16829,"lng":-81.62911,"zip":"32241","miles_from_dt":29.28}],"targetCityZipCode":"32058","targetCityState":"Florida"},"__N_SSG":true}