{"pageProps":{"stateName":"Florida","cityName":"midway","nearbyCities":[{"city":"Tallahassee","state_name":"Florida","lat":30.39924,"lng":-84.50694,"zip":"32310","miles_from_dt":6.19},{"city":"Tallahassee","state_name":"Florida","lat":30.45346,"lng":-84.35314,"zip":"32304","miles_from_dt":7.68},{"city":"Tallahassee","state_name":"Florida","lat":30.51237,"lng":-84.34386,"zip":"32303","miles_from_dt":8.13},{"city":"Tallahassee","state_name":"Florida","lat":30.44035,"lng":-84.3347,"zip":"32314","miles_from_dt":9.01},{"city":"Havana","state_name":"Florida","lat":30.60677,"lng":-84.41249,"zip":"32333","miles_from_dt":9.21},{"city":"Tallahassee","state_name":"Florida","lat":30.44556,"lng":-84.32787,"zip":"32316","miles_from_dt":9.28},{"city":"Quincy","state_name":"Florida","lat":30.57899,"lng":-84.5928,"zip":"32353","miles_from_dt":9.48},{"city":"Tallahassee","state_name":"Florida","lat":30.44168,"lng":-84.30287,"zip":"32313","miles_from_dt":10.79},{"city":"Tallahassee","state_name":"Florida","lat":30.44227,"lng":-84.29455,"zip":"32306","miles_from_dt":11.25},{"city":"Tallahassee","state_name":"Florida","lat":30.46169,"lng":-84.28764,"zip":"32315","miles_from_dt":11.39},{"city":"Tallahassee","state_name":"Florida","lat":30.44376,"lng":-84.28357,"zip":"32302","miles_from_dt":11.86},{"city":"Tallahassee","state_name":"Florida","lat":30.42173,"lng":-84.28686,"zip":"32307","miles_from_dt":12.13},{"city":"Quincy","state_name":"Florida","lat":30.52358,"lng":-84.68362,"zip":"32351","miles_from_dt":12.63},{"city":"Quincy","state_name":"Florida","lat":30.6499,"lng":-84.58535,"zip":"32352","miles_from_dt":13.07},{"city":"Tallahassee","state_name":"Florida","lat":30.42701,"lng":-84.25799,"zip":"32301","miles_from_dt":13.64},{"city":"Gretna","state_name":"Florida","lat":30.61168,"lng":-84.6657,"zip":"32332","miles_from_dt":14.25},{"city":"Tallahassee","state_name":"Florida","lat":30.40162,"lng":-84.24426,"zip":"32399","miles_from_dt":15.01},{"city":"Tallahassee","state_name":"Florida","lat":30.4781,"lng":-84.21968,"zip":"32308","miles_from_dt":15.33},{"city":"Tallahassee","state_name":"Florida","lat":30.3337,"lng":-84.26977,"zip":"32305","miles_from_dt":16.16},{"city":"Tallahassee","state_name":"Florida","lat":30.60421,"lng":-84.23996,"zip":"32312","miles_from_dt":16.32},{"city":"Woodville","state_name":"Florida","lat":30.31465,"lng":-84.26436,"zip":"32362","miles_from_dt":17.28},{"city":"Greensboro","state_name":"Florida","lat":30.57859,"lng":-84.74799,"zip":"32330","miles_from_dt":17.42},{"city":"Attapulgus","state_name":"Georgia","lat":30.74138,"lng":-84.4935,"zip":"39815","miles_from_dt":17.68},{"city":"Tallahassee","state_name":"Florida","lat":30.56,"lng":-84.18219,"zip":"32318","miles_from_dt":18.29},{"city":"Calvary","state_name":"Georgia","lat":30.72646,"lng":-84.34621,"zip":"39829","miles_from_dt":18.35},{"city":"Tallahassee","state_name":"Florida","lat":30.39647,"lng":-84.16843,"zip":"32311","miles_from_dt":19.38},{"city":"Tallahassee","state_name":"Florida","lat":30.46746,"lng":-84.11442,"zip":"32317","miles_from_dt":21.64},{"city":"Telogia","state_name":"Florida","lat":30.36506,"lng":-84.81238,"zip":"32360","miles_from_dt":21.69},{"city":"Fowlstown","state_name":"Georgia","lat":30.79908,"lng":-84.55414,"zip":"39852","miles_from_dt":22.11},{"city":"Chattahoochee","state_name":"Florida","lat":30.65635,"lng":-84.79126,"zip":"32324","miles_from_dt":22.16},{"city":"Crawfordville","state_name":"Florida","lat":30.17267,"lng":-84.37563,"zip":"32326","miles_from_dt":22.35},{"city":"Hosford","state_name":"Florida","lat":30.2612,"lng":-84.75835,"zip":"32334","miles_from_dt":22.83},{"city":"Bainbridge","state_name":"Georgia","lat":30.78485,"lng":-84.64297,"zip":"39819","miles_from_dt":22.9},{"city":"Crawfordville","state_name":"Florida","lat":30.18705,"lng":-84.30472,"zip":"32327","miles_from_dt":22.96},{"city":"Tallahassee","state_name":"Florida","lat":30.57174,"lng":-84.10128,"zip":"32309","miles_from_dt":23.16},{"city":"Cairo","state_name":"Georgia","lat":30.79741,"lng":-84.22444,"zip":"39828","miles_from_dt":26.23},{"city":"Saint Marks","state_name":"Florida","lat":30.1695,"lng":-84.21002,"zip":"32355","miles_from_dt":26.95},{"city":"Sopchoppy","state_name":"Florida","lat":30.09535,"lng":-84.54468,"zip":"32358","miles_from_dt":27.16},{"city":"Lloyd","state_name":"Florida","lat":30.48307,"lng":-84.02104,"zip":"32337","miles_from_dt":27.17},{"city":"Climax","state_name":"Georgia","lat":30.89298,"lng":-84.42749,"zip":"39834","miles_from_dt":28.25},{"city":"Bainbridge","state_name":"Georgia","lat":30.90795,"lng":-84.57878,"zip":"39818","miles_from_dt":29.76}],"targetCityZipCode":"32343","targetCityState":"Florida"},"__N_SSG":true}