{"pageProps":{"stateName":"Florida","cityName":"milligan","nearbyCities":[{"city":"Crestview","state_name":"Florida","lat":30.75399,"lng":-86.59491,"zip":"32536","miles_from_dt":0.81},{"city":"Crestview","state_name":"Florida","lat":30.78128,"lng":-86.46646,"zip":"32539","miles_from_dt":8.41},{"city":"Baker","state_name":"Florida","lat":30.88513,"lng":-86.696,"zip":"32531","miles_from_dt":10.09},{"city":"Holt","state_name":"Florida","lat":30.72755,"lng":-86.7875,"zip":"32564","miles_from_dt":11.05},{"city":"Eglin Afb","state_name":"Florida","lat":30.58743,"lng":-86.59296,"zip":"32542","miles_from_dt":11.98},{"city":"Laurel Hill","state_name":"Florida","lat":30.92207,"lng":-86.43396,"zip":"32567","miles_from_dt":15.09},{"city":"Mossy Head","state_name":"Florida","lat":30.74234,"lng":-86.31461,"zip":"32434","miles_from_dt":17.38},{"city":"Niceville","state_name":"Florida","lat":30.5245,"lng":-86.47491,"zip":"32588","miles_from_dt":18.06},{"city":"Valparaiso","state_name":"Florida","lat":30.50337,"lng":-86.50942,"zip":"32580","miles_from_dt":18.65},{"city":"Niceville","state_name":"Florida","lat":30.50871,"lng":-86.4535,"zip":"32578","miles_from_dt":19.6},{"city":"Wing","state_name":"Alabama","lat":31.04273,"lng":-86.68494,"zip":"36483","miles_from_dt":19.97},{"city":"Fort Walton Beach","state_name":"Florida","lat":30.46649,"lng":-86.65513,"zip":"32547","miles_from_dt":20.49},{"city":"Shalimar","state_name":"Florida","lat":30.44553,"lng":-86.57401,"zip":"32579","miles_from_dt":21.81},{"city":"Milton","state_name":"Florida","lat":30.80022,"lng":-86.98158,"zip":"32570","miles_from_dt":22.51},{"city":"Lockhart","state_name":"Alabama","lat":31.01212,"lng":-86.35321,"zip":"36455","miles_from_dt":22.91},{"city":"Paxton","state_name":"Florida","lat":30.97737,"lng":-86.3124,"zip":"32538","miles_from_dt":22.95},{"city":"Hurlburt Field","state_name":"Florida","lat":30.42801,"lng":-86.70441,"zip":"32544","miles_from_dt":23.67},{"city":"Fort Walton Beach","state_name":"Florida","lat":30.4103,"lng":-86.61457,"zip":"32549","miles_from_dt":24.16},{"city":"Fort Walton Beach","state_name":"Florida","lat":30.4094,"lng":-86.6494,"zip":"32548","miles_from_dt":24.35},{"city":"Milton","state_name":"Florida","lat":30.60084,"lng":-86.97513,"zip":"32583","miles_from_dt":24.59},{"city":"Defuniak Springs","state_name":"Florida","lat":30.84848,"lng":-86.19822,"zip":"32433","miles_from_dt":24.98},{"city":"Mary Esther","state_name":"Florida","lat":30.40666,"lng":-86.72962,"zip":"32569","miles_from_dt":25.49},{"city":"Florala","state_name":"Alabama","lat":31.07312,"lng":-86.36355,"zip":"36442","miles_from_dt":25.88},{"city":"Destin","state_name":"Florida","lat":30.39666,"lng":-86.47486,"zip":"32541","miles_from_dt":26.28},{"city":"Destin","state_name":"Florida","lat":30.39284,"lng":-86.48182,"zip":"32540","miles_from_dt":26.41},{"city":"Bagdad","state_name":"Florida","lat":30.5926,"lng":-87.02344,"zip":"32530","miles_from_dt":27.43},{"city":"Milton","state_name":"Florida","lat":30.6278,"lng":-87.04861,"zip":"32572","miles_from_dt":27.9},{"city":"Navarre","state_name":"Florida","lat":30.4253,"lng":-86.8843,"zip":"32566","miles_from_dt":28.46},{"city":"Andalusia","state_name":"Alabama","lat":31.18092,"lng":-86.57618,"zip":"36420","miles_from_dt":28.99}],"targetCityZipCode":"32537","targetCityState":"Florida"},"__N_SSG":true}