{"pageProps":{"stateName":"Virginia","cityName":"accomac","nearbyCities":[{"city":"Locustville","state_name":"Virginia","lat":37.6441,"lng":-75.66924,"zip":"23404","miles_from_dt":3.19},{"city":"Onley","state_name":"Virginia","lat":37.63821,"lng":-75.66926,"zip":"23418","miles_from_dt":3.55},{"city":"Tasley","state_name":"Virginia","lat":37.71208,"lng":-75.69943,"zip":"23441","miles_from_dt":3.8},{"city":"Greenbush","state_name":"Virginia","lat":37.75862,"lng":-75.67459,"zip":"23357","miles_from_dt":5.49},{"city":"Wachapreague","state_name":"Virginia","lat":37.61388,"lng":-75.69077,"zip":"23480","miles_from_dt":5.59},{"city":"Parksley","state_name":"Virginia","lat":37.76564,"lng":-75.61429,"zip":"23421","miles_from_dt":5.8},{"city":"Melfa","state_name":"Virginia","lat":37.63802,"lng":-75.74306,"zip":"23410","miles_from_dt":6.49},{"city":"Onancock","state_name":"Virginia","lat":37.73061,"lng":-75.76687,"zip":"23417","miles_from_dt":7.67},{"city":"Keller","state_name":"Virginia","lat":37.62776,"lng":-75.77843,"zip":"23401","miles_from_dt":8.54},{"city":"Nelsonia","state_name":"Virginia","lat":37.81375,"lng":-75.58688,"zip":"23414","miles_from_dt":9.4},{"city":"Bloxom","state_name":"Virginia","lat":37.82431,"lng":-75.61773,"zip":"23308","miles_from_dt":9.75},{"city":"Pungoteague","state_name":"Virginia","lat":37.63647,"lng":-75.82397,"zip":"23422","miles_from_dt":10.62},{"city":"Harborton","state_name":"Virginia","lat":37.65731,"lng":-75.83226,"zip":"23389","miles_from_dt":10.72},{"city":"Modest Town","state_name":"Virginia","lat":37.83336,"lng":-75.56899,"zip":"23412","miles_from_dt":11},{"city":"Craddockville","state_name":"Virginia","lat":37.57685,"lng":-75.79652,"zip":"23341","miles_from_dt":11.34},{"city":"Painter","state_name":"Virginia","lat":37.58275,"lng":-75.81166,"zip":"23420","miles_from_dt":11.74},{"city":"Mappsville","state_name":"Virginia","lat":37.8432,"lng":-75.55362,"zip":"23407","miles_from_dt":11.95},{"city":"Quinby","state_name":"Virginia","lat":37.52361,"lng":-75.73969,"zip":"23423","miles_from_dt":12.35},{"city":"Hacksneck","state_name":"Virginia","lat":37.64406,"lng":-75.86495,"zip":"23358","miles_from_dt":12.65},{"city":"Mears","state_name":"Virginia","lat":37.88017,"lng":-75.64709,"zip":"23409","miles_from_dt":13.53},{"city":"Assawoman","state_name":"Virginia","lat":37.85858,"lng":-75.52197,"zip":"23302","miles_from_dt":13.66},{"city":"Hallwood","state_name":"Virginia","lat":37.88643,"lng":-75.60422,"zip":"23359","miles_from_dt":14.09},{"city":"Willis Wharf","state_name":"Virginia","lat":37.5177,"lng":-75.80824,"zip":"23486","miles_from_dt":14.73},{"city":"Belle Haven","state_name":"Virginia","lat":37.56859,"lng":-75.88148,"zip":"23306","miles_from_dt":15.47},{"city":"Temperanceville","state_name":"Virginia","lat":37.90127,"lng":-75.56874,"zip":"23442","miles_from_dt":15.48},{"city":"Davis Wharf","state_name":"Virginia","lat":37.57,"lng":-75.88845,"zip":"23345","miles_from_dt":15.75},{"city":"Saxis","state_name":"Virginia","lat":37.9124,"lng":-75.71344,"zip":"23427","miles_from_dt":16.26},{"city":"Atlantic","state_name":"Virginia","lat":37.90346,"lng":-75.50562,"zip":"23303","miles_from_dt":16.82},{"city":"Sanford","state_name":"Virginia","lat":37.92706,"lng":-75.67506,"zip":"23426","miles_from_dt":16.87},{"city":"Oak Hall","state_name":"Virginia","lat":37.92528,"lng":-75.55889,"zip":"23396","miles_from_dt":17.22},{"city":"Exmore","state_name":"Virginia","lat":37.51489,"lng":-75.87428,"zip":"23350","miles_from_dt":17.37},{"city":"Wardtown","state_name":"Virginia","lat":37.50773,"lng":-75.87035,"zip":"23482","miles_from_dt":17.55},{"city":"Oak Hall","state_name":"Virginia","lat":37.93371,"lng":-75.557,"zip":"23416","miles_from_dt":17.81},{"city":"Withams","state_name":"Virginia","lat":37.95237,"lng":-75.60831,"zip":"23488","miles_from_dt":18.59},{"city":"Nassawadox","state_name":"Virginia","lat":37.4653,"lng":-75.85356,"zip":"23413","miles_from_dt":19.11},{"city":"Marionville","state_name":"Virginia","lat":37.4533,"lng":-75.84587,"zip":"23408","miles_from_dt":19.53},{"city":"Wallops Island","state_name":"Virginia","lat":37.93332,"lng":-75.46691,"zip":"23337","miles_from_dt":19.62},{"city":"Jamesville","state_name":"Virginia","lat":37.52054,"lng":-75.93971,"zip":"23398","miles_from_dt":19.95},{"city":"Franktown","state_name":"Virginia","lat":37.47806,"lng":-75.90225,"zip":"23354","miles_from_dt":20.23},{"city":"Wattsville","state_name":"Virginia","lat":37.96152,"lng":-75.51341,"zip":"23483","miles_from_dt":20.35},{"city":"New Church","state_name":"Virginia","lat":37.97459,"lng":-75.53443,"zip":"23415","miles_from_dt":20.85},{"city":"Birdsnest","state_name":"Virginia","lat":37.43282,"lng":-75.87095,"zip":"23307","miles_from_dt":21.48},{"city":"Tangier","state_name":"Virginia","lat":37.83048,"lng":-75.99019,"zip":"23440","miles_from_dt":21.69},{"city":"Horntown","state_name":"Virginia","lat":37.97051,"lng":-75.45159,"zip":"23395","miles_from_dt":22.28},{"city":"Crisfield","state_name":"Maryland","lat":37.98081,"lng":-75.83537,"zip":"21817","miles_from_dt":23.1},{"city":"Marion Station","state_name":"Maryland","lat":38.01452,"lng":-75.73098,"zip":"21838","miles_from_dt":23.33},{"city":"Machipongo","state_name":"Virginia","lat":37.41466,"lng":-75.91969,"zip":"23405","miles_from_dt":24.11},{"city":"Chincoteague Island","state_name":"Virginia","lat":37.95461,"lng":-75.33759,"zip":"23336","miles_from_dt":24.93},{"city":"Rehobeth","state_name":"Maryland","lat":38.04647,"lng":-75.66726,"zip":"21857","miles_from_dt":25.04},{"city":"Greenbackville","state_name":"Virginia","lat":37.9905,"lng":-75.39228,"zip":"23356","miles_from_dt":25.1},{"city":"Pocomoke City","state_name":"Maryland","lat":38.07825,"lng":-75.54375,"zip":"21851","miles_from_dt":27.69},{"city":"Stockton","state_name":"Maryland","lat":38.04355,"lng":-75.40532,"zip":"21864","miles_from_dt":27.91},{"city":"Tylerton","state_name":"Maryland","lat":37.9672,"lng":-76.02137,"zip":"21866","miles_from_dt":28.59},{"city":"Eastville","state_name":"Virginia","lat":37.36026,"lng":-75.96798,"zip":"23347","miles_from_dt":28.7},{"city":"Westover","state_name":"Maryland","lat":38.10489,"lng":-75.73127,"zip":"21871","miles_from_dt":29.46},{"city":"Ewell","state_name":"Maryland","lat":37.97982,"lng":-76.02871,"zip":"21824","miles_from_dt":29.48}],"targetCityZipCode":"23301","targetCityState":"Virginia"},"__N_SSG":true}