{"pageProps":{"stateName":"Massachusetts","cityName":"manomet","nearbyCities":[{"city":"White Horse Beach","state_name":"Massachusetts","lat":41.93003,"lng":-70.559,"zip":"02381","miles_from_dt":1.87},{"city":"Plymouth","state_name":"Massachusetts","lat":41.87817,"lng":-70.63089,"zip":"02360","miles_from_dt":4.39},{"city":"Plymouth","state_name":"Massachusetts","lat":41.92334,"lng":-70.65562,"zip":"02361","miles_from_dt":5.48},{"city":"South Carver","state_name":"Massachusetts","lat":41.84868,"lng":-70.6613,"zip":"02366","miles_from_dt":6.75},{"city":"Plymouth","state_name":"Massachusetts","lat":41.95977,"lng":-70.66527,"zip":"02362","miles_from_dt":6.98},{"city":"Sagamore Beach","state_name":"Massachusetts","lat":41.78753,"lng":-70.52746,"zip":"02562","miles_from_dt":8.1},{"city":"Sagamore","state_name":"Massachusetts","lat":41.76782,"lng":-70.53281,"zip":"02561","miles_from_dt":9.41},{"city":"East Wareham","state_name":"Massachusetts","lat":41.77872,"lng":-70.65077,"zip":"02538","miles_from_dt":9.98},{"city":"Carver","state_name":"Massachusetts","lat":41.87388,"lng":-70.7563,"zip":"02330","miles_from_dt":10.69},{"city":"Buzzards Bay","state_name":"Massachusetts","lat":41.75111,"lng":-70.59713,"zip":"02532","miles_from_dt":10.76},{"city":"Duxbury","state_name":"Massachusetts","lat":42.03184,"lng":-70.69423,"zip":"02331","miles_from_dt":11.48},{"city":"Kingston","state_name":"Massachusetts","lat":41.98616,"lng":-70.74823,"zip":"02364","miles_from_dt":11.58},{"city":"Onset","state_name":"Massachusetts","lat":41.74453,"lng":-70.65377,"zip":"02558","miles_from_dt":12.14},{"city":"Wareham","state_name":"Massachusetts","lat":41.76184,"lng":-70.70138,"zip":"02571","miles_from_dt":12.42},{"city":"North Carver","state_name":"Massachusetts","lat":41.91775,"lng":-70.79731,"zip":"02355","miles_from_dt":12.64},{"city":"Green Harbor","state_name":"Massachusetts","lat":42.07158,"lng":-70.65438,"zip":"02041","miles_from_dt":12.73},{"city":"Duxbury","state_name":"Massachusetts","lat":42.04651,"lng":-70.71388,"zip":"02332","miles_from_dt":12.9},{"city":"Sandwich","state_name":"Massachusetts","lat":41.71995,"lng":-70.4818,"zip":"02563","miles_from_dt":13.18},{"city":"East Sandwich","state_name":"Massachusetts","lat":41.72882,"lng":-70.44317,"zip":"02537","miles_from_dt":13.31},{"city":"Brant Rock","state_name":"Massachusetts","lat":42.08398,"lng":-70.64973,"zip":"02020","miles_from_dt":13.43},{"city":"Monument Beach","state_name":"Massachusetts","lat":41.71297,"lng":-70.62011,"zip":"02553","miles_from_dt":13.59},{"city":"Plympton","state_name":"Massachusetts","lat":41.96345,"lng":-70.80975,"zip":"02367","miles_from_dt":13.88},{"city":"West Wareham","state_name":"Massachusetts","lat":41.77807,"lng":-70.76338,"zip":"02576","miles_from_dt":13.89},{"city":"Buzzards Bay","state_name":"Massachusetts","lat":41.70194,"lng":-70.54824,"zip":"02542","miles_from_dt":13.9},{"city":"Pocasset","state_name":"Massachusetts","lat":41.69237,"lng":-70.61374,"zip":"02559","miles_from_dt":14.9},{"city":"Ocean Bluff","state_name":"Massachusetts","lat":42.09167,"lng":-70.70611,"zip":"02065","miles_from_dt":15.2},{"city":"Forestdale","state_name":"Massachusetts","lat":41.68361,"lng":-70.51202,"zip":"02644","miles_from_dt":15.31},{"city":"Middleboro","state_name":"Massachusetts","lat":41.88034,"lng":-70.87446,"zip":"02346","miles_from_dt":16.66},{"city":"Cataumet","state_name":"Massachusetts","lat":41.66626,"lng":-70.61628,"zip":"02534","miles_from_dt":16.69},{"city":"West Barnstable","state_name":"Massachusetts","lat":41.70713,"lng":-70.36246,"zip":"02668","miles_from_dt":16.73},{"city":"Marshfield","state_name":"Massachusetts","lat":42.11443,"lng":-70.71487,"zip":"02050","miles_from_dt":16.79},{"city":"Pembroke","state_name":"Massachusetts","lat":42.06547,"lng":-70.8014,"zip":"02359","miles_from_dt":17},{"city":"Monponsett","state_name":"Massachusetts","lat":42.02043,"lng":-70.84562,"zip":"02350","miles_from_dt":17.11},{"city":"Halifax","state_name":"Massachusetts","lat":41.99138,"lng":-70.86326,"zip":"02338","miles_from_dt":17.11},{"city":"Marion","state_name":"Massachusetts","lat":41.7092,"lng":-70.76362,"zip":"02738","miles_from_dt":17.27},{"city":"Marstons Mills","state_name":"Massachusetts","lat":41.67237,"lng":-70.41545,"zip":"02648","miles_from_dt":17.45},{"city":"Bryantville","state_name":"Massachusetts","lat":42.04474,"lng":-70.83634,"zip":"02327","miles_from_dt":17.56},{"city":"Rochester","state_name":"Massachusetts","lat":41.75875,"lng":-70.84048,"zip":"02770","miles_from_dt":17.89},{"city":"North Pembroke","state_name":"Massachusetts","lat":42.09441,"lng":-70.78789,"zip":"02358","miles_from_dt":17.9},{"city":"Humarock","state_name":"Massachusetts","lat":42.14582,"lng":-70.69603,"zip":"02047","miles_from_dt":18.28},{"city":"Middleboro","state_name":"Massachusetts","lat":41.87098,"lng":-70.90838,"zip":"02349","miles_from_dt":18.47},{"city":"North Falmouth","state_name":"Massachusetts","lat":41.63903,"lng":-70.62521,"zip":"02556","miles_from_dt":18.62},{"city":"Marshfield Hills","state_name":"Massachusetts","lat":42.14519,"lng":-70.72388,"zip":"02051","miles_from_dt":18.87},{"city":"Middleboro","state_name":"Massachusetts","lat":41.89422,"lng":-70.92082,"zip":"02344","miles_from_dt":18.99},{"city":"Barnstable","state_name":"Massachusetts","lat":41.69674,"lng":-70.3052,"zip":"02630","miles_from_dt":19.15},{"city":"Hanson","state_name":"Massachusetts","lat":42.05604,"lng":-70.87251,"zip":"02341","miles_from_dt":19.55},{"city":"Centerville","state_name":"Massachusetts","lat":41.66074,"lng":-70.34826,"zip":"02632","miles_from_dt":19.8},{"city":"Centerville","state_name":"Massachusetts","lat":41.65777,"lng":-70.3536,"zip":"02634","miles_from_dt":19.83},{"city":"Cummaquid","state_name":"Massachusetts","lat":41.70493,"lng":-70.27245,"zip":"02637","miles_from_dt":19.93},{"city":"Mashpee","state_name":"Massachusetts","lat":41.61778,"lng":-70.49077,"zip":"02649","miles_from_dt":19.97},{"city":"North Marshfield","state_name":"Massachusetts","lat":42.14282,"lng":-70.77212,"zip":"02059","miles_from_dt":20.01},{"city":"Cotuit","state_name":"Massachusetts","lat":41.62348,"lng":-70.44051,"zip":"02635","miles_from_dt":20.17},{"city":"Lakeville","state_name":"Massachusetts","lat":41.87731,"lng":-70.94643,"zip":"02348","miles_from_dt":20.38},{"city":"Osterville","state_name":"Massachusetts","lat":41.62972,"lng":-70.39263,"zip":"02655","miles_from_dt":20.62},{"city":"East Falmouth","state_name":"Massachusetts","lat":41.59706,"lng":-70.56677,"zip":"02536","miles_from_dt":21.15},{"city":"Mattapoisett","state_name":"Massachusetts","lat":41.6687,"lng":-70.81705,"zip":"02739","miles_from_dt":21.18},{"city":"Provincetown","state_name":"Massachusetts","lat":42.06139,"lng":-70.19813,"zip":"02657","miles_from_dt":21.27},{"city":"West Falmouth","state_name":"Massachusetts","lat":41.60136,"lng":-70.63961,"zip":"02574","miles_from_dt":21.32},{"city":"Hyannis","state_name":"Massachusetts","lat":41.66,"lng":-70.29327,"zip":"02601","miles_from_dt":21.49},{"city":"Lakeville","state_name":"Massachusetts","lat":41.83101,"lng":-70.9594,"zip":"02347","miles_from_dt":21.56},{"city":"Greenbush","state_name":"Massachusetts","lat":42.17959,"lng":-70.74968,"zip":"02040","miles_from_dt":21.59},{"city":"Yarmouth Port","state_name":"Massachusetts","lat":41.70401,"lng":-70.22883,"zip":"02675","miles_from_dt":21.66},{"city":"Hanover","state_name":"Massachusetts","lat":42.12241,"lng":-70.85665,"zip":"02339","miles_from_dt":21.75},{"city":"Dennis","state_name":"Massachusetts","lat":41.73225,"lng":-70.19459,"zip":"02638","miles_from_dt":21.94},{"city":"Bridgewater","state_name":"Massachusetts","lat":41.98875,"lng":-70.96449,"zip":"02325","miles_from_dt":22.02},{"city":"East Bridgewater","state_name":"Massachusetts","lat":42.03521,"lng":-70.94235,"zip":"02333","miles_from_dt":22.03},{"city":"West Hyannisport","state_name":"Massachusetts","lat":41.6357,"lng":-70.31878,"zip":"02672","miles_from_dt":22.08},{"city":"Acushnet","state_name":"Massachusetts","lat":41.71323,"lng":-70.90054,"zip":"02743","miles_from_dt":22.24},{"city":"Bridgewater","state_name":"Massachusetts","lat":41.97272,"lng":-70.97498,"zip":"02324","miles_from_dt":22.28},{"city":"Norwell","state_name":"Massachusetts","lat":42.16075,"lng":-70.81772,"zip":"02061","miles_from_dt":22.39},{"city":"Elmwood","state_name":"Massachusetts","lat":42.01183,"lng":-70.96402,"zip":"02337","miles_from_dt":22.47},{"city":"Hyannis Port","state_name":"Massachusetts","lat":41.63127,"lng":-70.30909,"zip":"02647","miles_from_dt":22.61},{"city":"East Dennis","state_name":"Massachusetts","lat":41.75221,"lng":-70.15176,"zip":"02641","miles_from_dt":23.18},{"city":"Scituate","state_name":"Massachusetts","lat":42.20129,"lng":-70.76155,"zip":"02066","miles_from_dt":23.2},{"city":"Falmouth","state_name":"Massachusetts","lat":41.57128,"lng":-70.62807,"zip":"02540","miles_from_dt":23.25},{"city":"Whitman","state_name":"Massachusetts","lat":42.08,"lng":-70.93993,"zip":"02382","miles_from_dt":23.36},{"city":"West Yarmouth","state_name":"Massachusetts","lat":41.6557,"lng":-70.24447,"zip":"02673","miles_from_dt":23.36},{"city":"East Taunton","state_name":"Massachusetts","lat":41.86902,"lng":-71.01128,"zip":"02718","miles_from_dt":23.76},{"city":"Rockland","state_name":"Massachusetts","lat":42.1295,"lng":-70.91002,"zip":"02370","miles_from_dt":24.12},{"city":"Falmouth","state_name":"Massachusetts","lat":41.55716,"lng":-70.63239,"zip":"02541","miles_from_dt":24.25},{"city":"South Yarmouth","state_name":"Massachusetts","lat":41.67486,"lng":-70.19446,"zip":"02664","miles_from_dt":24.32},{"city":"East Freetown","state_name":"Massachusetts","lat":41.75405,"lng":-70.98312,"zip":"02717","miles_from_dt":24.49},{"city":"South Dennis","state_name":"Massachusetts","lat":41.70828,"lng":-70.15517,"zip":"02660","miles_from_dt":24.55},{"city":"Fairhaven","state_name":"Massachusetts","lat":41.63945,"lng":-70.87322,"zip":"02719","miles_from_dt":24.61},{"city":"New Bedford","state_name":"Massachusetts","lat":41.70284,"lng":-70.94695,"zip":"02745","miles_from_dt":24.61},{"city":"Raynham Center","state_name":"Massachusetts","lat":41.92912,"lng":-71.0417,"zip":"02768","miles_from_dt":25.27},{"city":"Accord","state_name":"Massachusetts","lat":42.17568,"lng":-70.88691,"zip":"02018","miles_from_dt":25.47},{"city":"Minot","state_name":"Massachusetts","lat":42.23883,"lng":-70.76158,"zip":"02055","miles_from_dt":25.52},{"city":"North Truro","state_name":"Massachusetts","lat":42.0428,"lng":-70.09276,"zip":"02652","miles_from_dt":25.57},{"city":"Abington","state_name":"Massachusetts","lat":42.11805,"lng":-70.95905,"zip":"02351","miles_from_dt":25.63},{"city":"West Bridgewater","state_name":"Massachusetts","lat":42.02139,"lng":-71.0267,"zip":"02379","miles_from_dt":25.73},{"city":"Raynham","state_name":"Massachusetts","lat":41.93939,"lng":-71.05191,"zip":"02767","miles_from_dt":25.85},{"city":"West Dennis","state_name":"Massachusetts","lat":41.66,"lng":-70.17098,"zip":"02670","miles_from_dt":25.91},{"city":"New Bedford","state_name":"Massachusetts","lat":41.66474,"lng":-70.945,"zip":"02746","miles_from_dt":26.11},{"city":"Brockton","state_name":"Massachusetts","lat":42.08792,"lng":-70.99864,"zip":"02302","miles_from_dt":26.25},{"city":"Cohasset","state_name":"Massachusetts","lat":42.23603,"lng":-70.81906,"zip":"02025","miles_from_dt":26.73},{"city":"New Bedford","state_name":"Massachusetts","lat":41.63792,"lng":-70.92952,"zip":"02742","miles_from_dt":26.73},{"city":"Truro","state_name":"Massachusetts","lat":41.98817,"lng":-70.04603,"zip":"02666","miles_from_dt":26.76},{"city":"Brockton","state_name":"Massachusetts","lat":42.08476,"lng":-71.01516,"zip":"02303","miles_from_dt":26.9},{"city":"New Bedford","state_name":"Massachusetts","lat":41.63989,"lng":-70.94,"zip":"02741","miles_from_dt":27.03},{"city":"New Bedford","state_name":"Massachusetts","lat":41.63802,"lng":-70.93839,"zip":"02740","miles_from_dt":27.06},{"city":"Dennis Port","state_name":"Massachusetts","lat":41.66639,"lng":-70.13535,"zip":"02639","miles_from_dt":27.06},{"city":"Brewster","state_name":"Massachusetts","lat":41.74673,"lng":-70.06894,"zip":"02631","miles_from_dt":27.22},{"city":"Brockton","state_name":"Massachusetts","lat":42.08318,"lng":-71.02462,"zip":"02305","miles_from_dt":27.28},{"city":"Brockton","state_name":"Massachusetts","lat":42.08167,"lng":-71.02597,"zip":"02304","miles_from_dt":27.29},{"city":"Berkley","state_name":"Massachusetts","lat":41.83492,"lng":-71.07543,"zip":"02779","miles_from_dt":27.37},{"city":"South Weymouth","state_name":"Massachusetts","lat":42.16625,"lng":-70.95253,"zip":"02190","miles_from_dt":27.43},{"city":"Wellfleet","state_name":"Massachusetts","lat":41.92937,"lng":-70.02074,"zip":"02667","miles_from_dt":27.48},{"city":"Assonet","state_name":"Massachusetts","lat":41.78452,"lng":-71.06112,"zip":"02702","miles_from_dt":27.49},{"city":"Hingham","state_name":"Massachusetts","lat":42.21678,"lng":-70.88494,"zip":"02043","miles_from_dt":27.56},{"city":"New Bedford","state_name":"Massachusetts","lat":41.60789,"lng":-70.91286,"zip":"02744","miles_from_dt":27.61},{"city":"Brockton","state_name":"Massachusetts","lat":42.07791,"lng":-71.04223,"zip":"02301","miles_from_dt":27.93},{"city":"West Harwich","state_name":"Massachusetts","lat":41.66938,"lng":-70.11087,"zip":"02671","miles_from_dt":27.96},{"city":"Holbrook","state_name":"Massachusetts","lat":42.14733,"lng":-71.00484,"zip":"02343","miles_from_dt":28.72},{"city":"East Weymouth","state_name":"Massachusetts","lat":42.2111,"lng":-70.93135,"zip":"02189","miles_from_dt":28.81},{"city":"Harwich","state_name":"Massachusetts","lat":41.70352,"lng":-70.06215,"zip":"02645","miles_from_dt":28.85},{"city":"South Wellfleet","state_name":"Massachusetts","lat":41.90576,"lng":-69.989,"zip":"02663","miles_from_dt":29.07},{"city":"North Dartmouth","state_name":"Massachusetts","lat":41.6577,"lng":-71.01202,"zip":"02747","miles_from_dt":29.16},{"city":"North Easton","state_name":"Massachusetts","lat":42.06224,"lng":-71.07751,"zip":"02357","miles_from_dt":29.16},{"city":"Taunton","state_name":"Massachusetts","lat":41.90743,"lng":-71.11939,"zip":"02780","miles_from_dt":29.21},{"city":"Hingham","state_name":"Massachusetts","lat":42.24248,"lng":-70.89288,"zip":"02044","miles_from_dt":29.22},{"city":"South Easton","state_name":"Massachusetts","lat":42.01954,"lng":-71.10381,"zip":"02375","miles_from_dt":29.49},{"city":"Weymouth","state_name":"Massachusetts","lat":42.20724,"lng":-70.95764,"zip":"02188","miles_from_dt":29.55},{"city":"Harwich Port","state_name":"Massachusetts","lat":41.67103,"lng":-70.07144,"zip":"02646","miles_from_dt":29.59},{"city":"Avon","state_name":"Massachusetts","lat":42.12666,"lng":-71.04922,"zip":"02322","miles_from_dt":29.84}],"targetCityZipCode":"02345","targetCityState":"Massachusetts"},"__N_SSG":true}