{"pageProps":{"stateName":"Indiana","cityName":"churubusco","nearbyCities":[{"city":"Fort Wayne","state_name":"Indiana","lat":41.19754,"lng":-85.3053,"zip":"46898","miles_from_dt":2.98},{"city":"Laotto","state_name":"Indiana","lat":41.29418,"lng":-85.2415,"zip":"46763","miles_from_dt":5.79},{"city":"Fort Wayne","state_name":"Indiana","lat":41.14698,"lng":-85.25111,"zip":"46818","miles_from_dt":7.37},{"city":"Huntertown","state_name":"Indiana","lat":41.24829,"lng":-85.16727,"zip":"46748","miles_from_dt":8.21},{"city":"Avilla","state_name":"Indiana","lat":41.35167,"lng":-85.25168,"zip":"46710","miles_from_dt":8.69},{"city":"Arcola","state_name":"Indiana","lat":41.10371,"lng":-85.29242,"zip":"46704","miles_from_dt":9.43},{"city":"Columbia City","state_name":"Indiana","lat":41.1518,"lng":-85.47655,"zip":"46725","miles_from_dt":9.92},{"city":"Albion","state_name":"Indiana","lat":41.35846,"lng":-85.43034,"zip":"46701","miles_from_dt":9.96},{"city":"Wolflake","state_name":"Indiana","lat":41.3367,"lng":-85.49583,"zip":"46796","miles_from_dt":11.21},{"city":"Garrett","state_name":"Indiana","lat":41.32189,"lng":-85.13731,"zip":"46738","miles_from_dt":11.32},{"city":"Fort Wayne","state_name":"Indiana","lat":41.2051,"lng":-85.10789,"zip":"46845","miles_from_dt":11.51},{"city":"Fort Wayne","state_name":"Indiana","lat":41.15397,"lng":-85.12425,"zip":"46825","miles_from_dt":11.95},{"city":"Fort Wayne","state_name":"Indiana","lat":41.09887,"lng":-85.17619,"zip":"46808","miles_from_dt":12.34},{"city":"Fort Wayne","state_name":"Indiana","lat":41.04616,"lng":-85.30805,"zip":"46814","miles_from_dt":13.29},{"city":"Fort Wayne","state_name":"Indiana","lat":41.05421,"lng":-85.23913,"zip":"46804","miles_from_dt":13.46},{"city":"Fort Wayne","state_name":"Indiana","lat":41.07291,"lng":-85.16652,"zip":"46857","miles_from_dt":14.07},{"city":"Kimmell","state_name":"Indiana","lat":41.34441,"lng":-85.55654,"zip":"46760","miles_from_dt":14.13},{"city":"Fort Wayne","state_name":"Indiana","lat":41.06924,"lng":-85.16896,"zip":"46852","miles_from_dt":14.21},{"city":"Fort Wayne","state_name":"Indiana","lat":41.1048,"lng":-85.11692,"zip":"46895","miles_from_dt":14.21},{"city":"Fort Wayne","state_name":"Indiana","lat":41.07089,"lng":-85.16484,"zip":"46859","miles_from_dt":14.24},{"city":"Fort Wayne","state_name":"Indiana","lat":41.06848,"lng":-85.16935,"zip":"46869","miles_from_dt":14.24},{"city":"Fort Wayne","state_name":"Indiana","lat":41.06987,"lng":-85.16665,"zip":"46868","miles_from_dt":14.24},{"city":"Fort Wayne","state_name":"Indiana","lat":41.06897,"lng":-85.16786,"zip":"46862","miles_from_dt":14.25},{"city":"Fort Wayne","state_name":"Indiana","lat":41.07095,"lng":-85.16382,"zip":"46866","miles_from_dt":14.26},{"city":"Fort Wayne","state_name":"Indiana","lat":41.06924,"lng":-85.16703,"zip":"46863","miles_from_dt":14.26},{"city":"Fort Wayne","state_name":"Indiana","lat":41.06853,"lng":-85.1674,"zip":"46855","miles_from_dt":14.29},{"city":"Fort Wayne","state_name":"Indiana","lat":41.07114,"lng":-85.16254,"zip":"46860","miles_from_dt":14.29},{"city":"Fort Wayne","state_name":"Indiana","lat":41.06907,"lng":-85.16586,"zip":"46867","miles_from_dt":14.31},{"city":"Fort Wayne","state_name":"Indiana","lat":41.06789,"lng":-85.16768,"zip":"46801","miles_from_dt":14.32},{"city":"Fort Wayne","state_name":"Indiana","lat":41.068,"lng":-85.16637,"zip":"46858","miles_from_dt":14.35},{"city":"Fort Wayne","state_name":"Indiana","lat":41.06646,"lng":-85.1688,"zip":"46850","miles_from_dt":14.37},{"city":"Fort Wayne","state_name":"Indiana","lat":41.06769,"lng":-85.16637,"zip":"46864","miles_from_dt":14.37},{"city":"Fort Wayne","state_name":"Indiana","lat":41.06925,"lng":-85.16335,"zip":"46861","miles_from_dt":14.37},{"city":"Fort Wayne","state_name":"Indiana","lat":41.06772,"lng":-85.16591,"zip":"46851","miles_from_dt":14.38},{"city":"Fort Wayne","state_name":"Indiana","lat":41.0674,"lng":-85.16558,"zip":"46853","miles_from_dt":14.41},{"city":"Fort Wayne","state_name":"Indiana","lat":41.06922,"lng":-85.16147,"zip":"46897","miles_from_dt":14.43},{"city":"Fort Wayne","state_name":"Indiana","lat":41.09918,"lng":-85.11762,"zip":"46805","miles_from_dt":14.44},{"city":"Fort Wayne","state_name":"Indiana","lat":41.149,"lng":-85.07375,"zip":"46854","miles_from_dt":14.45},{"city":"Fort Wayne","state_name":"Indiana","lat":41.06787,"lng":-85.16299,"zip":"46802","miles_from_dt":14.46},{"city":"Fort Wayne","state_name":"Indiana","lat":41.06561,"lng":-85.16653,"zip":"46865","miles_from_dt":14.48},{"city":"Fort Wayne","state_name":"Indiana","lat":41.06602,"lng":-85.16517,"zip":"46856","miles_from_dt":14.5},{"city":"Leo","state_name":"Indiana","lat":41.23361,"lng":-85.04047,"zip":"46765","miles_from_dt":14.79},{"city":"Kendallville","state_name":"Indiana","lat":41.45119,"lng":-85.27209,"zip":"46755","miles_from_dt":14.94},{"city":"Larwill","state_name":"Indiana","lat":41.2176,"lng":-85.62376,"zip":"46764","miles_from_dt":15.66},{"city":"Fort Wayne","state_name":"Indiana","lat":41.15086,"lng":-85.04536,"zip":"46835","miles_from_dt":15.75},{"city":"Fort Wayne","state_name":"Indiana","lat":41.04489,"lng":-85.14763,"zip":"46807","miles_from_dt":16.22},{"city":"Auburn","state_name":"Indiana","lat":41.34242,"lng":-85.03922,"zip":"46706","miles_from_dt":16.49},{"city":"Fort Wayne","state_name":"Indiana","lat":41.1034,"lng":-85.05913,"zip":"46815","miles_from_dt":16.67},{"city":"Fort Wayne","state_name":"Indiana","lat":41.13586,"lng":-85.03368,"zip":"46885","miles_from_dt":16.72},{"city":"Fort Wayne","state_name":"Indiana","lat":41.06972,"lng":-85.08532,"zip":"46803","miles_from_dt":17.05},{"city":"Fort Wayne","state_name":"Indiana","lat":40.99862,"lng":-85.23438,"zip":"46899","miles_from_dt":17.19},{"city":"Wawaka","state_name":"Indiana","lat":41.46654,"lng":-85.45946,"zip":"46794","miles_from_dt":17.25},{"city":"Corunna","state_name":"Indiana","lat":41.454,"lng":-85.15504,"zip":"46730","miles_from_dt":17.3},{"city":"Fort Wayne","state_name":"Indiana","lat":41.00088,"lng":-85.2102,"zip":"46809","miles_from_dt":17.43},{"city":"Fort Wayne","state_name":"Indiana","lat":41.04649,"lng":-85.09224,"zip":"46806","miles_from_dt":17.94},{"city":"Cromwell","state_name":"Indiana","lat":41.37697,"lng":-85.62169,"zip":"46732","miles_from_dt":18.19},{"city":"Rome City","state_name":"Indiana","lat":41.49797,"lng":-85.38797,"zip":"46784","miles_from_dt":18.22},{"city":"Roanoke","state_name":"Indiana","lat":40.97399,"lng":-85.35578,"zip":"46783","miles_from_dt":18.31},{"city":"South Whitley","state_name":"Indiana","lat":41.06598,"lng":-85.62085,"zip":"46787","miles_from_dt":19.5},{"city":"Grabill","state_name":"Indiana","lat":41.21161,"lng":-84.95176,"zip":"46741","miles_from_dt":19.5},{"city":"Pierceton","state_name":"Indiana","lat":41.20947,"lng":-85.69757,"zip":"46562","miles_from_dt":19.54},{"city":"North Webster","state_name":"Indiana","lat":41.32858,"lng":-85.68833,"zip":"46555","miles_from_dt":19.94},{"city":"Ligonier","state_name":"Indiana","lat":41.46487,"lng":-85.5764,"zip":"46767","miles_from_dt":20.4},{"city":"South Milford","state_name":"Indiana","lat":41.53156,"lng":-85.27269,"zip":"46786","miles_from_dt":20.42},{"city":"Fort Wayne","state_name":"Indiana","lat":41.00772,"lng":-85.06932,"zip":"46896","miles_from_dt":20.74},{"city":"New Haven","state_name":"Indiana","lat":41.09103,"lng":-84.96955,"zip":"46774","miles_from_dt":21.11},{"city":"Yoder","state_name":"Indiana","lat":40.94256,"lng":-85.22113,"zip":"46798","miles_from_dt":21.11},{"city":"Fort Wayne","state_name":"Indiana","lat":40.96409,"lng":-85.13256,"zip":"46819","miles_from_dt":21.41},{"city":"Wolcottville","state_name":"Indiana","lat":41.55116,"lng":-85.33941,"zip":"46795","miles_from_dt":21.61},{"city":"Spencerville","state_name":"Indiana","lat":41.27005,"lng":-84.90876,"zip":"46788","miles_from_dt":21.76},{"city":"Fort Wayne","state_name":"Indiana","lat":41.00396,"lng":-85.04169,"zip":"46816","miles_from_dt":21.89},{"city":"Waterloo","state_name":"Indiana","lat":41.46106,"lng":-85.01928,"zip":"46793","miles_from_dt":22.09},{"city":"Zanesville","state_name":"Indiana","lat":40.91592,"lng":-85.27923,"zip":"46799","miles_from_dt":22.37},{"city":"Saint Joe","state_name":"Indiana","lat":41.31974,"lng":-84.88506,"zip":"46785","miles_from_dt":23.55},{"city":"Ashley","state_name":"Indiana","lat":41.51816,"lng":-85.06029,"zip":"46705","miles_from_dt":23.7},{"city":"Hudson","state_name":"Indiana","lat":41.56042,"lng":-85.15349,"zip":"46747","miles_from_dt":23.94},{"city":"Syracuse","state_name":"Indiana","lat":41.41473,"lng":-85.73044,"zip":"46567","miles_from_dt":24.38},{"city":"Harlan","state_name":"Indiana","lat":41.21511,"lng":-84.85321,"zip":"46743","miles_from_dt":24.6},{"city":"Stroh","state_name":"Indiana","lat":41.58274,"lng":-85.19742,"zip":"46789","miles_from_dt":24.67},{"city":"Liberty Mills","state_name":"Indiana","lat":41.03932,"lng":-85.73019,"zip":"46946","miles_from_dt":25.23},{"city":"Winona Lake","state_name":"Indiana","lat":41.21612,"lng":-85.80862,"zip":"46590","miles_from_dt":25.27},{"city":"Woodburn","state_name":"Indiana","lat":41.12749,"lng":-84.86046,"zip":"46797","miles_from_dt":25.37},{"city":"Topeka","state_name":"Indiana","lat":41.56795,"lng":-85.54667,"zip":"46571","miles_from_dt":25.51},{"city":"Bippus","state_name":"Indiana","lat":40.94341,"lng":-85.61975,"zip":"46713","miles_from_dt":25.53},{"city":"Hoagland","state_name":"Indiana","lat":40.95194,"lng":-85.00887,"zip":"46745","miles_from_dt":25.72},{"city":"Huntington","state_name":"Indiana","lat":40.87677,"lng":-85.49674,"zip":"46750","miles_from_dt":26.52},{"city":"Butler","state_name":"Indiana","lat":41.4237,"lng":-84.87425,"zip":"46721","miles_from_dt":26.68},{"city":"Ossian","state_name":"Indiana","lat":40.87248,"lng":-85.15236,"zip":"46777","miles_from_dt":26.79},{"city":"Leesburg","state_name":"Indiana","lat":41.32829,"lng":-85.82703,"zip":"46538","miles_from_dt":26.89},{"city":"Millersburg","state_name":"Indiana","lat":41.53341,"lng":-85.67119,"zip":"46543","miles_from_dt":27.2},{"city":"Lagrange","state_name":"Indiana","lat":41.63576,"lng":-85.37127,"zip":"46761","miles_from_dt":27.54},{"city":"Pleasant Lake","state_name":"Indiana","lat":41.5725,"lng":-85.03094,"zip":"46779","miles_from_dt":27.65},{"city":"Warsaw","state_name":"Indiana","lat":41.28323,"lng":-85.85235,"zip":"46582","miles_from_dt":27.67},{"city":"Warsaw","state_name":"Indiana","lat":41.23711,"lng":-85.85823,"zip":"46581","miles_from_dt":27.81},{"city":"Uniondale","state_name":"Indiana","lat":40.83699,"lng":-85.24325,"zip":"46791","miles_from_dt":28.01},{"city":"Markle","state_name":"Indiana","lat":40.8298,"lng":-85.31873,"zip":"46770","miles_from_dt":28.19},{"city":"Warsaw","state_name":"Indiana","lat":41.20884,"lng":-85.87212,"zip":"46580","miles_from_dt":28.61},{"city":"North Manchester","state_name":"Indiana","lat":40.98774,"lng":-85.76675,"zip":"46962","miles_from_dt":28.84},{"city":"Servia","state_name":"Indiana","lat":40.95598,"lng":-85.74155,"zip":"46980","miles_from_dt":29.22},{"city":"Monroeville","state_name":"Indiana","lat":40.98401,"lng":-84.8759,"zip":"46773","miles_from_dt":29.25},{"city":"Claypool","state_name":"Indiana","lat":41.12068,"lng":-85.874,"zip":"46510","miles_from_dt":29.78}],"targetCityZipCode":"46723","targetCityState":"Indiana"},"__N_SSG":true}