{"pageProps":{"stateName":"Indiana","cityName":"huntington","nearbyCities":[{"city":"Andrews","state_name":"Indiana","lat":40.82681,"lng":-85.61732,"zip":"46702","miles_from_dt":7.2},{"city":"Bippus","state_name":"Indiana","lat":40.94341,"lng":-85.61975,"zip":"46713","miles_from_dt":7.91},{"city":"Markle","state_name":"Indiana","lat":40.8298,"lng":-85.31873,"zip":"46770","miles_from_dt":9.87},{"city":"Roanoke","state_name":"Indiana","lat":40.97399,"lng":-85.35578,"zip":"46783","miles_from_dt":9.97},{"city":"Lagro","state_name":"Indiana","lat":40.82833,"lng":-85.69723,"zip":"46941","miles_from_dt":11.02},{"city":"Zanesville","state_name":"Indiana","lat":40.91592,"lng":-85.27923,"zip":"46799","miles_from_dt":11.71},{"city":"Urbana","state_name":"Indiana","lat":40.89851,"lng":-85.73161,"zip":"46990","miles_from_dt":12.39},{"city":"Uniondale","state_name":"Indiana","lat":40.83699,"lng":-85.24325,"zip":"46791","miles_from_dt":13.56},{"city":"Warren","state_name":"Indiana","lat":40.68472,"lng":-85.43798,"zip":"46792","miles_from_dt":13.61},{"city":"Servia","state_name":"Indiana","lat":40.95598,"lng":-85.74155,"zip":"46980","miles_from_dt":13.93},{"city":"South Whitley","state_name":"Indiana","lat":41.06598,"lng":-85.62085,"zip":"46787","miles_from_dt":14.58},{"city":"Yoder","state_name":"Indiana","lat":40.94256,"lng":-85.22113,"zip":"46798","miles_from_dt":15.13},{"city":"Fort Wayne","state_name":"Indiana","lat":41.04616,"lng":-85.30805,"zip":"46814","miles_from_dt":15.3},{"city":"Liberty Center","state_name":"Indiana","lat":40.70984,"lng":-85.29424,"zip":"46766","miles_from_dt":15.67},{"city":"North Manchester","state_name":"Indiana","lat":40.98774,"lng":-85.76675,"zip":"46962","miles_from_dt":16.07},{"city":"Fort Wayne","state_name":"Indiana","lat":40.99862,"lng":-85.23438,"zip":"46899","miles_from_dt":16.1},{"city":"Liberty Mills","state_name":"Indiana","lat":41.03932,"lng":-85.73019,"zip":"46946","miles_from_dt":16.58},{"city":"La Fontaine","state_name":"Indiana","lat":40.6882,"lng":-85.69857,"zip":"46940","miles_from_dt":16.77},{"city":"Van Buren","state_name":"Indiana","lat":40.63034,"lng":-85.50642,"zip":"46991","miles_from_dt":17.01},{"city":"Fort Wayne","state_name":"Indiana","lat":41.00088,"lng":-85.2102,"zip":"46809","miles_from_dt":17.27},{"city":"Ossian","state_name":"Indiana","lat":40.87248,"lng":-85.15236,"zip":"46777","miles_from_dt":18.04},{"city":"Fort Wayne","state_name":"Indiana","lat":41.05421,"lng":-85.23913,"zip":"46804","miles_from_dt":18.21},{"city":"Wabash","state_name":"Indiana","lat":40.78509,"lng":-85.82961,"zip":"46992","miles_from_dt":18.56},{"city":"Arcola","state_name":"Indiana","lat":41.10371,"lng":-85.29242,"zip":"46704","miles_from_dt":18.96},{"city":"Columbia City","state_name":"Indiana","lat":41.1518,"lng":-85.47655,"zip":"46725","miles_from_dt":19.01},{"city":"Laketon","state_name":"Indiana","lat":40.9735,"lng":-85.84038,"zip":"46943","miles_from_dt":19.18},{"city":"Fort Wayne","state_name":"Indiana","lat":40.96409,"lng":-85.13256,"zip":"46819","miles_from_dt":19.99},{"city":"Bluffton","state_name":"Indiana","lat":40.71774,"lng":-85.17319,"zip":"46714","miles_from_dt":20.21},{"city":"Poneto","state_name":"Indiana","lat":40.63659,"lng":-85.27339,"zip":"46781","miles_from_dt":20.3},{"city":"Marion","state_name":"Indiana","lat":40.59882,"lng":-85.63249,"zip":"46952","miles_from_dt":20.46},{"city":"Craigville","state_name":"Indiana","lat":40.79751,"lng":-85.10267,"zip":"46731","miles_from_dt":21.36},{"city":"Fort Wayne","state_name":"Indiana","lat":41.06646,"lng":-85.1688,"zip":"46850","miles_from_dt":21.58},{"city":"Fort Wayne","state_name":"Indiana","lat":41.06848,"lng":-85.16935,"zip":"46869","miles_from_dt":21.64},{"city":"Fort Wayne","state_name":"Indiana","lat":41.04489,"lng":-85.14763,"zip":"46807","miles_from_dt":21.64},{"city":"Fort Wayne","state_name":"Indiana","lat":41.06561,"lng":-85.16653,"zip":"46865","miles_from_dt":21.64},{"city":"Fort Wayne","state_name":"Indiana","lat":41.06789,"lng":-85.16768,"zip":"46801","miles_from_dt":21.68},{"city":"Fort Wayne","state_name":"Indiana","lat":41.06924,"lng":-85.16896,"zip":"46852","miles_from_dt":21.69},{"city":"Fort Wayne","state_name":"Indiana","lat":41.06602,"lng":-85.16517,"zip":"46856","miles_from_dt":21.71},{"city":"Fort Wayne","state_name":"Indiana","lat":41.06853,"lng":-85.1674,"zip":"46855","miles_from_dt":21.72},{"city":"Fort Wayne","state_name":"Indiana","lat":41.06897,"lng":-85.16786,"zip":"46862","miles_from_dt":21.72},{"city":"Fort Wayne","state_name":"Indiana","lat":41.06769,"lng":-85.16637,"zip":"46864","miles_from_dt":21.73},{"city":"Fort Wayne","state_name":"Indiana","lat":41.068,"lng":-85.16637,"zip":"46858","miles_from_dt":21.74},{"city":"Fort Wayne","state_name":"Indiana","lat":41.0674,"lng":-85.16558,"zip":"46853","miles_from_dt":21.75},{"city":"Fort Wayne","state_name":"Indiana","lat":41.06772,"lng":-85.16591,"zip":"46851","miles_from_dt":21.75},{"city":"Fort Wayne","state_name":"Indiana","lat":41.06924,"lng":-85.16703,"zip":"46863","miles_from_dt":21.77},{"city":"Fort Wayne","state_name":"Indiana","lat":41.06987,"lng":-85.16665,"zip":"46868","miles_from_dt":21.81},{"city":"Fort Wayne","state_name":"Indiana","lat":41.06907,"lng":-85.16586,"zip":"46867","miles_from_dt":21.81},{"city":"Fort Wayne","state_name":"Indiana","lat":41.06787,"lng":-85.16299,"zip":"46802","miles_from_dt":21.88},{"city":"Fort Wayne","state_name":"Indiana","lat":41.06925,"lng":-85.16335,"zip":"46861","miles_from_dt":21.92},{"city":"Fort Wayne","state_name":"Indiana","lat":41.07089,"lng":-85.16484,"zip":"46859","miles_from_dt":21.93},{"city":"Fort Wayne","state_name":"Indiana","lat":41.07291,"lng":-85.16652,"zip":"46857","miles_from_dt":21.94},{"city":"Fort Wayne","state_name":"Indiana","lat":41.07095,"lng":-85.16382,"zip":"46866","miles_from_dt":21.97},{"city":"Fort Wayne","state_name":"Indiana","lat":41.06922,"lng":-85.16147,"zip":"46897","miles_from_dt":22},{"city":"Fort Wayne","state_name":"Indiana","lat":41.07114,"lng":-85.16254,"zip":"46860","miles_from_dt":22.03},{"city":"Fort Wayne","state_name":"Indiana","lat":41.14698,"lng":-85.25111,"zip":"46818","miles_from_dt":22.64},{"city":"Somerset","state_name":"Indiana","lat":40.66777,"lng":-85.82975,"zip":"46984","miles_from_dt":22.65},{"city":"Fort Wayne","state_name":"Indiana","lat":41.09887,"lng":-85.17619,"zip":"46808","miles_from_dt":22.71},{"city":"Roann","state_name":"Indiana","lat":40.94839,"lng":-85.93041,"zip":"46974","miles_from_dt":23.23},{"city":"Silver Lake","state_name":"Indiana","lat":41.05717,"lng":-85.8882,"zip":"46982","miles_from_dt":23.96},{"city":"Fort Wayne","state_name":"Indiana","lat":41.00772,"lng":-85.06932,"zip":"46896","miles_from_dt":24.12},{"city":"Fort Wayne","state_name":"Indiana","lat":41.04649,"lng":-85.09224,"zip":"46806","miles_from_dt":24.18},{"city":"Fort Wayne","state_name":"Indiana","lat":41.19754,"lng":-85.3053,"zip":"46898","miles_from_dt":24.29},{"city":"Larwill","state_name":"Indiana","lat":41.2176,"lng":-85.62376,"zip":"46764","miles_from_dt":24.44},{"city":"Montpelier","state_name":"Indiana","lat":40.55203,"lng":-85.28642,"zip":"47359","miles_from_dt":24.98},{"city":"Fort Wayne","state_name":"Indiana","lat":41.09918,"lng":-85.11762,"zip":"46805","miles_from_dt":25.07},{"city":"Pierceton","state_name":"Indiana","lat":41.20947,"lng":-85.69757,"zip":"46562","miles_from_dt":25.24},{"city":"Keystone","state_name":"Indiana","lat":40.59855,"lng":-85.18299,"zip":"46759","miles_from_dt":25.29},{"city":"Fort Wayne","state_name":"Indiana","lat":41.06972,"lng":-85.08532,"zip":"46803","miles_from_dt":25.3},{"city":"Fort Wayne","state_name":"Indiana","lat":41.1048,"lng":-85.11692,"zip":"46895","miles_from_dt":25.34},{"city":"Fort Wayne","state_name":"Indiana","lat":41.00396,"lng":-85.04169,"zip":"46816","miles_from_dt":25.38},{"city":"Preble","state_name":"Indiana","lat":40.83371,"lng":-85.01418,"zip":"46782","miles_from_dt":25.46},{"city":"Sweetser","state_name":"Indiana","lat":40.56847,"lng":-85.76722,"zip":"46987","miles_from_dt":25.58},{"city":"Petroleum","state_name":"Indiana","lat":40.61055,"lng":-85.15491,"zip":"46778","miles_from_dt":25.68},{"city":"Marion","state_name":"Indiana","lat":40.51928,"lng":-85.643,"zip":"46953","miles_from_dt":25.84},{"city":"Claypool","state_name":"Indiana","lat":41.12068,"lng":-85.874,"zip":"46510","miles_from_dt":25.93},{"city":"Hoagland","state_name":"Indiana","lat":40.95194,"lng":-85.00887,"zip":"46745","miles_from_dt":26.06},{"city":"Churubusco","state_name":"Indiana","lat":41.23828,"lng":-85.32441,"zip":"46723","miles_from_dt":26.52},{"city":"Fort Wayne","state_name":"Indiana","lat":41.15397,"lng":-85.12425,"zip":"46825","miles_from_dt":27.29},{"city":"Fort Wayne","state_name":"Indiana","lat":41.1034,"lng":-85.05913,"zip":"46815","miles_from_dt":27.72},{"city":"Gas City","state_name":"Indiana","lat":40.47887,"lng":-85.58091,"zip":"46933","miles_from_dt":27.81},{"city":"Converse","state_name":"Indiana","lat":40.58826,"lng":-85.8706,"zip":"46919","miles_from_dt":27.95},{"city":"Winona Lake","state_name":"Indiana","lat":41.21612,"lng":-85.80862,"zip":"46590","miles_from_dt":28.53},{"city":"Denver","state_name":"Indiana","lat":40.88283,"lng":-86.04945,"zip":"46926","miles_from_dt":28.95},{"city":"Fort Wayne","state_name":"Indiana","lat":41.149,"lng":-85.07375,"zip":"46854","miles_from_dt":29.01},{"city":"Amboy","state_name":"Indiana","lat":40.62859,"lng":-85.94673,"zip":"46911","miles_from_dt":29.17},{"city":"Linn Grove","state_name":"Indiana","lat":40.64445,"lng":-85.03123,"zip":"46769","miles_from_dt":29.22},{"city":"Decatur","state_name":"Indiana","lat":40.83033,"lng":-84.94023,"zip":"46733","miles_from_dt":29.33},{"city":"Upland","state_name":"Indiana","lat":40.45056,"lng":-85.48115,"zip":"46989","miles_from_dt":29.42},{"city":"Hartford City","state_name":"Indiana","lat":40.45725,"lng":-85.34855,"zip":"47348","miles_from_dt":29.98}],"targetCityZipCode":"46750","targetCityState":"Indiana"},"__N_SSG":true}