{"pageProps":{"stateName":"Indiana","cityName":"la-porte","nearbyCities":[{"city":"La Porte","state_name":"Indiana","lat":41.62198,"lng":-86.69539,"zip":"46352","miles_from_dt":1.71},{"city":"Kingsbury","state_name":"Indiana","lat":41.53032,"lng":-86.69995,"zip":"46345","miles_from_dt":5.41},{"city":"Rolling Prairie","state_name":"Indiana","lat":41.67683,"lng":-86.6005,"zip":"46371","miles_from_dt":7.91},{"city":"Kingsford Heights","state_name":"Indiana","lat":41.47816,"lng":-86.69332,"zip":"46346","miles_from_dt":9.01},{"city":"Michigan City","state_name":"Indiana","lat":41.68739,"lng":-86.86464,"zip":"46360","miles_from_dt":9.25},{"city":"Mill Creek","state_name":"Indiana","lat":41.60605,"lng":-86.54112,"zip":"46365","miles_from_dt":9.35},{"city":"Union Mills","state_name":"Indiana","lat":41.46868,"lng":-86.76212,"zip":"46382","miles_from_dt":9.77},{"city":"Westville","state_name":"Indiana","lat":41.5455,"lng":-86.91446,"zip":"46391","miles_from_dt":10.86},{"city":"New Buffalo","state_name":"Michigan","lat":41.78028,"lng":-86.72696,"zip":"49117","miles_from_dt":11.96},{"city":"Michigan City","state_name":"Indiana","lat":41.71963,"lng":-86.90291,"zip":"46361","miles_from_dt":12.19},{"city":"New Carlisle","state_name":"Indiana","lat":41.70731,"lng":-86.485,"zip":"46552","miles_from_dt":14.07},{"city":"Hamlet","state_name":"Indiana","lat":41.41762,"lng":-86.62119,"zip":"46532","miles_from_dt":14.07},{"city":"Beverly Shores","state_name":"Indiana","lat":41.68687,"lng":-86.97438,"zip":"46301","miles_from_dt":14.2},{"city":"Union Pier","state_name":"Michigan","lat":41.81699,"lng":-86.68839,"zip":"49129","miles_from_dt":14.6},{"city":"Walkerton","state_name":"Indiana","lat":41.47327,"lng":-86.48829,"zip":"46574","miles_from_dt":15.21},{"city":"Wanatah","state_name":"Indiana","lat":41.41677,"lng":-86.8742,"zip":"46390","miles_from_dt":15.33},{"city":"Hanna","state_name":"Indiana","lat":41.38339,"lng":-86.76846,"zip":"46340","miles_from_dt":15.62},{"city":"Three Oaks","state_name":"Michigan","lat":41.81706,"lng":-86.60457,"zip":"49128","miles_from_dt":15.71},{"city":"North Liberty","state_name":"Indiana","lat":41.56252,"lng":-86.41947,"zip":"46554","miles_from_dt":15.95},{"city":"Lakeside","state_name":"Michigan","lat":41.84836,"lng":-86.66637,"zip":"49116","miles_from_dt":16.9},{"city":"Chesterton","state_name":"Indiana","lat":41.61311,"lng":-87.04905,"zip":"46304","miles_from_dt":16.97},{"city":"Galien","state_name":"Michigan","lat":41.80259,"lng":-86.50044,"zip":"49113","miles_from_dt":17.69},{"city":"Valparaiso","state_name":"Indiana","lat":41.45838,"lng":-87.00156,"zip":"46383","miles_from_dt":17.78},{"city":"Valparaiso","state_name":"Indiana","lat":41.49362,"lng":-87.05475,"zip":"46384","miles_from_dt":18.96},{"city":"Harbert","state_name":"Michigan","lat":41.87537,"lng":-86.63389,"zip":"49115","miles_from_dt":19.07},{"city":"South Bend","state_name":"Indiana","lat":41.65997,"lng":-86.3532,"zip":"46619","miles_from_dt":19.42},{"city":"Grovertown","state_name":"Indiana","lat":41.35686,"lng":-86.51558,"zip":"46531","miles_from_dt":20.3},{"city":"New Troy","state_name":"Michigan","lat":41.87564,"lng":-86.54862,"zip":"49119","miles_from_dt":20.58},{"city":"Sawyer","state_name":"Michigan","lat":41.88698,"lng":-86.57946,"zip":"49125","miles_from_dt":20.67},{"city":"South Bend","state_name":"Indiana","lat":41.72103,"lng":-86.33465,"zip":"46628","miles_from_dt":21.52},{"city":"La Crosse","state_name":"Indiana","lat":41.30981,"lng":-86.86244,"zip":"46348","miles_from_dt":21.77},{"city":"Tyner","state_name":"Indiana","lat":41.40804,"lng":-86.393,"zip":"46572","miles_from_dt":21.89},{"city":"Donaldson","state_name":"Indiana","lat":41.3629,"lng":-86.44816,"zip":"46513","miles_from_dt":22.02},{"city":"South Bend","state_name":"Indiana","lat":41.65728,"lng":-86.29507,"zip":"46626","miles_from_dt":22.35},{"city":"Knox","state_name":"Indiana","lat":41.28561,"lng":-86.61878,"zip":"46534","miles_from_dt":22.81},{"city":"South Bend","state_name":"Indiana","lat":41.60359,"lng":-86.28064,"zip":"46614","miles_from_dt":22.84},{"city":"Buchanan","state_name":"Michigan","lat":41.84804,"lng":-86.41396,"zip":"49107","miles_from_dt":23.02},{"city":"Valparaiso","state_name":"Indiana","lat":41.46395,"lng":-87.12396,"zip":"46385","miles_from_dt":23.08},{"city":"Lakeville","state_name":"Indiana","lat":41.51913,"lng":-86.2867,"zip":"46536","miles_from_dt":23.34},{"city":"Portage","state_name":"Indiana","lat":41.5848,"lng":-87.17937,"zip":"46368","miles_from_dt":23.77},{"city":"Lapaz","state_name":"Indiana","lat":41.45724,"lng":-86.30669,"zip":"46537","miles_from_dt":23.87},{"city":"South Bend","state_name":"Indiana","lat":41.65389,"lng":-86.264,"zip":"46613","miles_from_dt":23.91},{"city":"Wheeler","state_name":"Indiana","lat":41.5139,"lng":-87.16801,"zip":"46393","miles_from_dt":24.02},{"city":"Bridgman","state_name":"Michigan","lat":41.93452,"lng":-86.55105,"zip":"49106","miles_from_dt":24.26},{"city":"South Bend","state_name":"Indiana","lat":41.69693,"lng":-86.26671,"zip":"46616","miles_from_dt":24.35},{"city":"South Bend","state_name":"Indiana","lat":41.63223,"lng":-86.25004,"zip":"46680","miles_from_dt":24.48},{"city":"South Bend","state_name":"Indiana","lat":41.67065,"lng":-86.252,"zip":"46601","miles_from_dt":24.7},{"city":"South Bend","state_name":"Indiana","lat":41.67171,"lng":-86.25219,"zip":"46699","miles_from_dt":24.71},{"city":"South Bend","state_name":"Indiana","lat":41.70252,"lng":-86.25164,"zip":"46624","miles_from_dt":25.2},{"city":"Notre Dame","state_name":"Indiana","lat":41.70198,"lng":-86.24513,"zip":"46556","miles_from_dt":25.52},{"city":"Kouts","state_name":"Indiana","lat":41.30502,"lng":-87.00859,"zip":"46347","miles_from_dt":25.62},{"city":"South Bend","state_name":"Indiana","lat":41.69237,"lng":-86.23894,"zip":"46634","miles_from_dt":25.67},{"city":"South Bend","state_name":"Indiana","lat":41.68435,"lng":-86.23513,"zip":"46617","miles_from_dt":25.74},{"city":"South Bend","state_name":"Indiana","lat":41.73358,"lng":-86.24299,"zip":"46637","miles_from_dt":26.26},{"city":"Baroda","state_name":"Michigan","lat":41.94462,"lng":-86.48429,"zip":"49101","miles_from_dt":26.33},{"city":"South Bend","state_name":"Indiana","lat":41.67494,"lng":-86.21151,"zip":"46615","miles_from_dt":26.82},{"city":"Plymouth","state_name":"Indiana","lat":41.35541,"lng":-86.32612,"zip":"46563","miles_from_dt":26.88},{"city":"South Bend","state_name":"Indiana","lat":41.69563,"lng":-86.21444,"zip":"46660","miles_from_dt":26.95},{"city":"Boone Grove","state_name":"Indiana","lat":41.3604,"lng":-87.12645,"zip":"46302","miles_from_dt":27.04},{"city":"North Judson","state_name":"Indiana","lat":41.21443,"lng":-86.76922,"zip":"46366","miles_from_dt":27.2},{"city":"South Bend","state_name":"Indiana","lat":41.71518,"lng":-86.20832,"zip":"46635","miles_from_dt":27.59},{"city":"Gary","state_name":"Indiana","lat":41.60636,"lng":-87.25803,"zip":"46403","miles_from_dt":27.79},{"city":"Hobart","state_name":"Indiana","lat":41.51761,"lng":-87.24468,"zip":"46342","miles_from_dt":27.81},{"city":"Lake Station","state_name":"Indiana","lat":41.57409,"lng":-87.26285,"zip":"46405","miles_from_dt":28.14},{"city":"San Pierre","state_name":"Indiana","lat":41.20616,"lng":-86.895,"zip":"46374","miles_from_dt":29.09},{"city":"Stevensville","state_name":"Michigan","lat":42.00411,"lng":-86.51597,"zip":"49127","miles_from_dt":29.39},{"city":"Berrien Springs","state_name":"Michigan","lat":41.94559,"lng":-86.37519,"zip":"49103","miles_from_dt":29.43},{"city":"Wyatt","state_name":"Indiana","lat":41.52633,"lng":-86.16367,"zip":"46595","miles_from_dt":29.45},{"city":"Mishawaka","state_name":"Indiana","lat":41.66265,"lng":-86.15762,"zip":"46546","miles_from_dt":29.45},{"city":"Niles","state_name":"Michigan","lat":41.83148,"lng":-86.23162,"zip":"49120","miles_from_dt":29.7}],"targetCityZipCode":"46350","targetCityState":"Indiana"},"__N_SSG":true}