{"pageProps":{"stateName":"Indiana","cityName":"williamsport","nearbyCities":[{"city":"West Lebanon","state_name":"Indiana","lat":40.28034,"lng":-87.44794,"zip":"47991","miles_from_dt":2.74},{"city":"State Line","state_name":"Indiana","lat":40.19728,"lng":-87.5268,"zip":"47982","miles_from_dt":9.82},{"city":"Bismarck","state_name":"Illinois","lat":40.23191,"lng":-87.57018,"zip":"61814","miles_from_dt":9.83},{"city":"Alvin","state_name":"Illinois","lat":40.29531,"lng":-87.62162,"zip":"61811","miles_from_dt":10.92},{"city":"Attica","state_name":"Indiana","lat":40.30388,"lng":-87.20628,"zip":"47918","miles_from_dt":11.09},{"city":"Ambia","state_name":"Indiana","lat":40.46881,"lng":-87.47633,"zip":"47917","miles_from_dt":11.3},{"city":"Boswell","state_name":"Indiana","lat":40.47838,"lng":-87.37485,"zip":"47921","miles_from_dt":11.71},{"city":"Pine Village","state_name":"Indiana","lat":40.44436,"lng":-87.25348,"zip":"47975","miles_from_dt":12.55},{"city":"Covington","state_name":"Indiana","lat":40.12764,"lng":-87.40761,"zip":"47932","miles_from_dt":12.7},{"city":"Rossville","state_name":"Illinois","lat":40.36848,"lng":-87.65115,"zip":"60963","miles_from_dt":13.02},{"city":"Henning","state_name":"Illinois","lat":40.30694,"lng":-87.70096,"zip":"61848","miles_from_dt":15.05},{"city":"Danville","state_name":"Illinois","lat":40.16428,"lng":-87.64028,"zip":"61834","miles_from_dt":15.62},{"city":"Newtown","state_name":"Indiana","lat":40.20355,"lng":-87.14892,"zip":"47969","miles_from_dt":15.97},{"city":"Veedersburg","state_name":"Indiana","lat":40.11916,"lng":-87.23428,"zip":"47987","miles_from_dt":16.39},{"city":"Hoopeston","state_name":"Illinois","lat":40.46678,"lng":-87.66134,"zip":"60942","miles_from_dt":16.8},{"city":"Danville","state_name":"Illinois","lat":40.13186,"lng":-87.63256,"zip":"61832","miles_from_dt":16.88},{"city":"Mellott","state_name":"Indiana","lat":40.16452,"lng":-87.14862,"zip":"47958","miles_from_dt":17.4},{"city":"Oxford","state_name":"Indiana","lat":40.52946,"lng":-87.23751,"zip":"47971","miles_from_dt":17.74},{"city":"Templeton","state_name":"Indiana","lat":40.51384,"lng":-87.20719,"zip":"47986","miles_from_dt":17.78},{"city":"Perrysville","state_name":"Indiana","lat":40.04297,"lng":-87.47356,"zip":"47974","miles_from_dt":18.78},{"city":"Otterbein","state_name":"Indiana","lat":40.47423,"lng":-87.13031,"zip":"47970","miles_from_dt":18.79},{"city":"Tilton","state_name":"Illinois","lat":40.09914,"lng":-87.64718,"zip":"61833","miles_from_dt":19.09},{"city":"Westpoint","state_name":"Indiana","lat":40.31933,"lng":-87.0519,"zip":"47992","miles_from_dt":19.24},{"city":"Wingate","state_name":"Indiana","lat":40.18233,"lng":-87.08231,"zip":"47994","miles_from_dt":19.77},{"city":"Wellington","state_name":"Illinois","lat":40.53654,"lng":-87.66265,"zip":"60973","miles_from_dt":20.25},{"city":"Potomac","state_name":"Illinois","lat":40.30362,"lng":-87.80047,"zip":"61865","miles_from_dt":20.31},{"city":"Collison","state_name":"Illinois","lat":40.22623,"lng":-87.79705,"zip":"61831","miles_from_dt":20.98},{"city":"Fowler","state_name":"Indiana","lat":40.61067,"lng":-87.32804,"zip":"47944","miles_from_dt":21.15},{"city":"Oakwood","state_name":"Illinois","lat":40.13166,"lng":-87.76438,"zip":"61858","miles_from_dt":22.22},{"city":"Westville","state_name":"Illinois","lat":40.03494,"lng":-87.63992,"zip":"61883","miles_from_dt":22.47},{"city":"Hillsboro","state_name":"Indiana","lat":40.06288,"lng":-87.13504,"zip":"47949","miles_from_dt":22.71},{"city":"East Lynn","state_name":"Illinois","lat":40.46513,"lng":-87.80013,"zip":"60932","miles_from_dt":22.87},{"city":"Stockland","state_name":"Illinois","lat":40.6241,"lng":-87.58123,"zip":"60967","miles_from_dt":23.25},{"city":"Montmorenci","state_name":"Indiana","lat":40.47418,"lng":-87.03001,"zip":"47962","miles_from_dt":23.25},{"city":"New Richmond","state_name":"Indiana","lat":40.1942,"lng":-86.99899,"zip":"47967","miles_from_dt":23.49},{"city":"Kingman","state_name":"Indiana","lat":39.96186,"lng":-87.30049,"zip":"47952","miles_from_dt":24.89},{"city":"Catlin","state_name":"Illinois","lat":40.03088,"lng":-87.71991,"zip":"61817","miles_from_dt":25.18},{"city":"Armstrong","state_name":"Illinois","lat":40.25869,"lng":-87.88989,"zip":"61812","miles_from_dt":25.3},{"city":"Georgetown","state_name":"Illinois","lat":39.97601,"lng":-87.61222,"zip":"61846","miles_from_dt":25.38},{"city":"Waynetown","state_name":"Indiana","lat":40.06118,"lng":-87.05952,"zip":"47990","miles_from_dt":25.58},{"city":"West Lafayette","state_name":"Indiana","lat":40.48541,"lng":-86.98584,"zip":"47906","miles_from_dt":25.67},{"city":"Goodwine","state_name":"Illinois","lat":40.56696,"lng":-87.77714,"zip":"60939","miles_from_dt":25.94},{"city":"Romney","state_name":"Indiana","lat":40.24599,"lng":-86.93128,"zip":"47981","miles_from_dt":26.01},{"city":"Earl Park","state_name":"Indiana","lat":40.68791,"lng":-87.4472,"zip":"47942","miles_from_dt":26.02},{"city":"Milford","state_name":"Illinois","lat":40.62854,"lng":-87.6894,"zip":"60953","miles_from_dt":26.19},{"city":"Muncie","state_name":"Illinois","lat":40.11862,"lng":-87.84337,"zip":"61857","miles_from_dt":26.23},{"city":"Cayuga","state_name":"Indiana","lat":39.93237,"lng":-87.46501,"zip":"47928","miles_from_dt":26.29},{"city":"Wallace","state_name":"Indiana","lat":39.98897,"lng":-87.14678,"zip":"47988","miles_from_dt":26.43},{"city":"Rankin","state_name":"Illinois","lat":40.43879,"lng":-87.89132,"zip":"60960","miles_from_dt":26.57},{"city":"Fithian","state_name":"Illinois","lat":40.14431,"lng":-87.8711,"zip":"61844","miles_from_dt":26.69},{"city":"Lafayette","state_name":"Indiana","lat":40.32357,"lng":-86.89933,"zip":"47909","miles_from_dt":27.3},{"city":"Claytonville","state_name":"Illinois","lat":40.56937,"lng":-87.81208,"zip":"60926","miles_from_dt":27.43},{"city":"West Lafayette","state_name":"Indiana","lat":40.42474,"lng":-86.91665,"zip":"47907","miles_from_dt":27.49},{"city":"West Lafayette","state_name":"Indiana","lat":40.44384,"lng":-86.91141,"zip":"47996","miles_from_dt":28.15},{"city":"Penfield","state_name":"Illinois","lat":40.30474,"lng":-87.95103,"zip":"61862","miles_from_dt":28.26},{"city":"Lafayette","state_name":"Indiana","lat":40.4178,"lng":-86.88995,"zip":"47901","miles_from_dt":28.72},{"city":"Fairmount","state_name":"Illinois","lat":40.02775,"lng":-87.82459,"zip":"61841","miles_from_dt":29.18},{"city":"Newport","state_name":"Indiana","lat":39.88843,"lng":-87.41433,"zip":"47966","miles_from_dt":29.2},{"city":"Alamo","state_name":"Indiana","lat":39.98343,"lng":-87.05524,"zip":"47916","miles_from_dt":29.62},{"city":"Lafayette","state_name":"Indiana","lat":40.43835,"lng":-86.87609,"zip":"47904","miles_from_dt":29.8}],"targetCityZipCode":"47993","targetCityState":"Indiana"},"__N_SSG":true}