{"pageProps":{"stateName":"Indiana","cityName":"zanesville","nearbyCities":[{"city":"Yoder","state_name":"Indiana","lat":40.94256,"lng":-85.22113,"zip":"46798","miles_from_dt":3.55},{"city":"Roanoke","state_name":"Indiana","lat":40.97399,"lng":-85.35578,"zip":"46783","miles_from_dt":5.67},{"city":"Uniondale","state_name":"Indiana","lat":40.83699,"lng":-85.24325,"zip":"46791","miles_from_dt":5.76},{"city":"Fort Wayne","state_name":"Indiana","lat":40.99862,"lng":-85.23438,"zip":"46899","miles_from_dt":6.17},{"city":"Markle","state_name":"Indiana","lat":40.8298,"lng":-85.31873,"zip":"46770","miles_from_dt":6.29},{"city":"Fort Wayne","state_name":"Indiana","lat":41.00088,"lng":-85.2102,"zip":"46809","miles_from_dt":6.89},{"city":"Ossian","state_name":"Indiana","lat":40.87248,"lng":-85.15236,"zip":"46777","miles_from_dt":7.29},{"city":"Fort Wayne","state_name":"Indiana","lat":40.96409,"lng":-85.13256,"zip":"46819","miles_from_dt":8.36},{"city":"Fort Wayne","state_name":"Indiana","lat":41.04616,"lng":-85.30805,"zip":"46814","miles_from_dt":9.11},{"city":"Fort Wayne","state_name":"Indiana","lat":41.05421,"lng":-85.23913,"zip":"46804","miles_from_dt":9.77},{"city":"Fort Wayne","state_name":"Indiana","lat":41.04489,"lng":-85.14763,"zip":"46807","miles_from_dt":11.25},{"city":"Huntington","state_name":"Indiana","lat":40.87677,"lng":-85.49674,"zip":"46750","miles_from_dt":11.71},{"city":"Fort Wayne","state_name":"Indiana","lat":41.06646,"lng":-85.1688,"zip":"46850","miles_from_dt":11.88},{"city":"Fort Wayne","state_name":"Indiana","lat":41.06561,"lng":-85.16653,"zip":"46865","miles_from_dt":11.89},{"city":"Fort Wayne","state_name":"Indiana","lat":41.06602,"lng":-85.16517,"zip":"46856","miles_from_dt":11.95},{"city":"Fort Wayne","state_name":"Indiana","lat":41.06848,"lng":-85.16935,"zip":"46869","miles_from_dt":11.99},{"city":"Fort Wayne","state_name":"Indiana","lat":41.06789,"lng":-85.16768,"zip":"46801","miles_from_dt":12},{"city":"Fort Wayne","state_name":"Indiana","lat":41.06769,"lng":-85.16637,"zip":"46864","miles_from_dt":12.02},{"city":"Fort Wayne","state_name":"Indiana","lat":41.0674,"lng":-85.16558,"zip":"46853","miles_from_dt":12.02},{"city":"Fort Wayne","state_name":"Indiana","lat":41.06772,"lng":-85.16591,"zip":"46851","miles_from_dt":12.03},{"city":"Fort Wayne","state_name":"Indiana","lat":41.068,"lng":-85.16637,"zip":"46858","miles_from_dt":12.04},{"city":"Fort Wayne","state_name":"Indiana","lat":41.06924,"lng":-85.16896,"zip":"46852","miles_from_dt":12.05},{"city":"Fort Wayne","state_name":"Indiana","lat":41.06853,"lng":-85.1674,"zip":"46855","miles_from_dt":12.05},{"city":"Fort Wayne","state_name":"Indiana","lat":41.06897,"lng":-85.16786,"zip":"46862","miles_from_dt":12.06},{"city":"Fort Wayne","state_name":"Indiana","lat":41.06924,"lng":-85.16703,"zip":"46863","miles_from_dt":12.1},{"city":"Fort Wayne","state_name":"Indiana","lat":41.06907,"lng":-85.16586,"zip":"46867","miles_from_dt":12.12},{"city":"Fort Wayne","state_name":"Indiana","lat":41.06787,"lng":-85.16299,"zip":"46802","miles_from_dt":12.12},{"city":"Fort Wayne","state_name":"Indiana","lat":41.06987,"lng":-85.16665,"zip":"46868","miles_from_dt":12.15},{"city":"Fort Wayne","state_name":"Indiana","lat":41.06925,"lng":-85.16335,"zip":"46861","miles_from_dt":12.19},{"city":"Fort Wayne","state_name":"Indiana","lat":41.06922,"lng":-85.16147,"zip":"46897","miles_from_dt":12.24},{"city":"Fort Wayne","state_name":"Indiana","lat":41.07089,"lng":-85.16484,"zip":"46859","miles_from_dt":12.25},{"city":"Fort Wayne","state_name":"Indiana","lat":41.07095,"lng":-85.16382,"zip":"46866","miles_from_dt":12.28},{"city":"Fort Wayne","state_name":"Indiana","lat":41.07291,"lng":-85.16652,"zip":"46857","miles_from_dt":12.33},{"city":"Fort Wayne","state_name":"Indiana","lat":41.07114,"lng":-85.16254,"zip":"46860","miles_from_dt":12.33},{"city":"Craigville","state_name":"Indiana","lat":40.79751,"lng":-85.10267,"zip":"46731","miles_from_dt":12.34},{"city":"Fort Wayne","state_name":"Indiana","lat":41.00772,"lng":-85.06932,"zip":"46896","miles_from_dt":12.68},{"city":"Arcola","state_name":"Indiana","lat":41.10371,"lng":-85.29242,"zip":"46704","miles_from_dt":12.98},{"city":"Fort Wayne","state_name":"Indiana","lat":41.04649,"lng":-85.09224,"zip":"46806","miles_from_dt":13.3},{"city":"Fort Wayne","state_name":"Indiana","lat":41.09887,"lng":-85.17619,"zip":"46808","miles_from_dt":13.73},{"city":"Fort Wayne","state_name":"Indiana","lat":41.00396,"lng":-85.04169,"zip":"46816","miles_from_dt":13.83},{"city":"Liberty Center","state_name":"Indiana","lat":40.70984,"lng":-85.29424,"zip":"46766","miles_from_dt":14.24},{"city":"Hoagland","state_name":"Indiana","lat":40.95194,"lng":-85.00887,"zip":"46745","miles_from_dt":14.36},{"city":"Fort Wayne","state_name":"Indiana","lat":41.06972,"lng":-85.08532,"zip":"46803","miles_from_dt":14.68},{"city":"Bluffton","state_name":"Indiana","lat":40.71774,"lng":-85.17319,"zip":"46714","miles_from_dt":14.76},{"city":"Preble","state_name":"Indiana","lat":40.83371,"lng":-85.01418,"zip":"46782","miles_from_dt":15},{"city":"Fort Wayne","state_name":"Indiana","lat":41.09918,"lng":-85.11762,"zip":"46805","miles_from_dt":15.21},{"city":"Fort Wayne","state_name":"Indiana","lat":41.1048,"lng":-85.11692,"zip":"46895","miles_from_dt":15.55},{"city":"Fort Wayne","state_name":"Indiana","lat":41.14698,"lng":-85.25111,"zip":"46818","miles_from_dt":16.01},{"city":"Fort Wayne","state_name":"Indiana","lat":41.1034,"lng":-85.05913,"zip":"46815","miles_from_dt":17.31},{"city":"Bippus","state_name":"Indiana","lat":40.94341,"lng":-85.61975,"zip":"46713","miles_from_dt":17.92},{"city":"Warren","state_name":"Indiana","lat":40.68472,"lng":-85.43798,"zip":"46792","miles_from_dt":17.99},{"city":"Fort Wayne","state_name":"Indiana","lat":41.15397,"lng":-85.12425,"zip":"46825","miles_from_dt":18.31},{"city":"Decatur","state_name":"Indiana","lat":40.83033,"lng":-84.94023,"zip":"46733","miles_from_dt":18.71},{"city":"Andrews","state_name":"Indiana","lat":40.82681,"lng":-85.61732,"zip":"46702","miles_from_dt":18.75},{"city":"Columbia City","state_name":"Indiana","lat":41.1518,"lng":-85.47655,"zip":"46725","miles_from_dt":19.27},{"city":"Poneto","state_name":"Indiana","lat":40.63659,"lng":-85.27339,"zip":"46781","miles_from_dt":19.28},{"city":"Fort Wayne","state_name":"Indiana","lat":41.149,"lng":-85.07375,"zip":"46854","miles_from_dt":19.34},{"city":"Fort Wayne","state_name":"Indiana","lat":41.19754,"lng":-85.3053,"zip":"46898","miles_from_dt":19.48},{"city":"Fort Wayne","state_name":"Indiana","lat":41.13586,"lng":-85.03368,"zip":"46885","miles_from_dt":19.87},{"city":"New Haven","state_name":"Indiana","lat":41.09103,"lng":-84.96955,"zip":"46774","miles_from_dt":20.2},{"city":"Fort Wayne","state_name":"Indiana","lat":41.15086,"lng":-85.04536,"zip":"46835","miles_from_dt":20.3},{"city":"South Whitley","state_name":"Indiana","lat":41.06598,"lng":-85.62085,"zip":"46787","miles_from_dt":20.65},{"city":"Monroeville","state_name":"Indiana","lat":40.98401,"lng":-84.8759,"zip":"46773","miles_from_dt":21.62},{"city":"Fort Wayne","state_name":"Indiana","lat":41.2051,"lng":-85.10789,"zip":"46845","miles_from_dt":21.87},{"city":"Petroleum","state_name":"Indiana","lat":40.61055,"lng":-85.15491,"zip":"46778","miles_from_dt":22.06},{"city":"Churubusco","state_name":"Indiana","lat":41.23828,"lng":-85.32441,"zip":"46723","miles_from_dt":22.37},{"city":"Keystone","state_name":"Indiana","lat":40.59855,"lng":-85.18299,"zip":"46759","miles_from_dt":22.47},{"city":"Lagro","state_name":"Indiana","lat":40.82833,"lng":-85.69723,"zip":"46941","miles_from_dt":22.71},{"city":"Linn Grove","state_name":"Indiana","lat":40.64445,"lng":-85.03123,"zip":"46769","miles_from_dt":22.81},{"city":"Van Buren","state_name":"Indiana","lat":40.63034,"lng":-85.50642,"zip":"46991","miles_from_dt":23.03},{"city":"Monroe","state_name":"Indiana","lat":40.7221,"lng":-84.91153,"zip":"46772","miles_from_dt":23.46},{"city":"Huntertown","state_name":"Indiana","lat":41.24829,"lng":-85.16727,"zip":"46748","miles_from_dt":23.67},{"city":"Urbana","state_name":"Indiana","lat":40.89851,"lng":-85.73161,"zip":"46990","miles_from_dt":23.71},{"city":"Servia","state_name":"Indiana","lat":40.95598,"lng":-85.74155,"zip":"46980","miles_from_dt":24.35},{"city":"Pleasant Mills","state_name":"Indiana","lat":40.77402,"lng":-84.84163,"zip":"46780","miles_from_dt":24.93},{"city":"Liberty Mills","state_name":"Indiana","lat":41.03932,"lng":-85.73019,"zip":"46946","miles_from_dt":25.07},{"city":"Montpelier","state_name":"Indiana","lat":40.55203,"lng":-85.28642,"zip":"47359","miles_from_dt":25.11},{"city":"Leo","state_name":"Indiana","lat":41.23361,"lng":-85.04047,"zip":"46765","miles_from_dt":25.22},{"city":"Berne","state_name":"Indiana","lat":40.6635,"lng":-84.92398,"zip":"46711","miles_from_dt":25.5},{"city":"North Manchester","state_name":"Indiana","lat":40.98774,"lng":-85.76675,"zip":"46962","miles_from_dt":25.98},{"city":"Laotto","state_name":"Indiana","lat":41.29418,"lng":-85.2415,"zip":"46763","miles_from_dt":26.18},{"city":"Woodburn","state_name":"Indiana","lat":41.12749,"lng":-84.86046,"zip":"46797","miles_from_dt":26.31},{"city":"Grabill","state_name":"Indiana","lat":41.21161,"lng":-84.95176,"zip":"46741","miles_from_dt":26.62},{"city":"La Fontaine","state_name":"Indiana","lat":40.6882,"lng":-85.69857,"zip":"46940","miles_from_dt":27.03},{"city":"Geneva","state_name":"Indiana","lat":40.60298,"lng":-84.9638,"zip":"46740","miles_from_dt":27.21},{"city":"Larwill","state_name":"Indiana","lat":41.2176,"lng":-85.62376,"zip":"46764","miles_from_dt":27.52},{"city":"Wren","state_name":"Ohio","lat":40.80088,"lng":-84.77491,"zip":"45899","miles_from_dt":27.59},{"city":"Convoy","state_name":"Ohio","lat":40.92779,"lng":-84.7336,"zip":"45832","miles_from_dt":28.57},{"city":"Marion","state_name":"Indiana","lat":40.59882,"lng":-85.63249,"zip":"46952","miles_from_dt":28.68},{"city":"Garrett","state_name":"Indiana","lat":41.32189,"lng":-85.13731,"zip":"46738","miles_from_dt":28.98},{"city":"Pennville","state_name":"Indiana","lat":40.50714,"lng":-85.14715,"zip":"47369","miles_from_dt":29.05},{"city":"Laketon","state_name":"Indiana","lat":40.9735,"lng":-85.84038,"zip":"46943","miles_from_dt":29.63},{"city":"Willshire","state_name":"Ohio","lat":40.73617,"lng":-84.76429,"zip":"45898","miles_from_dt":29.7},{"city":"Pierceton","state_name":"Indiana","lat":41.20947,"lng":-85.69757,"zip":"46562","miles_from_dt":29.8}],"targetCityZipCode":"46799","targetCityState":"Indiana"},"__N_SSG":true}