{"pageProps":{"stateName":"Vermont","cityName":"waitsfield","nearbyCities":[{"city":"Moretown","state_name":"Vermont","lat":44.24733,"lng":-72.76808,"zip":"05660","miles_from_dt":5.27},{"city":"Warren","state_name":"Vermont","lat":44.11112,"lng":-72.86081,"zip":"05674","miles_from_dt":5.77},{"city":"Starksboro","state_name":"Vermont","lat":44.23082,"lng":-73.01096,"zip":"05487","miles_from_dt":8.7},{"city":"Northfield","state_name":"Vermont","lat":44.14946,"lng":-72.67239,"zip":"05663","miles_from_dt":9.04},{"city":"Huntington","state_name":"Vermont","lat":44.29909,"lng":-72.95228,"zip":"05462","miles_from_dt":9.06},{"city":"Northfield Falls","state_name":"Vermont","lat":44.16718,"lng":-72.65316,"zip":"05664","miles_from_dt":9.64},{"city":"Bristol","state_name":"Vermont","lat":44.12976,"lng":-73.03347,"zip":"05443","miles_from_dt":10.42},{"city":"Roxbury","state_name":"Vermont","lat":44.05325,"lng":-72.75155,"zip":"05669","miles_from_dt":10.72},{"city":"Waterbury","state_name":"Vermont","lat":44.34825,"lng":-72.80984,"zip":"05676","miles_from_dt":10.8},{"city":"Waterbury","state_name":"Vermont","lat":44.34129,"lng":-72.75854,"zip":"05671","miles_from_dt":11.03},{"city":"Montpelier","state_name":"Vermont","lat":44.2848,"lng":-72.61498,"zip":"05602","miles_from_dt":12.97},{"city":"Granville","state_name":"Vermont","lat":44.00354,"lng":-72.85494,"zip":"05747","miles_from_dt":13.14},{"city":"Montpelier","state_name":"Vermont","lat":44.25706,"lng":-72.58779,"zip":"05604","miles_from_dt":13.43},{"city":"Montpelier","state_name":"Vermont","lat":44.28742,"lng":-72.60006,"zip":"05609","miles_from_dt":13.71},{"city":"Montpelier","state_name":"Vermont","lat":44.26213,"lng":-72.58436,"zip":"05603","miles_from_dt":13.71},{"city":"Montpelier","state_name":"Vermont","lat":44.26268,"lng":-72.58391,"zip":"05620","miles_from_dt":13.74},{"city":"Montpelier","state_name":"Vermont","lat":44.25908,"lng":-72.58055,"zip":"05633","miles_from_dt":13.82},{"city":"Montpelier","state_name":"Vermont","lat":44.20424,"lng":-72.5551,"zip":"05601","miles_from_dt":14.35},{"city":"Monkton","state_name":"Vermont","lat":44.25395,"lng":-73.12095,"zip":"05469","miles_from_dt":14.39},{"city":"Hinesburg","state_name":"Vermont","lat":44.32094,"lng":-73.09176,"zip":"05461","miles_from_dt":15.13},{"city":"Waterbury Center","state_name":"Vermont","lat":44.39194,"lng":-72.70841,"zip":"05677","miles_from_dt":15.24},{"city":"Richmond","state_name":"Vermont","lat":44.3936,"lng":-72.99152,"zip":"05477","miles_from_dt":15.63},{"city":"Ripton","state_name":"Vermont","lat":43.98833,"lng":-72.99072,"zip":"05766","miles_from_dt":15.96},{"city":"Williamstown","state_name":"Vermont","lat":44.10677,"lng":-72.54052,"zip":"05679","miles_from_dt":16.22},{"city":"New Haven","state_name":"Vermont","lat":44.11377,"lng":-73.1611,"zip":"05472","miles_from_dt":16.72},{"city":"South Barre","state_name":"Vermont","lat":44.17799,"lng":-72.50558,"zip":"05670","miles_from_dt":16.83},{"city":"Brookfield","state_name":"Vermont","lat":44.026,"lng":-72.57843,"zip":"05036","miles_from_dt":17.55},{"city":"North Ferrisburgh","state_name":"Vermont","lat":44.24119,"lng":-73.19346,"zip":"05473","miles_from_dt":17.68},{"city":"Randolph","state_name":"Vermont","lat":43.96199,"lng":-72.68594,"zip":"05060","miles_from_dt":17.82},{"city":"Moscow","state_name":"Vermont","lat":44.44194,"lng":-72.71724,"zip":"05662","miles_from_dt":18.25},{"city":"East Montpelier","state_name":"Vermont","lat":44.27777,"lng":-72.49246,"zip":"05651","miles_from_dt":18.37},{"city":"Graniteville","state_name":"Vermont","lat":44.14053,"lng":-72.48092,"zip":"05654","miles_from_dt":18.39},{"city":"Websterville","state_name":"Vermont","lat":44.15577,"lng":-72.47445,"zip":"05678","miles_from_dt":18.53},{"city":"Jericho","state_name":"Vermont","lat":44.45882,"lng":-72.93058,"zip":"05465","miles_from_dt":18.81},{"city":"Hancock","state_name":"Vermont","lat":43.92004,"lng":-72.91064,"zip":"05748","miles_from_dt":19.19},{"city":"Barre","state_name":"Vermont","lat":44.18602,"lng":-72.45108,"zip":"05641","miles_from_dt":19.51},{"city":"Worcester","state_name":"Vermont","lat":44.40354,"lng":-72.57219,"zip":"05682","miles_from_dt":19.77},{"city":"East Middlebury","state_name":"Vermont","lat":43.97299,"lng":-73.10273,"zip":"05740","miles_from_dt":19.96},{"city":"Adamant","state_name":"Vermont","lat":44.34734,"lng":-72.49675,"zip":"05640","miles_from_dt":20.21},{"city":"Williston","state_name":"Vermont","lat":44.42901,"lng":-73.09197,"zip":"05495","miles_from_dt":20.39},{"city":"Ferrisburgh","state_name":"Vermont","lat":44.20776,"lng":-73.25796,"zip":"05456","miles_from_dt":20.61},{"city":"Stowe","state_name":"Vermont","lat":44.48151,"lng":-72.72174,"zip":"05672","miles_from_dt":20.77},{"city":"Charlotte","state_name":"Vermont","lat":44.30896,"lng":-73.23593,"zip":"05445","miles_from_dt":21.04},{"city":"Middlebury","state_name":"Vermont","lat":43.9991,"lng":-73.17403,"zip":"05753","miles_from_dt":21.23},{"city":"East Randolph","state_name":"Vermont","lat":43.96702,"lng":-72.54264,"zip":"05041","miles_from_dt":21.66},{"city":"Calais","state_name":"Vermont","lat":44.38372,"lng":-72.49355,"zip":"05648","miles_from_dt":21.76},{"city":"Rochester","state_name":"Vermont","lat":43.87513,"lng":-72.82878,"zip":"05767","miles_from_dt":22.01},{"city":"Randolph Center","state_name":"Vermont","lat":43.93023,"lng":-72.58087,"zip":"05061","miles_from_dt":22.4},{"city":"North Montpelier","state_name":"Vermont","lat":44.34125,"lng":-72.43873,"zip":"05666","miles_from_dt":22.52},{"city":"Washington","state_name":"Vermont","lat":44.07386,"lng":-72.41821,"zip":"05675","miles_from_dt":22.71},{"city":"Plainfield","state_name":"Vermont","lat":44.28122,"lng":-72.3986,"zip":"05667","miles_from_dt":22.9},{"city":"Underhill Center","state_name":"Vermont","lat":44.52797,"lng":-72.89695,"zip":"05490","miles_from_dt":23.23},{"city":"Salisbury","state_name":"Vermont","lat":43.91948,"lng":-73.11651,"zip":"05769","miles_from_dt":23.31},{"city":"Chelsea","state_name":"Vermont","lat":43.99313,"lng":-72.45859,"zip":"05038","miles_from_dt":23.64},{"city":"Essex Junction","state_name":"Vermont","lat":44.4929,"lng":-73.08159,"zip":"05453","miles_from_dt":23.79},{"city":"South Burlington","state_name":"Vermont","lat":44.447,"lng":-73.17229,"zip":"05403","miles_from_dt":23.9},{"city":"Shelburne","state_name":"Vermont","lat":44.39057,"lng":-73.24134,"zip":"05482","miles_from_dt":23.96},{"city":"South Burlington","state_name":"Vermont","lat":44.44635,"lng":-73.17568,"zip":"05407","miles_from_dt":23.99},{"city":"East Barre","state_name":"Vermont","lat":44.14004,"lng":-72.36589,"zip":"05649","miles_from_dt":24.03},{"city":"Vergennes","state_name":"Vermont","lat":44.12101,"lng":-73.32111,"zip":"05491","miles_from_dt":24.26},{"city":"Essex","state_name":"Vermont","lat":44.5075,"lng":-73.06948,"zip":"05451","miles_from_dt":24.39},{"city":"Underhill","state_name":"Vermont","lat":44.5458,"lng":-72.89471,"zip":"05489","miles_from_dt":24.44},{"city":"East Calais","state_name":"Vermont","lat":44.4002,"lng":-72.44235,"zip":"05650","miles_from_dt":24.48},{"city":"Essex Junction","state_name":"Vermont","lat":44.5238,"lng":-73.06479,"zip":"05452","miles_from_dt":25.29},{"city":"Burlington","state_name":"Vermont","lat":44.5057,"lng":-73.12665,"zip":"05402","miles_from_dt":25.71},{"city":"Burlington","state_name":"Vermont","lat":44.47475,"lng":-73.19649,"zip":"05405","miles_from_dt":26.12},{"city":"Morrisville","state_name":"Vermont","lat":44.53743,"lng":-72.61724,"zip":"05661","miles_from_dt":26.25},{"city":"Colchester","state_name":"Vermont","lat":44.49573,"lng":-73.16524,"zip":"05439","miles_from_dt":26.25},{"city":"Winooski","state_name":"Vermont","lat":44.49483,"lng":-73.18467,"zip":"05404","miles_from_dt":26.79},{"city":"Marshfield","state_name":"Vermont","lat":44.35921,"lng":-72.35399,"zip":"05658","miles_from_dt":26.84},{"city":"Burlington","state_name":"Vermont","lat":44.47484,"lng":-73.21758,"zip":"05401","miles_from_dt":26.84},{"city":"Forest Dale","state_name":"Vermont","lat":43.82952,"lng":-73.05453,"zip":"05745","miles_from_dt":27.25},{"city":"Tunbridge","state_name":"Vermont","lat":43.89961,"lng":-72.47789,"zip":"05077","miles_from_dt":27.27},{"city":"West Topsham","state_name":"Vermont","lat":44.1182,"lng":-72.30249,"zip":"05086","miles_from_dt":27.4},{"city":"Pittsfield","state_name":"Vermont","lat":43.79246,"lng":-72.8291,"zip":"05762","miles_from_dt":27.71},{"city":"Burlington","state_name":"Vermont","lat":44.48717,"lng":-73.22627,"zip":"05406","miles_from_dt":27.75},{"city":"Essex","state_name":"New York","lat":44.26869,"lng":-73.4029,"zip":"12936","miles_from_dt":28.25},{"city":"Bridport","state_name":"Vermont","lat":43.98243,"lng":-73.33286,"zip":"05734","miles_from_dt":28.38},{"city":"Colchester","state_name":"Vermont","lat":44.54505,"lng":-73.14596,"zip":"05449","miles_from_dt":28.51},{"city":"Bethel","state_name":"Vermont","lat":43.80193,"lng":-72.65708,"zip":"05032","miles_from_dt":28.6},{"city":"Brandon","state_name":"Vermont","lat":43.81746,"lng":-73.09216,"zip":"05733","miles_from_dt":28.78},{"city":"Whiting","state_name":"Vermont","lat":43.87279,"lng":-73.21228,"zip":"05778","miles_from_dt":28.78},{"city":"Lake Elmore","state_name":"Vermont","lat":44.54436,"lng":-72.52862,"zip":"05657","miles_from_dt":28.8},{"city":"Woodbury","state_name":"Vermont","lat":44.45377,"lng":-72.38016,"zip":"05681","miles_from_dt":29.15},{"city":"Corinth","state_name":"Vermont","lat":44.03407,"lng":-72.2975,"zip":"05039","miles_from_dt":29.31},{"city":"Burlington","state_name":"Vermont","lat":44.48969,"lng":-73.27139,"zip":"05408","miles_from_dt":29.45},{"city":"Chittenden","state_name":"Vermont","lat":43.76778,"lng":-72.90434,"zip":"05737","miles_from_dt":29.56},{"city":"Westford","state_name":"Vermont","lat":44.60472,"lng":-73.01523,"zip":"05494","miles_from_dt":29.62},{"city":"Groton","state_name":"Vermont","lat":44.23864,"lng":-72.25024,"zip":"05046","miles_from_dt":29.63},{"city":"Cambridge","state_name":"Vermont","lat":44.62628,"lng":-72.88242,"zip":"05444","miles_from_dt":29.93}],"targetCityZipCode":"05673","targetCityState":"Vermont"},"__N_SSG":true}