{"pageProps":{"stateName":"New-hampshire","cityName":"bradford","nearbyCities":[{"city":"South Newbury","state_name":"New Hampshire","lat":43.29639,"lng":-71.99564,"zip":"03272","miles_from_dt":3.35},{"city":"South Sutton","state_name":"New Hampshire","lat":43.30337,"lng":-71.92413,"zip":"03273","miles_from_dt":3.84},{"city":"Newbury","state_name":"New Hampshire","lat":43.3149,"lng":-72.02795,"zip":"03255","miles_from_dt":5.34},{"city":"Warner","state_name":"New Hampshire","lat":43.29313,"lng":-71.82934,"zip":"03278","miles_from_dt":7.16},{"city":"North Sutton","state_name":"New Hampshire","lat":43.36016,"lng":-71.92457,"zip":"03260","miles_from_dt":7.5},{"city":"Goshen","state_name":"New Hampshire","lat":43.28909,"lng":-72.11489,"zip":"03752","miles_from_dt":8.1},{"city":"Washington","state_name":"New Hampshire","lat":43.18339,"lng":-72.08979,"zip":"03280","miles_from_dt":8.15},{"city":"Henniker","state_name":"New Hampshire","lat":43.17365,"lng":-71.8224,"zip":"03242","miles_from_dt":8.97},{"city":"Hillsborough","state_name":"New Hampshire","lat":43.11822,"lng":-71.9192,"zip":"03244","miles_from_dt":9.67},{"city":"Lempster","state_name":"New Hampshire","lat":43.22815,"lng":-72.18032,"zip":"03605","miles_from_dt":11.21},{"city":"New London","state_name":"New Hampshire","lat":43.41768,"lng":-71.99101,"zip":"03257","miles_from_dt":11.34},{"city":"Sunapee","state_name":"New Hampshire","lat":43.38962,"lng":-72.09149,"zip":"03782","miles_from_dt":11.39},{"city":"Elkins","state_name":"New Hampshire","lat":43.42325,"lng":-71.93322,"zip":"03233","miles_from_dt":11.71},{"city":"Guild","state_name":"New Hampshire","lat":43.37638,"lng":-72.13297,"zip":"03754","miles_from_dt":12.06},{"city":"Antrim","state_name":"New Hampshire","lat":43.06023,"lng":-71.97446,"zip":"03440","miles_from_dt":13.45},{"city":"Salisbury","state_name":"New Hampshire","lat":43.38505,"lng":-71.7574,"zip":"03268","miles_from_dt":13.65},{"city":"Wilmot","state_name":"New Hampshire","lat":43.45168,"lng":-71.91795,"zip":"03287","miles_from_dt":13.76},{"city":"Contoocook","state_name":"New Hampshire","lat":43.19792,"lng":-71.69677,"zip":"03229","miles_from_dt":13.92},{"city":"Stoddard","state_name":"New Hampshire","lat":43.08256,"lng":-72.11085,"zip":"03464","miles_from_dt":14.09},{"city":"Georges Mills","state_name":"New Hampshire","lat":43.44363,"lng":-72.08394,"zip":"03751","miles_from_dt":14.43},{"city":"Concord","state_name":"New Hampshire","lat":43.29819,"lng":-71.67186,"zip":"03303","miles_from_dt":14.9},{"city":"Newport","state_name":"New Hampshire","lat":43.38484,"lng":-72.19898,"zip":"03773","miles_from_dt":14.97},{"city":"Marlow","state_name":"New Hampshire","lat":43.13092,"lng":-72.21505,"zip":"03456","miles_from_dt":15.41},{"city":"South Acworth","state_name":"New Hampshire","lat":43.19698,"lng":-72.26084,"zip":"03607","miles_from_dt":15.64},{"city":"Andover","state_name":"New Hampshire","lat":43.44656,"lng":-71.79374,"zip":"03216","miles_from_dt":15.7},{"city":"Springfield","state_name":"New Hampshire","lat":43.49361,"lng":-72.03057,"zip":"03284","miles_from_dt":16.85},{"city":"Bennington","state_name":"New Hampshire","lat":43.01268,"lng":-71.90781,"zip":"03442","miles_from_dt":16.93},{"city":"Weare","state_name":"New Hampshire","lat":43.08126,"lng":-71.72189,"zip":"03281","miles_from_dt":17.02},{"city":"Acworth","state_name":"New Hampshire","lat":43.23933,"lng":-72.29855,"zip":"03601","miles_from_dt":17.06},{"city":"East Andover","state_name":"New Hampshire","lat":43.45555,"lng":-71.75551,"zip":"03231","miles_from_dt":17.3},{"city":"Hancock","state_name":"New Hampshire","lat":42.98222,"lng":-72.00037,"zip":"03449","miles_from_dt":18.92},{"city":"Francestown","state_name":"New Hampshire","lat":42.99581,"lng":-71.81514,"zip":"03043","miles_from_dt":19.35},{"city":"Nelson","state_name":"New Hampshire","lat":43.00282,"lng":-72.12933,"zip":"03457","miles_from_dt":19.36},{"city":"Danbury","state_name":"New Hampshire","lat":43.52685,"lng":-71.8622,"zip":"03230","miles_from_dt":19.43},{"city":"Claremont","state_name":"New Hampshire","lat":43.36026,"lng":-72.32489,"zip":"03743","miles_from_dt":19.73},{"city":"Franklin","state_name":"New Hampshire","lat":43.44831,"lng":-71.67208,"zip":"03235","miles_from_dt":19.76},{"city":"Alstead","state_name":"New Hampshire","lat":43.13751,"lng":-72.32938,"zip":"03602","miles_from_dt":20.28},{"city":"Grantham","state_name":"New Hampshire","lat":43.51534,"lng":-72.14798,"zip":"03753","miles_from_dt":20.29},{"city":"Concord","state_name":"New Hampshire","lat":43.23387,"lng":-71.55967,"zip":"03302","miles_from_dt":20.32},{"city":"Dunbarton","state_name":"New Hampshire","lat":43.10178,"lng":-71.60548,"zip":"03046","miles_from_dt":20.85},{"city":"Sullivan","state_name":"New Hampshire","lat":43.01555,"lng":-72.2137,"zip":"03445","miles_from_dt":20.87},{"city":"Charlestown","state_name":"New Hampshire","lat":43.25339,"lng":-72.38059,"zip":"03603","miles_from_dt":21.16},{"city":"Concord","state_name":"New Hampshire","lat":43.22423,"lng":-71.54342,"zip":"03301","miles_from_dt":21.19},{"city":"Hill","state_name":"New Hampshire","lat":43.5276,"lng":-71.7644,"zip":"03243","miles_from_dt":21.28},{"city":"Gilsum","state_name":"New Hampshire","lat":43.03996,"lng":-72.26448,"zip":"03448","miles_from_dt":21.33},{"city":"Concord","state_name":"New Hampshire","lat":43.20612,"lng":-71.53906,"zip":"03305","miles_from_dt":21.57},{"city":"Canterbury","state_name":"New Hampshire","lat":43.35171,"lng":-71.54691,"zip":"03224","miles_from_dt":21.93},{"city":"Grafton","state_name":"New Hampshire","lat":43.57599,"lng":-71.97221,"zip":"03240","miles_from_dt":22.18},{"city":"Greenfield","state_name":"New Hampshire","lat":42.94029,"lng":-71.87053,"zip":"03047","miles_from_dt":22.19},{"city":"Harrisville","state_name":"New Hampshire","lat":42.94157,"lng":-72.09107,"zip":"03450","miles_from_dt":22.6},{"city":"Tilton","state_name":"New Hampshire","lat":43.42783,"lng":-71.57514,"zip":"03276","miles_from_dt":22.83},{"city":"Cornish Flat","state_name":"New Hampshire","lat":43.49657,"lng":-72.27997,"zip":"03746","miles_from_dt":23.16},{"city":"Drewsville","state_name":"New Hampshire","lat":43.13232,"lng":-72.38984,"zip":"03604","miles_from_dt":23.24},{"city":"Bow","state_name":"New Hampshire","lat":43.13078,"lng":-71.53066,"zip":"03304","miles_from_dt":23.37},{"city":"Cornish","state_name":"New Hampshire","lat":43.47407,"lng":-72.32001,"zip":"03745","miles_from_dt":23.57},{"city":"New Boston","state_name":"New Hampshire","lat":42.97702,"lng":-71.68664,"zip":"03070","miles_from_dt":23.68},{"city":"Enfield Center","state_name":"New Hampshire","lat":43.58921,"lng":-72.11043,"zip":"03749","miles_from_dt":24.27},{"city":"Meriden","state_name":"New Hampshire","lat":43.5336,"lng":-72.26469,"zip":"03770","miles_from_dt":24.57},{"city":"Ascutney","state_name":"Vermont","lat":43.39989,"lng":-72.40981,"zip":"05030","miles_from_dt":24.73},{"city":"Enfield","state_name":"New Hampshire","lat":43.60207,"lng":-72.11713,"zip":"03748","miles_from_dt":25.22},{"city":"Dublin","state_name":"New Hampshire","lat":42.89403,"lng":-72.07178,"zip":"03444","miles_from_dt":25.53},{"city":"Goffstown","state_name":"New Hampshire","lat":43.01994,"lng":-71.57035,"zip":"03045","miles_from_dt":25.56},{"city":"North Walpole","state_name":"New Hampshire","lat":43.1441,"lng":-72.44512,"zip":"03609","miles_from_dt":25.61},{"city":"Walpole","state_name":"New Hampshire","lat":43.07128,"lng":-72.40604,"zip":"03608","miles_from_dt":25.8},{"city":"Springfield","state_name":"Vermont","lat":43.30719,"lng":-72.46928,"zip":"05156","miles_from_dt":25.88},{"city":"Lochmere","state_name":"New Hampshire","lat":43.47134,"lng":-71.53854,"zip":"03252","miles_from_dt":26.01},{"city":"Lyndeborough","state_name":"New Hampshire","lat":42.90197,"lng":-71.77545,"zip":"03082","miles_from_dt":26.11},{"city":"Keene","state_name":"New Hampshire","lat":42.96785,"lng":-72.29862,"zip":"03431","miles_from_dt":26.15},{"city":"Plainfield","state_name":"New Hampshire","lat":43.5526,"lng":-72.28399,"zip":"03781","miles_from_dt":26.2},{"city":"Sanbornton","state_name":"New Hampshire","lat":43.53,"lng":-71.60219,"zip":"03269","miles_from_dt":26.22},{"city":"West Peterborough","state_name":"New Hampshire","lat":42.87174,"lng":-71.96971,"zip":"03468","miles_from_dt":26.45},{"city":"Loudon","state_name":"New Hampshire","lat":43.32257,"lng":-71.44265,"zip":"03307","miles_from_dt":26.57},{"city":"Peterborough","state_name":"New Hampshire","lat":42.86906,"lng":-71.93797,"zip":"03458","miles_from_dt":26.66},{"city":"Bellows Falls","state_name":"Vermont","lat":43.1783,"lng":-72.48333,"zip":"05101","miles_from_dt":26.88},{"city":"Westminster Station","state_name":"Vermont","lat":43.08598,"lng":-72.44073,"zip":"05159","miles_from_dt":26.89},{"city":"Marlborough","state_name":"New Hampshire","lat":42.89816,"lng":-72.18308,"zip":"03455","miles_from_dt":27.06},{"city":"Winnisquam","state_name":"New Hampshire","lat":43.48801,"lng":-71.52721,"zip":"03289","miles_from_dt":27.15},{"city":"Bristol","state_name":"New Hampshire","lat":43.62895,"lng":-71.78234,"zip":"03222","miles_from_dt":27.35},{"city":"Keene","state_name":"New Hampshire","lat":42.92567,"lng":-72.27635,"zip":"03435","miles_from_dt":27.76},{"city":"Westminster","state_name":"Vermont","lat":43.10299,"lng":-72.47296,"zip":"05158","miles_from_dt":27.9},{"city":"Mont Vernon","state_name":"New Hampshire","lat":42.90265,"lng":-71.6861,"zip":"03057","miles_from_dt":28.01},{"city":"Suncook","state_name":"New Hampshire","lat":43.15999,"lng":-71.41794,"zip":"03275","miles_from_dt":28.2},{"city":"Chichester","state_name":"New Hampshire","lat":43.25744,"lng":-71.39956,"zip":"03258","miles_from_dt":28.34},{"city":"Belmont","state_name":"New Hampshire","lat":43.46793,"lng":-71.4758,"zip":"03220","miles_from_dt":28.54},{"city":"Perkinsville","state_name":"Vermont","lat":43.39374,"lng":-72.49566,"zip":"05151","miles_from_dt":28.59},{"city":"Canaan","state_name":"New Hampshire","lat":43.67134,"lng":-72.01559,"zip":"03741","miles_from_dt":28.88},{"city":"North Springfield","state_name":"Vermont","lat":43.33653,"lng":-72.52727,"zip":"05150","miles_from_dt":29.09},{"city":"Manchester","state_name":"New Hampshire","lat":43.00797,"lng":-71.49134,"zip":"03102","miles_from_dt":29.24},{"city":"Hooksett","state_name":"New Hampshire","lat":43.07097,"lng":-71.43651,"zip":"03106","miles_from_dt":29.4},{"city":"Lebanon","state_name":"New Hampshire","lat":43.63491,"lng":-72.23819,"zip":"03766","miles_from_dt":29.71},{"city":"Jaffrey","state_name":"New Hampshire","lat":42.82922,"lng":-72.05962,"zip":"03452","miles_from_dt":29.8},{"city":"Windsor","state_name":"Vermont","lat":43.49686,"lng":-72.4515,"zip":"05089","miles_from_dt":29.81},{"city":"Brownsville","state_name":"Vermont","lat":43.46033,"lng":-72.48371,"zip":"05037","miles_from_dt":29.9},{"city":"Temple","state_name":"New Hampshire","lat":42.82856,"lng":-71.85495,"zip":"03084","miles_from_dt":29.91}],"targetCityZipCode":"03221","targetCityState":"New Hampshire"},"__N_SSG":true}