{"pageProps":{"stateName":"New-hampshire","cityName":"bristol","nearbyCities":[{"city":"Hebron","state_name":"New Hampshire","lat":43.71149,"lng":-71.81915,"zip":"03241","miles_from_dt":5.99},{"city":"Hill","state_name":"New Hampshire","lat":43.5276,"lng":-71.7644,"zip":"03243","miles_from_dt":7.05},{"city":"New Hampton","state_name":"New Hampshire","lat":43.62425,"lng":-71.63514,"zip":"03256","miles_from_dt":7.39},{"city":"Plymouth","state_name":"New Hampshire","lat":43.72967,"lng":-71.71159,"zip":"03264","miles_from_dt":7.81},{"city":"Danbury","state_name":"New Hampshire","lat":43.52685,"lng":-71.8622,"zip":"03230","miles_from_dt":8.11},{"city":"Ashland","state_name":"New Hampshire","lat":43.71492,"lng":-71.63033,"zip":"03217","miles_from_dt":9.66},{"city":"Grafton","state_name":"New Hampshire","lat":43.57599,"lng":-71.97221,"zip":"03240","miles_from_dt":10.2},{"city":"Sanbornton","state_name":"New Hampshire","lat":43.53,"lng":-71.60219,"zip":"03269","miles_from_dt":11.33},{"city":"East Andover","state_name":"New Hampshire","lat":43.45555,"lng":-71.75551,"zip":"03231","miles_from_dt":12.05},{"city":"Canaan","state_name":"New Hampshire","lat":43.67134,"lng":-72.01559,"zip":"03741","miles_from_dt":12.05},{"city":"Tilton","state_name":"New Hampshire","lat":43.63486,"lng":-71.53151,"zip":"03298","miles_from_dt":12.58},{"city":"Andover","state_name":"New Hampshire","lat":43.44656,"lng":-71.79374,"zip":"03216","miles_from_dt":12.6},{"city":"Rumney","state_name":"New Hampshire","lat":43.79407,"lng":-71.89035,"zip":"03266","miles_from_dt":12.62},{"city":"Holderness","state_name":"New Hampshire","lat":43.75026,"lng":-71.58852,"zip":"03245","miles_from_dt":12.82},{"city":"Tilton","state_name":"New Hampshire","lat":43.63945,"lng":-71.52626,"zip":"03299","miles_from_dt":12.86},{"city":"Franklin","state_name":"New Hampshire","lat":43.44831,"lng":-71.67208,"zip":"03235","miles_from_dt":13.64},{"city":"Wilmot","state_name":"New Hampshire","lat":43.45168,"lng":-71.91795,"zip":"03287","miles_from_dt":14.01},{"city":"Meredith","state_name":"New Hampshire","lat":43.63193,"lng":-71.49749,"zip":"03253","miles_from_dt":14.29},{"city":"Center Harbor","state_name":"New Hampshire","lat":43.70259,"lng":-71.51086,"zip":"03226","miles_from_dt":14.52},{"city":"Springfield","state_name":"New Hampshire","lat":43.49361,"lng":-72.03057,"zip":"03284","miles_from_dt":15.58},{"city":"Laconia","state_name":"New Hampshire","lat":43.57239,"lng":-71.4775,"zip":"03246","miles_from_dt":15.78},{"city":"Campton","state_name":"New Hampshire","lat":43.84784,"lng":-71.67597,"zip":"03223","miles_from_dt":16.02},{"city":"Winnisquam","state_name":"New Hampshire","lat":43.48801,"lng":-71.52721,"zip":"03289","miles_from_dt":16.09},{"city":"Elkins","state_name":"New Hampshire","lat":43.42325,"lng":-71.93322,"zip":"03233","miles_from_dt":16.1},{"city":"Lochmere","state_name":"New Hampshire","lat":43.47134,"lng":-71.53854,"zip":"03252","miles_from_dt":16.38},{"city":"Enfield Center","state_name":"New Hampshire","lat":43.58921,"lng":-72.11043,"zip":"03749","miles_from_dt":16.69},{"city":"Salisbury","state_name":"New Hampshire","lat":43.38505,"lng":-71.7574,"zip":"03268","miles_from_dt":16.88},{"city":"Enfield","state_name":"New Hampshire","lat":43.60207,"lng":-72.11713,"zip":"03748","miles_from_dt":16.89},{"city":"Tilton","state_name":"New Hampshire","lat":43.42783,"lng":-71.57514,"zip":"03276","miles_from_dt":17.35},{"city":"Wentworth","state_name":"New Hampshire","lat":43.86006,"lng":-71.9295,"zip":"03282","miles_from_dt":17.57},{"city":"New London","state_name":"New Hampshire","lat":43.41768,"lng":-71.99101,"zip":"03257","miles_from_dt":17.96},{"city":"Lyme Center","state_name":"New Hampshire","lat":43.79468,"lng":-72.06561,"zip":"03769","miles_from_dt":18.22},{"city":"Belmont","state_name":"New Hampshire","lat":43.46793,"lng":-71.4758,"zip":"03220","miles_from_dt":18.99},{"city":"Laconia","state_name":"New Hampshire","lat":43.5475,"lng":-71.40722,"zip":"03247","miles_from_dt":19.65},{"city":"Georges Mills","state_name":"New Hampshire","lat":43.44363,"lng":-72.08394,"zip":"03751","miles_from_dt":19.83},{"city":"North Sutton","state_name":"New Hampshire","lat":43.36016,"lng":-71.92457,"zip":"03260","miles_from_dt":19.89},{"city":"Grantham","state_name":"New Hampshire","lat":43.51534,"lng":-72.14798,"zip":"03753","miles_from_dt":19.96},{"city":"Gilford","state_name":"New Hampshire","lat":43.55806,"lng":-71.38505,"zip":"03249","miles_from_dt":20.53},{"city":"Lyme","state_name":"New Hampshire","lat":43.80529,"lng":-72.11573,"zip":"03768","miles_from_dt":20.66},{"city":"Center Sandwich","state_name":"New Hampshire","lat":43.81419,"lng":-71.45712,"zip":"03227","miles_from_dt":20.71},{"city":"Etna","state_name":"New Hampshire","lat":43.70681,"lng":-72.19308,"zip":"03750","miles_from_dt":21.27},{"city":"Moultonborough","state_name":"New Hampshire","lat":43.72505,"lng":-71.37782,"zip":"03254","miles_from_dt":21.33},{"city":"Thornton","state_name":"New Hampshire","lat":43.92408,"lng":-71.64359,"zip":"03285","miles_from_dt":21.53},{"city":"Hanover","state_name":"New Hampshire","lat":43.72377,"lng":-72.19563,"zip":"03755","miles_from_dt":21.72},{"city":"Warren","state_name":"New Hampshire","lat":43.94468,"lng":-71.88231,"zip":"03279","miles_from_dt":22.36},{"city":"Canterbury","state_name":"New Hampshire","lat":43.35171,"lng":-71.54691,"zip":"03224","miles_from_dt":22.5},{"city":"Sunapee","state_name":"New Hampshire","lat":43.38962,"lng":-72.09149,"zip":"03782","miles_from_dt":22.68},{"city":"Lebanon","state_name":"New Hampshire","lat":43.63491,"lng":-72.23819,"zip":"03766","miles_from_dt":22.86},{"city":"Orford","state_name":"New Hampshire","lat":43.89548,"lng":-72.06672,"zip":"03777","miles_from_dt":23.26},{"city":"Warner","state_name":"New Hampshire","lat":43.29313,"lng":-71.82934,"zip":"03278","miles_from_dt":23.3},{"city":"Concord","state_name":"New Hampshire","lat":43.29819,"lng":-71.67186,"zip":"03303","miles_from_dt":23.5},{"city":"South Sutton","state_name":"New Hampshire","lat":43.30337,"lng":-71.92413,"zip":"03273","miles_from_dt":23.58},{"city":"Lebanon","state_name":"New Hampshire","lat":43.63701,"lng":-72.25238,"zip":"03756","miles_from_dt":23.58},{"city":"North Sandwich","state_name":"New Hampshire","lat":43.87921,"lng":-71.44527,"zip":"03259","miles_from_dt":24.15},{"city":"Gilmanton","state_name":"New Hampshire","lat":43.42997,"lng":-71.38233,"zip":"03237","miles_from_dt":24.34},{"city":"Mirror Lake","state_name":"New Hampshire","lat":43.63818,"lng":-71.29371,"zip":"03853","miles_from_dt":24.51},{"city":"Woodstock","state_name":"New Hampshire","lat":43.97696,"lng":-71.67721,"zip":"03293","miles_from_dt":24.59},{"city":"Melvin Village","state_name":"New Hampshire","lat":43.69739,"lng":-71.29983,"zip":"03850","miles_from_dt":24.64},{"city":"East Thetford","state_name":"Vermont","lat":43.80658,"lng":-72.21194,"zip":"05043","miles_from_dt":24.76},{"city":"Guild","state_name":"New Hampshire","lat":43.37638,"lng":-72.13297,"zip":"03754","miles_from_dt":24.79},{"city":"Glencliff","state_name":"New Hampshire","lat":43.98168,"lng":-71.88701,"zip":"03238","miles_from_dt":24.91},{"city":"North Thetford","state_name":"Vermont","lat":43.84231,"lng":-72.1838,"zip":"05054","miles_from_dt":24.92},{"city":"Newbury","state_name":"New Hampshire","lat":43.3149,"lng":-72.02795,"zip":"03255","miles_from_dt":24.95},{"city":"Meriden","state_name":"New Hampshire","lat":43.5336,"lng":-72.26469,"zip":"03770","miles_from_dt":25.09},{"city":"South Newbury","state_name":"New Hampshire","lat":43.29639,"lng":-71.99564,"zip":"03272","miles_from_dt":25.34},{"city":"North Woodstock","state_name":"New Hampshire","lat":43.99885,"lng":-71.73813,"zip":"03262","miles_from_dt":25.63},{"city":"Plainfield","state_name":"New Hampshire","lat":43.5526,"lng":-72.28399,"zip":"03781","miles_from_dt":25.72},{"city":"Thetford","state_name":"Vermont","lat":43.81917,"lng":-72.22825,"zip":"05074","miles_from_dt":25.9},{"city":"Alton Bay","state_name":"New Hampshire","lat":43.52692,"lng":-71.27941,"zip":"03810","miles_from_dt":26.21},{"city":"West Lebanon","state_name":"New Hampshire","lat":43.63675,"lng":-72.30608,"zip":"03784","miles_from_dt":26.27},{"city":"Wilder","state_name":"Vermont","lat":43.67332,"lng":-72.30726,"zip":"05088","miles_from_dt":26.49},{"city":"Cornish Flat","state_name":"New Hampshire","lat":43.49657,"lng":-72.27997,"zip":"03746","miles_from_dt":26.6},{"city":"Newport","state_name":"New Hampshire","lat":43.38484,"lng":-72.19898,"zip":"03773","miles_from_dt":26.88},{"city":"Gilmanton Iron Works","state_name":"New Hampshire","lat":43.42271,"lng":-71.32766,"zip":"03837","miles_from_dt":26.91},{"city":"Piermont","state_name":"New Hampshire","lat":43.97477,"lng":-72.03089,"zip":"03779","miles_from_dt":26.92},{"city":"South Tamworth","state_name":"New Hampshire","lat":43.81252,"lng":-71.30789,"zip":"03883","miles_from_dt":26.93},{"city":"Loudon","state_name":"New Hampshire","lat":43.32257,"lng":-71.44265,"zip":"03307","miles_from_dt":27.18},{"city":"Bradford","state_name":"New Hampshire","lat":43.25482,"lng":-71.96122,"zip":"03221","miles_from_dt":27.35},{"city":"Center Tuftonboro","state_name":"New Hampshire","lat":43.69753,"lng":-71.24218,"zip":"03816","miles_from_dt":27.48},{"city":"Norwich","state_name":"Vermont","lat":43.75481,"lng":-72.31145,"zip":"05055","miles_from_dt":27.89},{"city":"Hartford","state_name":"Vermont","lat":43.65859,"lng":-72.33788,"zip":"05047","miles_from_dt":27.93},{"city":"White River Junction","state_name":"Vermont","lat":43.64769,"lng":-72.34395,"zip":"05009","miles_from_dt":28.19},{"city":"Fairlee","state_name":"Vermont","lat":43.9144,"lng":-72.19881,"zip":"05045","miles_from_dt":28.68},{"city":"Goshen","state_name":"New Hampshire","lat":43.28909,"lng":-72.11489,"zip":"03752","miles_from_dt":28.81},{"city":"North Hartland","state_name":"Vermont","lat":43.6008,"lng":-72.35698,"zip":"05052","miles_from_dt":28.89},{"city":"Wolfeboro Falls","state_name":"New Hampshire","lat":43.58788,"lng":-71.20765,"zip":"03896","miles_from_dt":28.97},{"city":"Cornish","state_name":"New Hampshire","lat":43.47407,"lng":-72.32001,"zip":"03745","miles_from_dt":29.04},{"city":"Thetford Center","state_name":"Vermont","lat":43.84356,"lng":-72.28255,"zip":"05075","miles_from_dt":29.09},{"city":"Pike","state_name":"New Hampshire","lat":44.03169,"lng":-71.97142,"zip":"03780","miles_from_dt":29.37},{"city":"Concord","state_name":"New Hampshire","lat":43.23387,"lng":-71.55967,"zip":"03302","miles_from_dt":29.49},{"city":"Tamworth","state_name":"New Hampshire","lat":43.86399,"lng":-71.28783,"zip":"03886","miles_from_dt":29.6},{"city":"Post Mills","state_name":"Vermont","lat":43.87917,"lng":-72.26999,"zip":"05058","miles_from_dt":29.9},{"city":"Wonalancet","state_name":"New Hampshire","lat":43.90841,"lng":-71.32453,"zip":"03897","miles_from_dt":29.95}],"targetCityZipCode":"03222","targetCityState":"New Hampshire"},"__N_SSG":true}