{"pageProps":{"stateName":"New-hampshire","cityName":"lancaster","nearbyCities":[{"city":"Jefferson","state_name":"New Hampshire","lat":44.40148,"lng":-71.4583,"zip":"03583","miles_from_dt":7.23},{"city":"Lunenburg","state_name":"Vermont","lat":44.47431,"lng":-71.71538,"zip":"05906","miles_from_dt":8.58},{"city":"Whitefield","state_name":"New Hampshire","lat":44.37998,"lng":-71.63179,"zip":"03598","miles_from_dt":8.6},{"city":"Groveton","state_name":"New Hampshire","lat":44.59777,"lng":-71.43703,"zip":"03582","miles_from_dt":9.26},{"city":"Gilman","state_name":"Vermont","lat":44.41597,"lng":-71.70762,"zip":"05904","miles_from_dt":9.51},{"city":"Mount Washington","state_name":"New Hampshire","lat":44.34785,"lng":-71.55185,"zip":"03589","miles_from_dt":9.62},{"city":"Twin Mountain","state_name":"New Hampshire","lat":44.30616,"lng":-71.527,"zip":"03595","miles_from_dt":12.51},{"city":"Granby","state_name":"Vermont","lat":44.61297,"lng":-71.73129,"zip":"05840","miles_from_dt":12.74},{"city":"North Concord","state_name":"Vermont","lat":44.53587,"lng":-71.8046,"zip":"05858","miles_from_dt":13.37},{"city":"Bretton Woods","state_name":"New Hampshire","lat":44.28946,"lng":-71.41722,"zip":"03575","miles_from_dt":14.99},{"city":"Guildhall","state_name":"Vermont","lat":44.70151,"lng":-71.66672,"zip":"05905","miles_from_dt":16.03},{"city":"Concord","state_name":"Vermont","lat":44.43741,"lng":-71.86449,"zip":"05824","miles_from_dt":16.27},{"city":"Bethlehem","state_name":"New Hampshire","lat":44.25386,"lng":-71.59924,"zip":"03574","miles_from_dt":16.34},{"city":"Berlin","state_name":"New Hampshire","lat":44.49953,"lng":-71.20396,"zip":"03570","miles_from_dt":16.77},{"city":"Littleton","state_name":"New Hampshire","lat":44.33222,"lng":-71.80973,"zip":"03561","miles_from_dt":16.99},{"city":"Randolph","state_name":"New Hampshire","lat":44.29816,"lng":-71.31774,"zip":"03593","miles_from_dt":17.15},{"city":"Milan","state_name":"New Hampshire","lat":44.60545,"lng":-71.23204,"zip":"03588","miles_from_dt":17.39},{"city":"North Stratford","state_name":"New Hampshire","lat":44.74195,"lng":-71.51485,"zip":"03590","miles_from_dt":17.66},{"city":"West Stewartstown","state_name":"New Hampshire","lat":44.73439,"lng":-71.38243,"zip":"03597","miles_from_dt":18.83},{"city":"East Haven","state_name":"Vermont","lat":44.66868,"lng":-71.8386,"zip":"05837","miles_from_dt":19.25},{"city":"East Burke","state_name":"Vermont","lat":44.59546,"lng":-71.91027,"zip":"05832","miles_from_dt":19.63},{"city":"East Saint Johnsbury","state_name":"Vermont","lat":44.43944,"lng":-71.94369,"zip":"05838","miles_from_dt":20.09},{"city":"Lower Waterford","state_name":"Vermont","lat":44.35558,"lng":-71.90806,"zip":"05848","miles_from_dt":20.22},{"city":"Sugar Hill","state_name":"New Hampshire","lat":44.22058,"lng":-71.7963,"zip":"03586","miles_from_dt":22.27},{"city":"Gorham","state_name":"New Hampshire","lat":44.34227,"lng":-71.13413,"zip":"03581","miles_from_dt":22.56},{"city":"Saint Johnsbury","state_name":"Vermont","lat":44.40397,"lng":-71.98837,"zip":"05819","miles_from_dt":22.77},{"city":"Lyndon","state_name":"Vermont","lat":44.53289,"lng":-72.00029,"zip":"05849","miles_from_dt":22.83},{"city":"Franconia","state_name":"New Hampshire","lat":44.17347,"lng":-71.69519,"zip":"03580","miles_from_dt":22.93},{"city":"Saint Johnsbury Center","state_name":"Vermont","lat":44.4529,"lng":-72.01214,"zip":"05863","miles_from_dt":23.33},{"city":"West Burke","state_name":"Vermont","lat":44.68367,"lng":-71.95193,"zip":"05871","miles_from_dt":24.33},{"city":"Lyndon Center","state_name":"Vermont","lat":44.55955,"lng":-72.03417,"zip":"05850","miles_from_dt":24.79},{"city":"Lisbon","state_name":"New Hampshire","lat":44.22538,"lng":-71.89703,"zip":"03585","miles_from_dt":25.18},{"city":"Passumpsic","state_name":"Vermont","lat":44.37735,"lng":-72.03142,"zip":"05861","miles_from_dt":25.33},{"city":"Lyndonville","state_name":"Vermont","lat":44.55297,"lng":-72.05732,"zip":"05851","miles_from_dt":25.82},{"city":"Monroe","state_name":"New Hampshire","lat":44.28443,"lng":-72.0098,"zip":"03771","miles_from_dt":27.02},{"city":"Jackson","state_name":"New Hampshire","lat":44.18445,"lng":-71.18899,"zip":"03846","miles_from_dt":27.27},{"city":"Island Pond","state_name":"Vermont","lat":44.82671,"lng":-71.82795,"zip":"05846","miles_from_dt":27.35},{"city":"Sutton","state_name":"Vermont","lat":44.66505,"lng":-72.04366,"zip":"05867","miles_from_dt":27.61},{"city":"Lincoln","state_name":"New Hampshire","lat":44.0796,"lng":-71.65276,"zip":"03251","miles_from_dt":28.65},{"city":"Danville","state_name":"Vermont","lat":44.43748,"lng":-72.12334,"zip":"05828","miles_from_dt":28.91},{"city":"Colebrook","state_name":"New Hampshire","lat":44.89839,"lng":-71.37178,"zip":"03576","miles_from_dt":29.63},{"city":"Glen","state_name":"New Hampshire","lat":44.11257,"lng":-71.24036,"zip":"03838","miles_from_dt":29.88}],"targetCityZipCode":"03584","targetCityState":"New Hampshire"},"__N_SSG":true}