{"pageProps":{"stateName":"New-hampshire","cityName":"whitefield","nearbyCities":[{"city":"Gilman","state_name":"Vermont","lat":44.41597,"lng":-71.70762,"zip":"05904","miles_from_dt":4.5},{"city":"Mount Washington","state_name":"New Hampshire","lat":44.34785,"lng":-71.55185,"zip":"03589","miles_from_dt":4.54},{"city":"Twin Mountain","state_name":"New Hampshire","lat":44.30616,"lng":-71.527,"zip":"03595","miles_from_dt":7.28},{"city":"Lunenburg","state_name":"Vermont","lat":44.47431,"lng":-71.71538,"zip":"05906","miles_from_dt":7.72},{"city":"Lancaster","state_name":"New Hampshire","lat":44.48696,"lng":-71.54278,"zip":"03584","miles_from_dt":8.6},{"city":"Jefferson","state_name":"New Hampshire","lat":44.40148,"lng":-71.4583,"zip":"03583","miles_from_dt":8.72},{"city":"Bethlehem","state_name":"New Hampshire","lat":44.25386,"lng":-71.59924,"zip":"03574","miles_from_dt":8.86},{"city":"Littleton","state_name":"New Hampshire","lat":44.33222,"lng":-71.80973,"zip":"03561","miles_from_dt":9.41},{"city":"Concord","state_name":"Vermont","lat":44.43741,"lng":-71.86449,"zip":"05824","miles_from_dt":12.18},{"city":"Bretton Woods","state_name":"New Hampshire","lat":44.28946,"lng":-71.41722,"zip":"03575","miles_from_dt":12.33},{"city":"Sugar Hill","state_name":"New Hampshire","lat":44.22058,"lng":-71.7963,"zip":"03586","miles_from_dt":13.7},{"city":"North Concord","state_name":"Vermont","lat":44.53587,"lng":-71.8046,"zip":"05858","miles_from_dt":13.74},{"city":"Lower Waterford","state_name":"Vermont","lat":44.35558,"lng":-71.90806,"zip":"05848","miles_from_dt":13.79},{"city":"Franconia","state_name":"New Hampshire","lat":44.17347,"lng":-71.69519,"zip":"03580","miles_from_dt":14.6},{"city":"East Saint Johnsbury","state_name":"Vermont","lat":44.43944,"lng":-71.94369,"zip":"05838","miles_from_dt":15.97},{"city":"Randolph","state_name":"New Hampshire","lat":44.29816,"lng":-71.31774,"zip":"03593","miles_from_dt":16.56},{"city":"Granby","state_name":"Vermont","lat":44.61297,"lng":-71.73129,"zip":"05840","miles_from_dt":16.82},{"city":"Lisbon","state_name":"New Hampshire","lat":44.22538,"lng":-71.89703,"zip":"03585","miles_from_dt":16.94},{"city":"Saint Johnsbury","state_name":"Vermont","lat":44.40397,"lng":-71.98837,"zip":"05819","miles_from_dt":17.73},{"city":"Groveton","state_name":"New Hampshire","lat":44.59777,"lng":-71.43703,"zip":"03582","miles_from_dt":17.86},{"city":"Saint Johnsbury Center","state_name":"Vermont","lat":44.4529,"lng":-72.01214,"zip":"05863","miles_from_dt":19.48},{"city":"Passumpsic","state_name":"Vermont","lat":44.37735,"lng":-72.03142,"zip":"05861","miles_from_dt":19.79},{"city":"Monroe","state_name":"New Hampshire","lat":44.28443,"lng":-72.0098,"zip":"03771","miles_from_dt":19.86},{"city":"East Burke","state_name":"Vermont","lat":44.59546,"lng":-71.91027,"zip":"05832","miles_from_dt":20.27},{"city":"Lincoln","state_name":"New Hampshire","lat":44.0796,"lng":-71.65276,"zip":"03251","miles_from_dt":20.77},{"city":"Lyndon","state_name":"Vermont","lat":44.53289,"lng":-72.00029,"zip":"05849","miles_from_dt":21.06},{"city":"Guildhall","state_name":"Vermont","lat":44.70151,"lng":-71.66672,"zip":"05905","miles_from_dt":22.27},{"city":"Bath","state_name":"New Hampshire","lat":44.18025,"lng":-71.98626,"zip":"03740","miles_from_dt":22.35},{"city":"East Haven","state_name":"Vermont","lat":44.66868,"lng":-71.8386,"zip":"05837","miles_from_dt":22.4},{"city":"Berlin","state_name":"New Hampshire","lat":44.49953,"lng":-71.20396,"zip":"03570","miles_from_dt":22.72},{"city":"McIndoe Falls","state_name":"Vermont","lat":44.26442,"lng":-72.06414,"zip":"05050","miles_from_dt":22.87},{"city":"Lyndon Center","state_name":"Vermont","lat":44.55955,"lng":-72.03417,"zip":"05850","miles_from_dt":23.44},{"city":"Barnet","state_name":"Vermont","lat":44.3175,"lng":-72.10866,"zip":"05821","miles_from_dt":24.02},{"city":"Lyndonville","state_name":"Vermont","lat":44.55297,"lng":-72.05732,"zip":"05851","miles_from_dt":24.19},{"city":"Danville","state_name":"Vermont","lat":44.43748,"lng":-72.12334,"zip":"05828","miles_from_dt":24.65},{"city":"Woodsville","state_name":"New Hampshire","lat":44.06525,"lng":-71.87017,"zip":"03785","miles_from_dt":24.74},{"city":"Gorham","state_name":"New Hampshire","lat":44.34227,"lng":-71.13413,"zip":"03581","miles_from_dt":24.79},{"city":"Waterville Valley","state_name":"New Hampshire","lat":44.03605,"lng":-71.48109,"zip":"03215","miles_from_dt":24.9},{"city":"Milan","state_name":"New Hampshire","lat":44.60545,"lng":-71.23204,"zip":"03588","miles_from_dt":25.15},{"city":"East Ryegate","state_name":"Vermont","lat":44.24013,"lng":-72.1053,"zip":"05042","miles_from_dt":25.38},{"city":"North Stratford","state_name":"New Hampshire","lat":44.74195,"lng":-71.51485,"zip":"03590","miles_from_dt":25.65},{"city":"Jackson","state_name":"New Hampshire","lat":44.18445,"lng":-71.18899,"zip":"03846","miles_from_dt":25.78},{"city":"West Burke","state_name":"Vermont","lat":44.68367,"lng":-71.95193,"zip":"05871","miles_from_dt":26.26},{"city":"Bartlett","state_name":"New Hampshire","lat":44.08148,"lng":-71.29643,"zip":"03812","miles_from_dt":26.49},{"city":"Glen","state_name":"New Hampshire","lat":44.11257,"lng":-71.24036,"zip":"03838","miles_from_dt":26.8},{"city":"North Woodstock","state_name":"New Hampshire","lat":43.99885,"lng":-71.73813,"zip":"03262","miles_from_dt":26.84},{"city":"North Haverhill","state_name":"New Hampshire","lat":44.09097,"lng":-71.9947,"zip":"03774","miles_from_dt":26.88},{"city":"West Stewartstown","state_name":"New Hampshire","lat":44.73439,"lng":-71.38243,"zip":"03597","miles_from_dt":27.39},{"city":"Wells River","state_name":"Vermont","lat":44.14292,"lng":-72.08451,"zip":"05081","miles_from_dt":27.79},{"city":"Woodstock","state_name":"New Hampshire","lat":43.97696,"lng":-71.67721,"zip":"03293","miles_from_dt":27.92},{"city":"Sutton","state_name":"Vermont","lat":44.66505,"lng":-72.04366,"zip":"05867","miles_from_dt":28.31},{"city":"South Ryegate","state_name":"Vermont","lat":44.17366,"lng":-72.14317,"zip":"05069","miles_from_dt":29.09},{"city":"West Danville","state_name":"Vermont","lat":44.40619,"lng":-72.21841,"zip":"05873","miles_from_dt":29.1},{"city":"Pike","state_name":"New Hampshire","lat":44.03169,"lng":-71.97142,"zip":"03780","miles_from_dt":29.37},{"city":"Peacham","state_name":"Vermont","lat":44.31971,"lng":-72.23133,"zip":"05862","miles_from_dt":29.99}],"targetCityZipCode":"03598","targetCityState":"New Hampshire"},"__N_SSG":true}