{"pageProps":{"stateName":"Colorado","cityName":"slater","nearbyCities":[{"city":"Savery","state_name":"Wyoming","lat":41.06314,"lng":-107.3016,"zip":"82332","miles_from_dt":11.03},{"city":"Clark","state_name":"Colorado","lat":40.85326,"lng":-106.91373,"zip":"80428","miles_from_dt":16.8},{"city":"Dixon","state_name":"Wyoming","lat":41.0308,"lng":-107.52201,"zip":"82323","miles_from_dt":17.52},{"city":"Hayden","state_name":"Colorado","lat":40.52636,"lng":-107.24457,"zip":"81639","miles_from_dt":26.8},{"city":"Encampment","state_name":"Wyoming","lat":41.1628,"lng":-106.7919,"zip":"82325","miles_from_dt":28.35},{"city":"Steamboat Springs","state_name":"Colorado","lat":40.58803,"lng":-106.89321,"zip":"80487","miles_from_dt":28.44},{"city":"Baggs","state_name":"Wyoming","lat":41.15921,"lng":-107.69697,"zip":"82321","miles_from_dt":29.93}],"targetCityZipCode":"81653","targetCityState":"Colorado"},"__N_SSG":true}