{"pageProps":{"stateName":"Indiana","cityName":"bridgeton","nearbyCities":[{"city":"Carbon","state_name":"Indiana","lat":39.62929,"lng":-87.11281,"zip":"47837","miles_from_dt":3.45},{"city":"Rosedale","state_name":"Indiana","lat":39.62913,"lng":-87.27792,"zip":"47874","miles_from_dt":5.81},{"city":"Fontanet","state_name":"Indiana","lat":39.5736,"lng":-87.24594,"zip":"47851","miles_from_dt":6.54},{"city":"Rockville","state_name":"Indiana","lat":39.75331,"lng":-87.16271,"zip":"47872","miles_from_dt":7.2},{"city":"Brazil","state_name":"Indiana","lat":39.52423,"lng":-87.12276,"zip":"47834","miles_from_dt":9.02},{"city":"Harmony","state_name":"Indiana","lat":39.53757,"lng":-87.07277,"zip":"47853","miles_from_dt":9.36},{"city":"Knightsville","state_name":"Indiana","lat":39.52403,"lng":-87.09111,"zip":"47857","miles_from_dt":9.66},{"city":"Mecca","state_name":"Indiana","lat":39.72215,"lng":-87.33013,"zip":"47860","miles_from_dt":9.81},{"city":"Terre Haute","state_name":"Indiana","lat":39.54768,"lng":-87.32739,"zip":"47805","miles_from_dt":10.85},{"city":"Staunton","state_name":"Indiana","lat":39.48722,"lng":-87.19029,"zip":"47881","miles_from_dt":11.22},{"city":"Seelyville","state_name":"Indiana","lat":39.49516,"lng":-87.26368,"zip":"47878","miles_from_dt":11.7},{"city":"Montezuma","state_name":"Indiana","lat":39.77184,"lng":-87.34527,"zip":"47862","miles_from_dt":12.51},{"city":"Reelsville","state_name":"Indiana","lat":39.53527,"lng":-86.96815,"zip":"46171","miles_from_dt":13.43},{"city":"Terre Haute","state_name":"Indiana","lat":39.51273,"lng":-87.35199,"zip":"47808","miles_from_dt":13.45},{"city":"Shepardsville","state_name":"Indiana","lat":39.59976,"lng":-87.41885,"zip":"47880","miles_from_dt":13.59},{"city":"Terre Haute","state_name":"Indiana","lat":39.46433,"lng":-87.30855,"zip":"47803","miles_from_dt":14.69},{"city":"Greencastle","state_name":"Indiana","lat":39.65909,"lng":-86.89107,"zip":"46135","miles_from_dt":15.01},{"city":"Universal","state_name":"Indiana","lat":39.62308,"lng":-87.45362,"zip":"47884","miles_from_dt":15.12},{"city":"Clinton","state_name":"Indiana","lat":39.67569,"lng":-87.462,"zip":"47842","miles_from_dt":15.56},{"city":"Terre Haute","state_name":"Indiana","lat":39.49756,"lng":-87.39031,"zip":"47804","miles_from_dt":15.66},{"city":"Russellville","state_name":"Indiana","lat":39.82199,"lng":-86.97292,"zip":"46175","miles_from_dt":15.96},{"city":"New Goshen","state_name":"Indiana","lat":39.57848,"lng":-87.45921,"zip":"47863","miles_from_dt":16.07},{"city":"Marshall","state_name":"Indiana","lat":39.88595,"lng":-87.16999,"zip":"47859","miles_from_dt":16.33},{"city":"Bloomingdale","state_name":"Indiana","lat":39.87879,"lng":-87.25463,"zip":"47832","miles_from_dt":16.43},{"city":"Hillsdale","state_name":"Indiana","lat":39.80874,"lng":-87.41299,"zip":"47854","miles_from_dt":16.9},{"city":"Putnamville","state_name":"Indiana","lat":39.57164,"lng":-86.86277,"zip":"46170","miles_from_dt":17.36},{"city":"Terre Haute","state_name":"Indiana","lat":39.47061,"lng":-87.40262,"zip":"47807","miles_from_dt":17.41},{"city":"Terre Haute","state_name":"Indiana","lat":39.47136,"lng":-87.40986,"zip":"47809","miles_from_dt":17.65},{"city":"Centerpoint","state_name":"Indiana","lat":39.40863,"lng":-87.05937,"zip":"47840","miles_from_dt":17.66},{"city":"Waveland","state_name":"Indiana","lat":39.88871,"lng":-87.05243,"zip":"47989","miles_from_dt":17.71},{"city":"Terre Haute","state_name":"Indiana","lat":39.46712,"lng":-87.41014,"zip":"47801","miles_from_dt":17.87},{"city":"Saint Mary Of The Woods","state_name":"Indiana","lat":39.50996,"lng":-87.46113,"zip":"47876","miles_from_dt":18.17},{"city":"Blanford","state_name":"Indiana","lat":39.66549,"lng":-87.52177,"zip":"47831","miles_from_dt":18.67},{"city":"West Terre Haute","state_name":"Indiana","lat":39.50872,"lng":-87.47679,"zip":"47885","miles_from_dt":18.93},{"city":"Riley","state_name":"Indiana","lat":39.38978,"lng":-87.30026,"zip":"47871","miles_from_dt":19.16},{"city":"Saint Bernice","state_name":"Indiana","lat":39.71447,"lng":-87.52222,"zip":"47875","miles_from_dt":19.19},{"city":"Cory","state_name":"Indiana","lat":39.36601,"lng":-87.20041,"zip":"47846","miles_from_dt":19.6},{"city":"Bainbridge","state_name":"Indiana","lat":39.76388,"lng":-86.81487,"zip":"46105","miles_from_dt":20.62},{"city":"Dana","state_name":"Indiana","lat":39.82293,"lng":-87.48865,"zip":"47847","miles_from_dt":20.68},{"city":"Newport","state_name":"Indiana","lat":39.88843,"lng":-87.41433,"zip":"47966","miles_from_dt":20.94},{"city":"Poland","state_name":"Indiana","lat":39.40892,"lng":-86.89822,"zip":"47868","miles_from_dt":22.12},{"city":"Bowling Green","state_name":"Indiana","lat":39.35841,"lng":-86.97773,"zip":"47833","miles_from_dt":22.6},{"city":"Cloverdale","state_name":"Indiana","lat":39.51252,"lng":-86.78711,"zip":"46120","miles_from_dt":22.62},{"city":"Kingman","state_name":"Indiana","lat":39.96186,"lng":-87.30049,"zip":"47952","miles_from_dt":22.62},{"city":"Vermilion","state_name":"Illinois","lat":39.58162,"lng":-87.5875,"zip":"61955","miles_from_dt":22.64},{"city":"Roachdale","state_name":"Indiana","lat":39.82725,"lng":-86.8144,"zip":"46172","miles_from_dt":22.67},{"city":"Fillmore","state_name":"Indiana","lat":39.65634,"lng":-86.74312,"zip":"46128","miles_from_dt":22.89},{"city":"Wallace","state_name":"Indiana","lat":39.98897,"lng":-87.14678,"zip":"47988","miles_from_dt":23.48},{"city":"Alamo","state_name":"Indiana","lat":39.98343,"lng":-87.05524,"zip":"47916","miles_from_dt":23.88},{"city":"Terre Haute","state_name":"Indiana","lat":39.35153,"lng":-87.4106,"zip":"47802","miles_from_dt":24.17},{"city":"New Market","state_name":"Indiana","lat":39.95452,"lng":-86.91996,"zip":"47965","miles_from_dt":24.98},{"city":"Cayuga","state_name":"Indiana","lat":39.93237,"lng":-87.46501,"zip":"47928","miles_from_dt":24.99},{"city":"Prairieton","state_name":"Indiana","lat":39.37016,"lng":-87.47353,"zip":"47870","miles_from_dt":25.1},{"city":"Dennison","state_name":"Illinois","lat":39.46208,"lng":-87.5819,"zip":"62423","miles_from_dt":25.4},{"city":"Ladoga","state_name":"Indiana","lat":39.90048,"lng":-86.8178,"zip":"47954","miles_from_dt":25.62},{"city":"Clay City","state_name":"Indiana","lat":39.27764,"lng":-87.11492,"zip":"47841","miles_from_dt":25.82},{"city":"Patricksburg","state_name":"Indiana","lat":39.31271,"lng":-86.95672,"zip":"47455","miles_from_dt":25.92},{"city":"Pimento","state_name":"Indiana","lat":39.28302,"lng":-87.3247,"zip":"47866","miles_from_dt":26.55},{"city":"Coatesville","state_name":"Indiana","lat":39.67776,"lng":-86.67345,"zip":"46121","miles_from_dt":26.67},{"city":"Lewis","state_name":"Indiana","lat":39.26268,"lng":-87.22868,"zip":"47858","miles_from_dt":26.84},{"city":"Chrisman","state_name":"Illinois","lat":39.79269,"lng":-87.6506,"zip":"61924","miles_from_dt":27.34},{"city":"Quincy","state_name":"Indiana","lat":39.46314,"lng":-86.69781,"zip":"47456","miles_from_dt":28.4},{"city":"Paris","state_name":"Illinois","lat":39.59969,"lng":-87.70146,"zip":"61944","miles_from_dt":28.44},{"city":"Hillsboro","state_name":"Indiana","lat":40.06288,"lng":-87.13504,"zip":"47949","miles_from_dt":28.61},{"city":"Waynetown","state_name":"Indiana","lat":40.06118,"lng":-87.05952,"zip":"47990","miles_from_dt":29.05},{"city":"Ridge Farm","state_name":"Illinois","lat":39.90325,"lng":-87.61562,"zip":"61870","miles_from_dt":29.4},{"city":"Coal City","state_name":"Indiana","lat":39.23915,"lng":-87.01266,"zip":"47427","miles_from_dt":29.55},{"city":"Eminence","state_name":"Indiana","lat":39.52188,"lng":-86.64179,"zip":"46125","miles_from_dt":29.65},{"city":"Stilesville","state_name":"Indiana","lat":39.59652,"lng":-86.61801,"zip":"46180","miles_from_dt":29.79},{"city":"Amo","state_name":"Indiana","lat":39.6896,"lng":-86.61384,"zip":"46103","miles_from_dt":29.9}],"targetCityZipCode":"47836","targetCityState":"Indiana"},"__N_SSG":true}