{"pageProps":{"stateName":"Indiana","cityName":"cedar-lake","nearbyCities":[{"city":"Saint John","state_name":"Indiana","lat":41.44578,"lng":-87.46954,"zip":"46373","miles_from_dt":5.11},{"city":"Crown Point","state_name":"Indiana","lat":41.41715,"lng":-87.36393,"zip":"46308","miles_from_dt":6.63},{"city":"Dyer","state_name":"Indiana","lat":41.46846,"lng":-87.50918,"zip":"46311","miles_from_dt":6.87},{"city":"Crete","state_name":"Illinois","lat":41.43056,"lng":-87.59268,"zip":"60417","miles_from_dt":7.27},{"city":"Beecher","state_name":"Illinois","lat":41.34683,"lng":-87.61306,"zip":"60401","miles_from_dt":7.31},{"city":"Crown Point","state_name":"Indiana","lat":41.40215,"lng":-87.32693,"zip":"46307","miles_from_dt":8.05},{"city":"Lowell","state_name":"Indiana","lat":41.26117,"lng":-87.41863,"zip":"46356","miles_from_dt":8.22},{"city":"Schererville","state_name":"Indiana","lat":41.49162,"lng":-87.45193,"zip":"46375","miles_from_dt":8.35},{"city":"Merrillville","state_name":"Indiana","lat":41.47137,"lng":-87.37635,"zip":"46411","miles_from_dt":8.61},{"city":"Steger","state_name":"Illinois","lat":41.47193,"lng":-87.6283,"zip":"60475","miles_from_dt":10.48},{"city":"Merrillville","state_name":"Indiana","lat":41.48083,"lng":-87.33293,"zip":"46410","miles_from_dt":10.58},{"city":"Griffith","state_name":"Indiana","lat":41.52217,"lng":-87.42091,"zip":"46319","miles_from_dt":10.76},{"city":"Leroy","state_name":"Indiana","lat":41.36397,"lng":-87.26721,"zip":"46355","miles_from_dt":10.89},{"city":"Chicago Heights","state_name":"Illinois","lat":41.50791,"lng":-87.59031,"zip":"60411","miles_from_dt":11.09},{"city":"Gary","state_name":"Indiana","lat":41.46091,"lng":-87.28537,"zip":"46401","miles_from_dt":11.67},{"city":"Grant Park","state_name":"Illinois","lat":41.25188,"lng":-87.64259,"zip":"60940","miles_from_dt":11.97},{"city":"Munster","state_name":"Indiana","lat":41.54704,"lng":-87.50402,"zip":"46321","miles_from_dt":12.17},{"city":"Highland","state_name":"Indiana","lat":41.54818,"lng":-87.45884,"zip":"46322","miles_from_dt":12.19},{"city":"Chicago Heights","state_name":"Illinois","lat":41.51083,"lng":-87.63617,"zip":"60412","miles_from_dt":12.67},{"city":"Schneider","state_name":"Indiana","lat":41.1838,"lng":-87.47603,"zip":"46376","miles_from_dt":12.99},{"city":"Park Forest","state_name":"Illinois","lat":41.47966,"lng":-87.68276,"zip":"60466","miles_from_dt":13.04},{"city":"University Park","state_name":"Illinois","lat":41.44317,"lng":-87.70948,"zip":"60484","miles_from_dt":13.06},{"city":"Gary","state_name":"Indiana","lat":41.54468,"lng":-87.36941,"zip":"46408","miles_from_dt":13.15},{"city":"Glenwood","state_name":"Illinois","lat":41.54343,"lng":-87.61073,"zip":"60425","miles_from_dt":13.73},{"city":"Lansing","state_name":"Illinois","lat":41.56625,"lng":-87.55065,"zip":"60438","miles_from_dt":13.95},{"city":"Shelby","state_name":"Indiana","lat":41.19432,"lng":-87.34777,"zip":"46377","miles_from_dt":13.97},{"city":"Hebron","state_name":"Indiana","lat":41.30666,"lng":-87.21962,"zip":"46341","miles_from_dt":14.1},{"city":"Gary","state_name":"Indiana","lat":41.54828,"lng":-87.32422,"zip":"46409","miles_from_dt":14.51},{"city":"Hammond","state_name":"Indiana","lat":41.58324,"lng":-87.50155,"zip":"46324","miles_from_dt":14.64},{"city":"Olympia Fields","state_name":"Illinois","lat":41.51752,"lng":-87.69148,"zip":"60461","miles_from_dt":15.02},{"city":"Sumava Resorts","state_name":"Indiana","lat":41.15682,"lng":-87.4302,"zip":"46379","miles_from_dt":15.04},{"city":"Hammond","state_name":"Indiana","lat":41.58961,"lng":-87.45323,"zip":"46323","miles_from_dt":15.07},{"city":"Richton Park","state_name":"Illinois","lat":41.48009,"lng":-87.72981,"zip":"60471","miles_from_dt":15.13},{"city":"Thornton","state_name":"Illinois","lat":41.5694,"lng":-87.60562,"zip":"60476","miles_from_dt":15.18},{"city":"Thayer","state_name":"Indiana","lat":41.17635,"lng":-87.33436,"zip":"46381","miles_from_dt":15.4},{"city":"Monee","state_name":"Illinois","lat":41.41392,"lng":-87.76978,"zip":"60449","miles_from_dt":15.51},{"city":"Gary","state_name":"Indiana","lat":41.58475,"lng":-87.37502,"zip":"46404","miles_from_dt":15.6},{"city":"Hobart","state_name":"Indiana","lat":41.51761,"lng":-87.24468,"zip":"46342","miles_from_dt":15.68},{"city":"Flossmoor","state_name":"Illinois","lat":41.53861,"lng":-87.68443,"zip":"60422","miles_from_dt":15.77},{"city":"Homewood","state_name":"Illinois","lat":41.5584,"lng":-87.66214,"zip":"60430","miles_from_dt":16.07},{"city":"Gary","state_name":"Indiana","lat":41.57844,"lng":-87.33047,"zip":"46407","miles_from_dt":16.14},{"city":"Gary","state_name":"Indiana","lat":41.6022,"lng":-87.40804,"zip":"46406","miles_from_dt":16.28},{"city":"Hammond","state_name":"Indiana","lat":41.60893,"lng":-87.49754,"zip":"46320","miles_from_dt":16.39},{"city":"Matteson","state_name":"Illinois","lat":41.50369,"lng":-87.74637,"zip":"60443","miles_from_dt":16.7},{"city":"Hammond","state_name":"Indiana","lat":41.61409,"lng":-87.51471,"zip":"46325","miles_from_dt":16.83},{"city":"South Holland","state_name":"Illinois","lat":41.59733,"lng":-87.60115,"zip":"60473","miles_from_dt":16.84},{"city":"Momence","state_name":"Illinois","lat":41.15446,"lng":-87.62827,"zip":"60954","miles_from_dt":16.96},{"city":"Calumet City","state_name":"Illinois","lat":41.61303,"lng":-87.55142,"zip":"60409","miles_from_dt":17.08},{"city":"Peotone","state_name":"Illinois","lat":41.33636,"lng":-87.80991,"zip":"60468","miles_from_dt":17.51},{"city":"Hazel Crest","state_name":"Illinois","lat":41.5737,"lng":-87.68331,"zip":"60429","miles_from_dt":17.58},{"city":"Lake Station","state_name":"Indiana","lat":41.57409,"lng":-87.26285,"zip":"46405","miles_from_dt":17.82},{"city":"Gary","state_name":"Indiana","lat":41.61032,"lng":-87.33297,"zip":"46402","miles_from_dt":18.06},{"city":"Roselawn","state_name":"Indiana","lat":41.14211,"lng":-87.31024,"zip":"46372","miles_from_dt":18.07},{"city":"Boone Grove","state_name":"Indiana","lat":41.3604,"lng":-87.12645,"zip":"46302","miles_from_dt":18.22},{"city":"Demotte","state_name":"Indiana","lat":41.18205,"lng":-87.23088,"zip":"46310","miles_from_dt":18.31},{"city":"Lake Village","state_name":"Indiana","lat":41.10899,"lng":-87.42359,"zip":"46349","miles_from_dt":18.36},{"city":"Country Club Hills","state_name":"Illinois","lat":41.55381,"lng":-87.73588,"zip":"60478","miles_from_dt":18.41},{"city":"Hammond","state_name":"Indiana","lat":41.64048,"lng":-87.50677,"zip":"46327","miles_from_dt":18.6},{"city":"Dolton","state_name":"Illinois","lat":41.62752,"lng":-87.59871,"zip":"60419","miles_from_dt":18.74},{"city":"Wheeler","state_name":"Indiana","lat":41.5139,"lng":-87.16801,"zip":"46393","miles_from_dt":18.78},{"city":"Harvey","state_name":"Illinois","lat":41.61026,"lng":-87.65309,"zip":"60426","miles_from_dt":18.82},{"city":"East Chicago","state_name":"Indiana","lat":41.64705,"lng":-87.45446,"zip":"46312","miles_from_dt":19.02},{"city":"Markham","state_name":"Illinois","lat":41.5998,"lng":-87.69062,"zip":"60428","miles_from_dt":19.25},{"city":"Valparaiso","state_name":"Indiana","lat":41.46395,"lng":-87.12396,"zip":"46385","miles_from_dt":19.38},{"city":"Gary","state_name":"Indiana","lat":41.60636,"lng":-87.25803,"zip":"46403","miles_from_dt":19.75},{"city":"Frankfort","state_name":"Illinois","lat":41.47922,"lng":-87.83961,"zip":"60423","miles_from_dt":20.26},{"city":"Chicago","state_name":"Illinois","lat":41.66315,"lng":-87.56044,"zip":"60633","miles_from_dt":20.56},{"city":"Riverdale","state_name":"Illinois","lat":41.64967,"lng":-87.63013,"zip":"60827","miles_from_dt":20.75},{"city":"Posen","state_name":"Illinois","lat":41.62871,"lng":-87.68634,"zip":"60469","miles_from_dt":20.79},{"city":"Whiting","state_name":"Indiana","lat":41.67733,"lng":-87.50279,"zip":"46394","miles_from_dt":21.12},{"city":"Tinley Park","state_name":"Illinois","lat":41.57347,"lng":-87.78597,"zip":"60477","miles_from_dt":21.25},{"city":"Portage","state_name":"Indiana","lat":41.5848,"lng":-87.17937,"zip":"46368","miles_from_dt":21.3},{"city":"Oak Forest","state_name":"Illinois","lat":41.60851,"lng":-87.75434,"zip":"60452","miles_from_dt":21.78},{"city":"Hopkins Park","state_name":"Illinois","lat":41.07161,"lng":-87.61734,"zip":"60944","miles_from_dt":21.99},{"city":"Pembroke Township","state_name":"Illinois","lat":41.06523,"lng":-87.5916,"zip":"60958","miles_from_dt":22},{"city":"Midlothian","state_name":"Illinois","lat":41.62833,"lng":-87.73542,"zip":"60445","miles_from_dt":22.21},{"city":"Blue Island","state_name":"Illinois","lat":41.65509,"lng":-87.68184,"zip":"60406","miles_from_dt":22.25},{"city":"Robbins","state_name":"Illinois","lat":41.6437,"lng":-87.70836,"zip":"60472","miles_from_dt":22.28},{"city":"Tinley Park","state_name":"Illinois","lat":41.56236,"lng":-87.83095,"zip":"60487","miles_from_dt":22.61},{"city":"Manteno","state_name":"Illinois","lat":41.25135,"lng":-87.88494,"zip":"60950","miles_from_dt":22.82},{"city":"Chicago","state_name":"Illinois","lat":41.69165,"lng":-87.61828,"zip":"60628","miles_from_dt":23.25},{"city":"Crestwood","state_name":"Illinois","lat":41.64568,"lng":-87.74084,"zip":"60418","miles_from_dt":23.34},{"city":"Valparaiso","state_name":"Indiana","lat":41.49362,"lng":-87.05475,"zip":"46384","miles_from_dt":23.46},{"city":"Bourbonnais","state_name":"Illinois","lat":41.18706,"lng":-87.86194,"zip":"60914","miles_from_dt":23.78},{"city":"Fair Oaks","state_name":"Indiana","lat":41.0594,"lng":-87.28006,"zip":"47943","miles_from_dt":23.88},{"city":"Chicago","state_name":"Illinois","lat":41.71337,"lng":-87.55618,"zip":"60617","miles_from_dt":23.92},{"city":"Mokena","state_name":"Illinois","lat":41.53821,"lng":-87.89396,"zip":"60448","miles_from_dt":24.52},{"city":"Chicago","state_name":"Illinois","lat":41.70026,"lng":-87.663,"zip":"60643","miles_from_dt":24.63},{"city":"Alsip","state_name":"Illinois","lat":41.67233,"lng":-87.73652,"zip":"60803","miles_from_dt":24.73},{"city":"Kouts","state_name":"Indiana","lat":41.30502,"lng":-87.00859,"zip":"46347","miles_from_dt":24.77},{"city":"Manhattan","state_name":"Illinois","lat":41.39189,"lng":-87.96062,"zip":"60442","miles_from_dt":25.2},{"city":"Chicago","state_name":"Illinois","lat":41.69479,"lng":-87.70374,"zip":"60655","miles_from_dt":25.2},{"city":"Bradley","state_name":"Illinois","lat":41.14758,"lng":-87.86039,"zip":"60915","miles_from_dt":25.29},{"city":"Valparaiso","state_name":"Indiana","lat":41.45838,"lng":-87.00156,"zip":"46383","miles_from_dt":25.38},{"city":"Orland Park","state_name":"Illinois","lat":41.62527,"lng":-87.83548,"zip":"60462","miles_from_dt":25.54},{"city":"Wheatfield","state_name":"Indiana","lat":41.18509,"lng":-87.04948,"zip":"46392","miles_from_dt":25.7},{"city":"Palos Heights","state_name":"Illinois","lat":41.66084,"lng":-87.79033,"zip":"60463","miles_from_dt":25.74},{"city":"Orland Park","state_name":"Illinois","lat":41.59855,"lng":-87.88848,"zip":"60467","miles_from_dt":26.49},{"city":"Chicago","state_name":"Illinois","lat":41.74346,"lng":-87.60532,"zip":"60619","miles_from_dt":26.49},{"city":"New Lenox","state_name":"Illinois","lat":41.50717,"lng":-87.96088,"zip":"60451","miles_from_dt":26.83},{"city":"Evergreen Park","state_name":"Illinois","lat":41.72201,"lng":-87.70243,"zip":"60805","miles_from_dt":26.85},{"city":"Chicago","state_name":"Illinois","lat":41.74096,"lng":-87.65257,"zip":"60620","miles_from_dt":27.05},{"city":"Chicago","state_name":"Illinois","lat":41.75885,"lng":-87.56368,"zip":"60649","miles_from_dt":27.08},{"city":"Saint Anne","state_name":"Illinois","lat":41.03401,"lng":-87.7418,"zip":"60964","miles_from_dt":27.11},{"city":"Aroma Park","state_name":"Illinois","lat":41.06426,"lng":-87.79991,"zip":"60910","miles_from_dt":27.11},{"city":"Worth","state_name":"Illinois","lat":41.68737,"lng":-87.79239,"zip":"60482","miles_from_dt":27.24},{"city":"Oak Lawn","state_name":"Illinois","lat":41.71412,"lng":-87.75278,"zip":"60453","miles_from_dt":27.62},{"city":"Chesterton","state_name":"Indiana","lat":41.61311,"lng":-87.04905,"zip":"46304","miles_from_dt":27.73},{"city":"Chicago Ridge","state_name":"Illinois","lat":41.70341,"lng":-87.77953,"zip":"60415","miles_from_dt":27.75},{"city":"Morocco","state_name":"Indiana","lat":40.96811,"lng":-87.44371,"zip":"47963","miles_from_dt":27.92},{"city":"Hometown","state_name":"Illinois","lat":41.73125,"lng":-87.73111,"zip":"60456","miles_from_dt":28.09},{"city":"Beaverville","state_name":"Illinois","lat":40.97252,"lng":-87.60245,"zip":"60912","miles_from_dt":28.34},{"city":"Kankakee","state_name":"Illinois","lat":41.11029,"lng":-87.90049,"zip":"60901","miles_from_dt":28.53},{"city":"Chicago","state_name":"Illinois","lat":41.74744,"lng":-87.71445,"zip":"60652","miles_from_dt":28.7},{"city":"Tefft","state_name":"Indiana","lat":41.19904,"lng":-86.9723,"zip":"46380","miles_from_dt":28.83},{"city":"Oak Lawn","state_name":"Illinois","lat":41.7106,"lng":-87.80534,"zip":"60454","miles_from_dt":28.93},{"city":"Palos Hills","state_name":"Illinois","lat":41.69878,"lng":-87.8267,"zip":"60465","miles_from_dt":28.96},{"city":"Palos Park","state_name":"Illinois","lat":41.67088,"lng":-87.86869,"zip":"60464","miles_from_dt":28.97},{"city":"Chicago","state_name":"Illinois","lat":41.78156,"lng":-87.6032,"zip":"60637","miles_from_dt":29.02},{"city":"Chicago","state_name":"Illinois","lat":41.77624,"lng":-87.63955,"zip":"60621","miles_from_dt":29.15},{"city":"Chicago","state_name":"Illinois","lat":41.77578,"lng":-87.66909,"zip":"60636","miles_from_dt":29.6},{"city":"Homer Glen","state_name":"Illinois","lat":41.60313,"lng":-87.9595,"zip":"60491","miles_from_dt":29.71},{"city":"Burbank","state_name":"Illinois","lat":41.74436,"lng":-87.76872,"zip":"60459","miles_from_dt":29.83}],"targetCityZipCode":"46303","targetCityState":"Indiana"},"__N_SSG":true}