{"pageProps":{"stateName":"Indiana","cityName":"pekin","nearbyCities":[{"city":"Borden","state_name":"Indiana","lat":38.46071,"lng":-85.90326,"zip":"47106","miles_from_dt":6.2},{"city":"Palmyra","state_name":"Indiana","lat":38.40462,"lng":-86.09079,"zip":"47164","miles_from_dt":8.14},{"city":"Salem","state_name":"Indiana","lat":38.6077,"lng":-86.09047,"zip":"47167","miles_from_dt":8.66},{"city":"Greenville","state_name":"Indiana","lat":38.36591,"lng":-86.00523,"zip":"47124","miles_from_dt":9.35},{"city":"Bradford","state_name":"Indiana","lat":38.36703,"lng":-86.06377,"zip":"47107","miles_from_dt":9.81},{"city":"Fredericksburg","state_name":"Indiana","lat":38.45568,"lng":-86.19075,"zip":"47120","miles_from_dt":10.55},{"city":"Floyds Knobs","state_name":"Indiana","lat":38.36699,"lng":-85.88217,"zip":"47119","miles_from_dt":11.43},{"city":"Henryville","state_name":"Indiana","lat":38.54979,"lng":-85.77844,"zip":"47126","miles_from_dt":12.72},{"city":"Memphis","state_name":"Indiana","lat":38.46877,"lng":-85.77314,"zip":"47143","miles_from_dt":12.78},{"city":"New Salisbury","state_name":"Indiana","lat":38.32281,"lng":-86.10366,"zip":"47161","miles_from_dt":13.44},{"city":"Mount Saint Francis","state_name":"Indiana","lat":38.31823,"lng":-85.9118,"zip":"47146","miles_from_dt":13.62},{"city":"Georgetown","state_name":"Indiana","lat":38.3041,"lng":-85.98303,"zip":"47122","miles_from_dt":13.67},{"city":"Underwood","state_name":"Indiana","lat":38.59947,"lng":-85.78197,"zip":"47177","miles_from_dt":13.85},{"city":"Sellersburg","state_name":"Indiana","lat":38.39745,"lng":-85.76886,"zip":"47172","miles_from_dt":14.69},{"city":"Crandall","state_name":"Indiana","lat":38.28754,"lng":-86.07335,"zip":"47114","miles_from_dt":15.22},{"city":"Scottsburg","state_name":"Indiana","lat":38.68734,"lng":-85.84667,"zip":"47170","miles_from_dt":15.42},{"city":"Depauw","state_name":"Indiana","lat":38.34465,"lng":-86.21655,"zip":"47115","miles_from_dt":15.77},{"city":"Ramsey","state_name":"Indiana","lat":38.30668,"lng":-86.16901,"zip":"47166","miles_from_dt":16.12},{"city":"Hardinsburg","state_name":"Indiana","lat":38.46341,"lng":-86.30825,"zip":"47125","miles_from_dt":16.65},{"city":"Campbellsburg","state_name":"Indiana","lat":38.6455,"lng":-86.25725,"zip":"47108","miles_from_dt":16.88},{"city":"New Albany","state_name":"Indiana","lat":38.28831,"lng":-85.84775,"zip":"47150","miles_from_dt":17.01},{"city":"New Albany","state_name":"Indiana","lat":38.2876,"lng":-85.82563,"zip":"47151","miles_from_dt":17.68},{"city":"Otisco","state_name":"Indiana","lat":38.54101,"lng":-85.67928,"zip":"47163","miles_from_dt":17.86},{"city":"Clarksville","state_name":"Indiana","lat":38.31378,"lng":-85.76874,"zip":"47129","miles_from_dt":18.23},{"city":"Lanesville","state_name":"Indiana","lat":38.23511,"lng":-85.96194,"zip":"47136","miles_from_dt":18.52},{"city":"Louisville","state_name":"Kentucky","lat":38.26787,"lng":-85.80256,"zip":"40212","miles_from_dt":19.51},{"city":"Jeffersonville","state_name":"Indiana","lat":38.33866,"lng":-85.70519,"zip":"47131","miles_from_dt":19.77},{"city":"Milltown","state_name":"Indiana","lat":38.33454,"lng":-86.30115,"zip":"47145","miles_from_dt":19.77},{"city":"Jeffersonville","state_name":"Indiana","lat":38.33273,"lng":-85.7084,"zip":"47144","miles_from_dt":19.87},{"city":"Jeffersonville","state_name":"Indiana","lat":38.33528,"lng":-85.69689,"zip":"47130","miles_from_dt":20.28},{"city":"Vallonia","state_name":"Indiana","lat":38.78563,"lng":-86.10324,"zip":"47281","miles_from_dt":20.3},{"city":"Charlestown","state_name":"Indiana","lat":38.46604,"lng":-85.63271,"zip":"47111","miles_from_dt":20.34},{"city":"Louisville","state_name":"Kentucky","lat":38.25065,"lng":-85.79999,"zip":"40251","miles_from_dt":20.58},{"city":"Jeffersonville","state_name":"Indiana","lat":38.28771,"lng":-85.73618,"zip":"47133","miles_from_dt":20.75},{"city":"Jeffersonville","state_name":"Indiana","lat":38.28807,"lng":-85.73444,"zip":"47190","miles_from_dt":20.8},{"city":"Jeffersonville","state_name":"Indiana","lat":38.28778,"lng":-85.73101,"zip":"47132","miles_from_dt":20.94},{"city":"Louisville","state_name":"Kentucky","lat":38.23425,"lng":-85.82147,"zip":"40211","miles_from_dt":20.96},{"city":"Jeffersonville","state_name":"Indiana","lat":38.28599,"lng":-85.73288,"zip":"47199","miles_from_dt":20.96},{"city":"Austin","state_name":"Indiana","lat":38.75745,"lng":-85.7951,"zip":"47102","miles_from_dt":20.99},{"city":"Jeffersonville","state_name":"Indiana","lat":38.28587,"lng":-85.73202,"zip":"47134","miles_from_dt":21},{"city":"Louisville","state_name":"Kentucky","lat":38.25486,"lng":-85.7664,"zip":"40283","miles_from_dt":21.39},{"city":"Louisville","state_name":"Kentucky","lat":38.25486,"lng":-85.7664,"zip":"40257","miles_from_dt":21.39},{"city":"Louisville","state_name":"Kentucky","lat":38.25486,"lng":-85.7664,"zip":"40282","miles_from_dt":21.39},{"city":"Marengo","state_name":"Indiana","lat":38.38063,"lng":-86.36892,"zip":"47140","miles_from_dt":21.43},{"city":"Louisville","state_name":"Kentucky","lat":38.25897,"lng":-85.75808,"zip":"40293","miles_from_dt":21.44},{"city":"Louisville","state_name":"Kentucky","lat":38.25804,"lng":-85.75914,"zip":"40294","miles_from_dt":21.46},{"city":"Louisville","state_name":"Kentucky","lat":38.25891,"lng":-85.75693,"zip":"40289","miles_from_dt":21.48},{"city":"Louisville","state_name":"Kentucky","lat":38.24705,"lng":-85.7766,"zip":"40201","miles_from_dt":21.49},{"city":"Louisville","state_name":"Kentucky","lat":38.25767,"lng":-85.75755,"zip":"40296","miles_from_dt":21.53},{"city":"Louisville","state_name":"Kentucky","lat":38.2545,"lng":-85.7616,"zip":"40297","miles_from_dt":21.57},{"city":"Louisville","state_name":"Kentucky","lat":38.25448,"lng":-85.75932,"zip":"40259","miles_from_dt":21.64},{"city":"Marysville","state_name":"Indiana","lat":38.54925,"lng":-85.60841,"zip":"47141","miles_from_dt":21.74},{"city":"Louisville","state_name":"Kentucky","lat":38.25355,"lng":-85.75791,"zip":"40270","miles_from_dt":21.74},{"city":"Louisville","state_name":"Kentucky","lat":38.25607,"lng":-85.75315,"zip":"40298","miles_from_dt":21.77},{"city":"Louisville","state_name":"Kentucky","lat":38.24722,"lng":-85.765,"zip":"40203","miles_from_dt":21.85},{"city":"Louisville","state_name":"Kentucky","lat":38.25288,"lng":-85.75205,"zip":"40202","miles_from_dt":21.97},{"city":"Louisville","state_name":"Kentucky","lat":38.24913,"lng":-85.75751,"zip":"40295","miles_from_dt":21.99},{"city":"Crothersville","state_name":"Indiana","lat":38.80289,"lng":-85.86688,"zip":"47229","miles_from_dt":22.09},{"city":"Louisville","state_name":"Kentucky","lat":38.23161,"lng":-85.78592,"zip":"40210","miles_from_dt":22.1},{"city":"Corydon","state_name":"Indiana","lat":38.19235,"lng":-86.14512,"zip":"47112","miles_from_dt":22.64},{"city":"Louisville","state_name":"Kentucky","lat":38.2176,"lng":-85.7659,"zip":"40208","miles_from_dt":23.5},{"city":"Louisville","state_name":"Kentucky","lat":38.25788,"lng":-85.70205,"zip":"40206","miles_from_dt":23.52},{"city":"Louisville","state_name":"Kentucky","lat":38.18707,"lng":-85.83738,"zip":"40216","miles_from_dt":23.52},{"city":"Glenview","state_name":"Kentucky","lat":38.30133,"lng":-85.65202,"zip":"40025","miles_from_dt":23.62},{"city":"Louisville","state_name":"Kentucky","lat":38.19541,"lng":-85.80829,"zip":"40256","miles_from_dt":23.67},{"city":"Louisville","state_name":"Kentucky","lat":38.2261,"lng":-85.74262,"zip":"40266","miles_from_dt":23.75},{"city":"Louisville","state_name":"Kentucky","lat":38.23873,"lng":-85.7208,"zip":"40204","miles_from_dt":23.81},{"city":"Harrods Creek","state_name":"Kentucky","lat":38.31693,"lng":-85.63187,"zip":"40027","miles_from_dt":23.92},{"city":"Orleans","state_name":"Indiana","lat":38.6422,"lng":-86.41901,"zip":"47452","miles_from_dt":24.42},{"city":"Louisville","state_name":"Kentucky","lat":38.21689,"lng":-85.73725,"zip":"40217","miles_from_dt":24.43},{"city":"New Middletown","state_name":"Indiana","lat":38.14817,"lng":-86.04711,"zip":"47160","miles_from_dt":24.48},{"city":"Louisville","state_name":"Kentucky","lat":38.19052,"lng":-85.78555,"zip":"40215","miles_from_dt":24.54},{"city":"Louisville","state_name":"Kentucky","lat":38.24764,"lng":-85.68704,"zip":"40280","miles_from_dt":24.59},{"city":"Paoli","state_name":"Indiana","lat":38.51596,"lng":-86.45989,"zip":"47454","miles_from_dt":24.67},{"city":"Prospect","state_name":"Kentucky","lat":38.35784,"lng":-85.58441,"zip":"40059","miles_from_dt":24.88},{"city":"Masonic Home","state_name":"Kentucky","lat":38.25615,"lng":-85.66475,"zip":"40041","miles_from_dt":25.06},{"city":"Louisville","state_name":"Kentucky","lat":38.26357,"lng":-85.65543,"zip":"40207","miles_from_dt":25.09},{"city":"Lexington","state_name":"Indiana","lat":38.68215,"lng":-85.59759,"zip":"47138","miles_from_dt":25.33},{"city":"Medora","state_name":"Indiana","lat":38.83596,"lng":-86.19909,"zip":"47260","miles_from_dt":25.34},{"city":"Louisville","state_name":"Kentucky","lat":38.14688,"lng":-85.87068,"zip":"40268","miles_from_dt":25.53},{"city":"Louisville","state_name":"Kentucky","lat":38.22782,"lng":-85.68631,"zip":"40255","miles_from_dt":25.61},{"city":"Louisville","state_name":"Kentucky","lat":38.14514,"lng":-85.87253,"zip":"40258","miles_from_dt":25.61},{"city":"Louisville","state_name":"Kentucky","lat":38.14598,"lng":-85.86708,"zip":"40281","miles_from_dt":25.64},{"city":"Louisville","state_name":"Kentucky","lat":38.22644,"lng":-85.68692,"zip":"40287","miles_from_dt":25.66},{"city":"Louisville","state_name":"Kentucky","lat":38.18644,"lng":-85.75302,"zip":"40221","miles_from_dt":25.69},{"city":"Tunnelton","state_name":"Indiana","lat":38.76776,"lng":-86.34463,"zip":"47467","miles_from_dt":25.98},{"city":"Louisville","state_name":"Kentucky","lat":38.22313,"lng":-85.68275,"zip":"40205","miles_from_dt":25.98},{"city":"Louisville","state_name":"Kentucky","lat":38.23183,"lng":-85.66985,"zip":"40292","miles_from_dt":26.03},{"city":"Louisville","state_name":"Kentucky","lat":38.18492,"lng":-85.74372,"zip":"40209","miles_from_dt":26.05},{"city":"Nabb","state_name":"Indiana","lat":38.5942,"lng":-85.53866,"zip":"47147","miles_from_dt":26.06},{"city":"Brownstown","state_name":"Indiana","lat":38.87786,"lng":-86.05471,"zip":"47220","miles_from_dt":26.1},{"city":"Goshen","state_name":"Kentucky","lat":38.42687,"lng":-85.52902,"zip":"40026","miles_from_dt":26.33},{"city":"Louisville","state_name":"Kentucky","lat":38.20128,"lng":-85.69813,"zip":"40290","miles_from_dt":26.59},{"city":"Louisville","state_name":"Kentucky","lat":38.26436,"lng":-85.61173,"zip":"40222","miles_from_dt":26.9},{"city":"Louisville","state_name":"Kentucky","lat":38.30339,"lng":-85.5774,"zip":"40241","miles_from_dt":26.94},{"city":"Louisville","state_name":"Kentucky","lat":38.19551,"lng":-85.69523,"zip":"40231","miles_from_dt":27},{"city":"Louisville","state_name":"Kentucky","lat":38.15141,"lng":-85.78285,"zip":"40214","miles_from_dt":27},{"city":"Louisville","state_name":"Kentucky","lat":38.17915,"lng":-85.72144,"zip":"40285","miles_from_dt":27.05},{"city":"Louisville","state_name":"Kentucky","lat":38.17501,"lng":-85.72025,"zip":"40232","miles_from_dt":27.32},{"city":"Louisville","state_name":"Kentucky","lat":38.26119,"lng":-85.60456,"zip":"40252","miles_from_dt":27.34},{"city":"Louisville","state_name":"Kentucky","lat":38.27639,"lng":-85.59042,"zip":"40242","miles_from_dt":27.35},{"city":"Louisville","state_name":"Kentucky","lat":38.177,"lng":-85.71571,"zip":"40213","miles_from_dt":27.35},{"city":"Elizabeth","state_name":"Indiana","lat":38.10505,"lng":-85.97275,"zip":"47117","miles_from_dt":27.4},{"city":"Paris Crossing","state_name":"Indiana","lat":38.8397,"lng":-85.71913,"zip":"47270","miles_from_dt":27.99},{"city":"New Washington","state_name":"Indiana","lat":38.55477,"lng":-85.48873,"zip":"47162","miles_from_dt":28.22},{"city":"Louisville","state_name":"Kentucky","lat":38.21896,"lng":-85.62095,"zip":"40250","miles_from_dt":28.55},{"city":"Deputy","state_name":"Indiana","lat":38.7946,"lng":-85.63139,"zip":"47230","miles_from_dt":28.59},{"city":"Louisville","state_name":"Kentucky","lat":38.19036,"lng":-85.65698,"zip":"40218","miles_from_dt":28.6},{"city":"Louisville","state_name":"Kentucky","lat":38.19274,"lng":-85.65071,"zip":"40261","miles_from_dt":28.71},{"city":"Louisville","state_name":"Kentucky","lat":38.21535,"lng":-85.61794,"zip":"40220","miles_from_dt":28.84},{"city":"Louisville","state_name":"Kentucky","lat":38.18865,"lng":-85.65148,"zip":"40225","miles_from_dt":28.89},{"city":"Grantsburg","state_name":"Indiana","lat":38.2856,"lng":-86.47181,"zip":"47123","miles_from_dt":29.39},{"city":"Leavenworth","state_name":"Indiana","lat":38.18899,"lng":-86.37626,"zip":"47137","miles_from_dt":29.52},{"city":"English","state_name":"Indiana","lat":38.29788,"lng":-86.48449,"zip":"47118","miles_from_dt":29.57}],"targetCityZipCode":"47165","targetCityState":"Indiana"},"__N_SSG":true}