{"pageProps":{"stateName":"Indiana","cityName":"wilkinson","nearbyCities":[{"city":"Shirley","state_name":"Indiana","lat":39.91365,"lng":-85.55352,"zip":"47384","miles_from_dt":4.98},{"city":"Charlottesville","state_name":"Indiana","lat":39.81507,"lng":-85.61763,"zip":"46117","miles_from_dt":5.42},{"city":"Markleville","state_name":"Indiana","lat":39.97351,"lng":-85.6105,"zip":"46056","miles_from_dt":5.93},{"city":"Kennard","state_name":"Indiana","lat":39.90442,"lng":-85.52001,"zip":"47351","miles_from_dt":6.58},{"city":"Maxwell","state_name":"Indiana","lat":39.85639,"lng":-85.77038,"zip":"46154","miles_from_dt":7.2},{"city":"Pendleton","state_name":"Indiana","lat":39.98473,"lng":-85.74701,"zip":"46064","miles_from_dt":8.5},{"city":"Knightstown","state_name":"Indiana","lat":39.80906,"lng":-85.51296,"zip":"46148","miles_from_dt":8.93},{"city":"Greenfield","state_name":"Indiana","lat":39.80358,"lng":-85.77049,"zip":"46140","miles_from_dt":9.1},{"city":"Greensboro","state_name":"Indiana","lat":39.87857,"lng":-85.464,"zip":"47344","miles_from_dt":9.54},{"city":"Ingalls","state_name":"Indiana","lat":39.9543,"lng":-85.80755,"zip":"46048","miles_from_dt":9.78},{"city":"Fortville","state_name":"Indiana","lat":39.92773,"lng":-85.83424,"zip":"46040","miles_from_dt":10.49},{"city":"Spiceland","state_name":"Indiana","lat":39.83194,"lng":-85.44825,"zip":"47385","miles_from_dt":11.12},{"city":"Anderson","state_name":"Indiana","lat":40.05021,"lng":-85.67829,"zip":"46013","miles_from_dt":11.13},{"city":"Carthage","state_name":"Indiana","lat":39.7375,"lng":-85.56623,"zip":"46115","miles_from_dt":11.36},{"city":"Middletown","state_name":"Indiana","lat":40.03079,"lng":-85.50415,"zip":"47356","miles_from_dt":12.11},{"city":"Dunreith","state_name":"Indiana","lat":39.80286,"lng":-85.43736,"zip":"47337","miles_from_dt":12.5},{"city":"Anderson","state_name":"Indiana","lat":40.07358,"lng":-85.60687,"zip":"46017","miles_from_dt":12.72},{"city":"Sulphur Springs","state_name":"Indiana","lat":40.0056,"lng":-85.44352,"zip":"47388","miles_from_dt":13.19},{"city":"Anderson","state_name":"Indiana","lat":40.08703,"lng":-85.67633,"zip":"46014","miles_from_dt":13.62},{"city":"Mccordsville","state_name":"Indiana","lat":39.88627,"lng":-85.90404,"zip":"46055","miles_from_dt":13.9},{"city":"Anderson","state_name":"Indiana","lat":40.09334,"lng":-85.6854,"zip":"46018","miles_from_dt":14.13},{"city":"Anderson","state_name":"Indiana","lat":40.09781,"lng":-85.68152,"zip":"46016","miles_from_dt":14.4},{"city":"New Castle","state_name":"Indiana","lat":39.93186,"lng":-85.36998,"zip":"47362","miles_from_dt":14.75},{"city":"Anderson","state_name":"Indiana","lat":40.1086,"lng":-85.67518,"zip":"46015","miles_from_dt":15.09},{"city":"Mays","state_name":"Indiana","lat":39.74355,"lng":-85.42966,"zip":"46155","miles_from_dt":15.24},{"city":"Lapel","state_name":"Indiana","lat":40.05855,"lng":-85.83794,"zip":"46051","miles_from_dt":15.51},{"city":"Morristown","state_name":"Indiana","lat":39.66959,"lng":-85.69395,"zip":"46161","miles_from_dt":15.54},{"city":"Gwynneville","state_name":"Indiana","lat":39.66586,"lng":-85.64706,"zip":"46144","miles_from_dt":15.55},{"city":"Mount Summit","state_name":"Indiana","lat":40.00415,"lng":-85.38492,"zip":"47361","miles_from_dt":15.75},{"city":"Finly","state_name":"Indiana","lat":39.70578,"lng":-85.82339,"zip":"46129","miles_from_dt":16.01},{"city":"Arlington","state_name":"Indiana","lat":39.66041,"lng":-85.59545,"zip":"46104","miles_from_dt":16.12},{"city":"Lewisville","state_name":"Indiana","lat":39.79597,"lng":-85.3637,"zip":"47352","miles_from_dt":16.23},{"city":"Daleville","state_name":"Indiana","lat":40.11267,"lng":-85.52357,"zip":"47334","miles_from_dt":16.53},{"city":"Fishers","state_name":"Indiana","lat":39.96077,"lng":-85.94446,"zip":"46037","miles_from_dt":16.73},{"city":"Indianapolis","state_name":"Indiana","lat":39.89132,"lng":-85.96766,"zip":"46236","miles_from_dt":17.27},{"city":"Anderson","state_name":"Indiana","lat":40.12759,"lng":-85.76178,"zip":"46011","miles_from_dt":17.49},{"city":"Springport","state_name":"Indiana","lat":40.05277,"lng":-85.38305,"zip":"47386","miles_from_dt":17.72},{"city":"Anderson","state_name":"Indiana","lat":40.1492,"lng":-85.62552,"zip":"46012","miles_from_dt":17.82},{"city":"New Palestine","state_name":"Indiana","lat":39.7287,"lng":-85.90435,"zip":"46163","miles_from_dt":17.88},{"city":"Indianapolis","state_name":"Indiana","lat":39.83784,"lng":-85.97651,"zip":"46235","miles_from_dt":18.13},{"city":"Fountaintown","state_name":"Indiana","lat":39.67464,"lng":-85.83571,"zip":"46130","miles_from_dt":18.14},{"city":"Oakville","state_name":"Indiana","lat":40.08366,"lng":-85.39207,"zip":"47367","miles_from_dt":18.79},{"city":"Straughn","state_name":"Indiana","lat":39.83677,"lng":-85.2945,"zip":"47387","miles_from_dt":18.89},{"city":"Indianapolis","state_name":"Indiana","lat":39.78852,"lng":-85.978,"zip":"46229","miles_from_dt":19.19},{"city":"Indianapolis","state_name":"Indiana","lat":39.862,"lng":-86.00204,"zip":"46249","miles_from_dt":19.21},{"city":"Noblesville","state_name":"Indiana","lat":40.06616,"lng":-85.93137,"zip":"46060","miles_from_dt":19.51},{"city":"Indianapolis","state_name":"Indiana","lat":39.86593,"lng":-86.00929,"zip":"46216","miles_from_dt":19.57},{"city":"Indianapolis","state_name":"Indiana","lat":39.90682,"lng":-86.01152,"zip":"46256","miles_from_dt":19.63},{"city":"Fishers","state_name":"Indiana","lat":39.96,"lng":-86.01219,"zip":"46085","miles_from_dt":20.19},{"city":"New Lisbon","state_name":"Indiana","lat":39.86127,"lng":-85.26068,"zip":"47366","miles_from_dt":20.41},{"city":"Fishers","state_name":"Indiana","lat":39.96722,"lng":-86.01712,"zip":"46038","miles_from_dt":20.57},{"city":"Falmouth","state_name":"Indiana","lat":39.71766,"lng":-85.3158,"zip":"46127","miles_from_dt":21.12},{"city":"Yorktown","state_name":"Indiana","lat":40.18661,"lng":-85.51632,"zip":"47396","miles_from_dt":21.45},{"city":"Muncie","state_name":"Indiana","lat":40.13032,"lng":-85.37925,"zip":"47308","miles_from_dt":21.62},{"city":"Muncie","state_name":"Indiana","lat":40.12992,"lng":-85.37553,"zip":"47302","miles_from_dt":21.72},{"city":"Homer","state_name":"Indiana","lat":39.57968,"lng":-85.56972,"zip":"46146","miles_from_dt":21.84},{"city":"Indianapolis","state_name":"Indiana","lat":39.83968,"lng":-86.05117,"zip":"46226","miles_from_dt":22.01},{"city":"Mooreland","state_name":"Indiana","lat":40.01677,"lng":-85.2614,"zip":"47360","miles_from_dt":22.02},{"city":"Indianapolis","state_name":"Indiana","lat":39.72311,"lng":-86.0004,"zip":"46239","miles_from_dt":22.29},{"city":"Indianapolis","state_name":"Indiana","lat":39.78314,"lng":-86.04444,"zip":"46219","miles_from_dt":22.63},{"city":"Indianapolis","state_name":"Indiana","lat":39.90399,"lng":-86.06864,"zip":"46250","miles_from_dt":22.65},{"city":"Fairland","state_name":"Indiana","lat":39.62053,"lng":-85.88694,"zip":"46126","miles_from_dt":22.76},{"city":"Rushville","state_name":"Indiana","lat":39.60294,"lng":-85.42677,"zip":"46173","miles_from_dt":22.97},{"city":"Frankton","state_name":"Indiana","lat":40.2085,"lng":-85.79026,"zip":"46044","miles_from_dt":23.25},{"city":"Bentonville","state_name":"Indiana","lat":39.74849,"lng":-85.2418,"zip":"47322","miles_from_dt":23.49},{"city":"Noblesville","state_name":"Indiana","lat":40.05761,"lng":-86.03172,"zip":"46061","miles_from_dt":23.63},{"city":"Muncie","state_name":"Indiana","lat":40.17769,"lng":-85.39506,"zip":"47307","miles_from_dt":23.73},{"city":"Dublin","state_name":"Indiana","lat":39.81171,"lng":-85.20675,"zip":"47335","miles_from_dt":23.82},{"city":"Manilla","state_name":"Indiana","lat":39.54695,"lng":-85.60232,"zip":"46150","miles_from_dt":23.85},{"city":"Carmel","state_name":"Indiana","lat":39.97975,"lng":-86.08595,"zip":"46033","miles_from_dt":24.32},{"city":"Indianapolis","state_name":"Indiana","lat":39.65078,"lng":-85.98692,"zip":"46259","miles_from_dt":24.72},{"city":"Indianapolis","state_name":"Indiana","lat":39.8676,"lng":-86.10818,"zip":"46220","miles_from_dt":24.8},{"city":"Noblesville","state_name":"Indiana","lat":40.06146,"lng":-86.05523,"zip":"46062","miles_from_dt":24.85},{"city":"Indianapolis","state_name":"Indiana","lat":39.86675,"lng":-86.10915,"zip":"46230","miles_from_dt":24.85},{"city":"Alexandria","state_name":"Indiana","lat":40.25141,"lng":-85.65838,"zip":"46001","miles_from_dt":24.86},{"city":"Muncie","state_name":"Indiana","lat":40.19387,"lng":-85.38556,"zip":"47305","miles_from_dt":24.93},{"city":"Indianapolis","state_name":"Indiana","lat":39.80713,"lng":-86.09958,"zip":"46218","miles_from_dt":24.98},{"city":"Muncie","state_name":"Indiana","lat":40.20542,"lng":-85.40726,"zip":"47306","miles_from_dt":25.01},{"city":"Cambridge City","state_name":"Indiana","lat":39.8318,"lng":-85.17314,"zip":"47327","miles_from_dt":25.3},{"city":"Indianapolis","state_name":"Indiana","lat":39.93714,"lng":-86.11786,"zip":"46280","miles_from_dt":25.44},{"city":"Muncie","state_name":"Indiana","lat":40.23398,"lng":-85.45973,"zip":"47304","miles_from_dt":25.56},{"city":"Indianapolis","state_name":"Indiana","lat":39.90697,"lng":-86.12367,"zip":"46240","miles_from_dt":25.58},{"city":"Hagerstown","state_name":"Indiana","lat":39.93442,"lng":-85.16306,"zip":"47346","miles_from_dt":25.65},{"city":"Losantville","state_name":"Indiana","lat":40.04628,"lng":-85.19933,"zip":"47354","miles_from_dt":25.85},{"city":"Carmel","state_name":"Indiana","lat":39.9798,"lng":-86.11924,"zip":"46082","miles_from_dt":26.04},{"city":"Shelbyville","state_name":"Indiana","lat":39.52684,"lng":-85.77297,"zip":"46176","miles_from_dt":26.08},{"city":"Indianapolis","state_name":"Indiana","lat":39.77369,"lng":-86.10949,"zip":"46201","miles_from_dt":26.12},{"city":"Indianapolis","state_name":"Indiana","lat":39.77728,"lng":-86.11179,"zip":"46283","miles_from_dt":26.16},{"city":"Indianapolis","state_name":"Indiana","lat":39.7368,"lng":-86.09586,"zip":"46203","miles_from_dt":26.36},{"city":"Indianapolis","state_name":"Indiana","lat":39.82813,"lng":-86.13499,"zip":"46205","miles_from_dt":26.54},{"city":"Orestes","state_name":"Indiana","lat":40.27184,"lng":-85.72389,"zip":"46063","miles_from_dt":26.61},{"city":"Beech Grove","state_name":"Indiana","lat":39.71661,"lng":-86.09161,"zip":"46107","miles_from_dt":26.76},{"city":"Selma","state_name":"Indiana","lat":40.15123,"lng":-85.26399,"zip":"47383","miles_from_dt":26.93},{"city":"Cicero","state_name":"Indiana","lat":40.13291,"lng":-86.04128,"zip":"46034","miles_from_dt":26.93},{"city":"Boggstown","state_name":"Indiana","lat":39.56021,"lng":-85.91333,"zip":"46110","miles_from_dt":27.01},{"city":"Pershing","state_name":"Indiana","lat":39.81281,"lng":-85.13779,"zip":"47370","miles_from_dt":27.39},{"city":"Indianapolis","state_name":"Indiana","lat":39.67247,"lng":-86.0759,"zip":"46237","miles_from_dt":27.56},{"city":"Glenwood","state_name":"Indiana","lat":39.58945,"lng":-85.30044,"zip":"46133","miles_from_dt":27.67},{"city":"Indianapolis","state_name":"Indiana","lat":39.93376,"lng":-86.16256,"zip":"46290","miles_from_dt":27.78},{"city":"Arcadia","state_name":"Indiana","lat":40.17031,"lng":-86.02118,"zip":"46030","miles_from_dt":27.82},{"city":"Milton","state_name":"Indiana","lat":39.75773,"lng":-85.14795,"zip":"47357","miles_from_dt":27.88},{"city":"Indianapolis","state_name":"Indiana","lat":39.7771,"lng":-86.1458,"zip":"46288","miles_from_dt":27.9},{"city":"Indianapolis","state_name":"Indiana","lat":39.77203,"lng":-86.15502,"zip":"46277","miles_from_dt":28.47},{"city":"Indianapolis","state_name":"Indiana","lat":39.89744,"lng":-86.17927,"zip":"46260","miles_from_dt":28.52},{"city":"Carmel","state_name":"Indiana","lat":39.96535,"lng":-86.17104,"zip":"46032","miles_from_dt":28.53},{"city":"Indianapolis","state_name":"Indiana","lat":39.77134,"lng":-86.15703,"zip":"46204","miles_from_dt":28.58},{"city":"Indianapolis","state_name":"Indiana","lat":39.82307,"lng":-86.17307,"zip":"46208","miles_from_dt":28.59},{"city":"Indianapolis","state_name":"Indiana","lat":39.78363,"lng":-86.16187,"zip":"46202","miles_from_dt":28.6},{"city":"Indianapolis","state_name":"Indiana","lat":39.77438,"lng":-86.15879,"zip":"46244","miles_from_dt":28.61},{"city":"Indianapolis","state_name":"Indiana","lat":39.76798,"lng":-86.15809,"zip":"46262","miles_from_dt":28.71},{"city":"Needham","state_name":"Indiana","lat":39.55021,"lng":-85.95242,"zip":"46162","miles_from_dt":28.74},{"city":"Indianapolis","state_name":"Indiana","lat":39.76938,"lng":-86.16017,"zip":"46282","miles_from_dt":28.78},{"city":"Indianapolis","state_name":"Indiana","lat":39.76027,"lng":-86.16107,"zip":"46206","miles_from_dt":29.02},{"city":"Indianapolis","state_name":"Indiana","lat":39.76674,"lng":-86.16397,"zip":"46255","miles_from_dt":29.03},{"city":"Indianapolis","state_name":"Indiana","lat":39.745,"lng":-86.15861,"zip":"46209","miles_from_dt":29.25},{"city":"Atlanta","state_name":"Indiana","lat":40.20935,"lng":-86.01018,"zip":"46031","miles_from_dt":29.35},{"city":"Milroy","state_name":"Indiana","lat":39.48451,"lng":-85.4806,"zip":"46156","miles_from_dt":29.36},{"city":"Indianapolis","state_name":"Indiana","lat":39.74301,"lng":-86.16281,"zip":"46285","miles_from_dt":29.5},{"city":"Economy","state_name":"Indiana","lat":39.96337,"lng":-85.09471,"zip":"47339","miles_from_dt":29.53},{"city":"Indianapolis","state_name":"Indiana","lat":39.74062,"lng":-86.16294,"zip":"46225","miles_from_dt":29.57},{"city":"Indianapolis","state_name":"Indiana","lat":39.74224,"lng":-86.1643,"zip":"46207","miles_from_dt":29.6},{"city":"Waldron","state_name":"Indiana","lat":39.46157,"lng":-85.67005,"zip":"46182","miles_from_dt":29.68},{"city":"Elwood","state_name":"Indiana","lat":40.29689,"lng":-85.83289,"zip":"46036","miles_from_dt":29.75},{"city":"Muncie","state_name":"Indiana","lat":40.27108,"lng":-85.37648,"zip":"47303","miles_from_dt":29.76},{"city":"Indianapolis","state_name":"Indiana","lat":39.8487,"lng":-86.20045,"zip":"46228","miles_from_dt":29.8},{"city":"Westfield","state_name":"Indiana","lat":40.03651,"lng":-86.17289,"zip":"46074","miles_from_dt":29.88},{"city":"Indianapolis","state_name":"Indiana","lat":39.67554,"lng":-86.12938,"zip":"46247","miles_from_dt":29.88},{"city":"Indianapolis","state_name":"Indiana","lat":39.67607,"lng":-86.13145,"zip":"46227","miles_from_dt":29.96}],"targetCityZipCode":"46186","targetCityState":"Indiana"},"__N_SSG":true}