{"pageProps":{"stateName":"Texas","cityName":"carmine","nearbyCities":[{"city":"Ledbetter","state_name":"Texas","lat":30.18947,"lng":-96.77412,"zip":"78946","miles_from_dt":4.29},{"city":"Burton","state_name":"Texas","lat":30.19439,"lng":-96.59257,"zip":"77835","miles_from_dt":7.18},{"city":"Round Top","state_name":"Texas","lat":30.04507,"lng":-96.69774,"zip":"78954","miles_from_dt":8.32},{"city":"Warrenton","state_name":"Texas","lat":30.01722,"lng":-96.73167,"zip":"78961","miles_from_dt":10.32},{"city":"Giddings","state_name":"Texas","lat":30.16803,"lng":-96.93153,"zip":"78942","miles_from_dt":13.38},{"city":"Warda","state_name":"Texas","lat":30.05358,"lng":-96.91558,"zip":"78960","miles_from_dt":14.64},{"city":"Dime Box","state_name":"Texas","lat":30.3623,"lng":-96.84035,"zip":"77853","miles_from_dt":15.69},{"city":"Fayetteville","state_name":"Texas","lat":29.93139,"lng":-96.66701,"zip":"78940","miles_from_dt":16.32},{"city":"Industry","state_name":"Texas","lat":30.00401,"lng":-96.48945,"zip":"78944","miles_from_dt":17.18},{"city":"Lyons","state_name":"Texas","lat":30.39306,"lng":-96.55946,"zip":"77863","miles_from_dt":18.01},{"city":"Brenham","state_name":"Texas","lat":30.20842,"lng":-96.40797,"zip":"77833","miles_from_dt":18.19},{"city":"Deanville","state_name":"Texas","lat":30.42833,"lng":-96.7573,"zip":"77852","miles_from_dt":18.34},{"city":"Bleiblerville","state_name":"Texas","lat":30.03117,"lng":-96.44291,"zip":"78931","miles_from_dt":18.38},{"city":"Lincoln","state_name":"Texas","lat":30.30748,"lng":-96.97022,"zip":"78948","miles_from_dt":18.48},{"city":"Brenham","state_name":"Texas","lat":30.16811,"lng":-96.39782,"zip":"77834","miles_from_dt":18.56},{"city":"La Grange","state_name":"Texas","lat":29.91594,"lng":-96.89031,"zip":"78945","miles_from_dt":20.38},{"city":"Somerville","state_name":"Texas","lat":30.40078,"lng":-96.49378,"zip":"77879","miles_from_dt":20.65},{"city":"Plum","state_name":"Texas","lat":29.93636,"lng":-96.96819,"zip":"78952","miles_from_dt":22.19},{"city":"New Ulm","state_name":"Texas","lat":29.90735,"lng":-96.48518,"zip":"78950","miles_from_dt":22.24},{"city":"Ellinger","state_name":"Texas","lat":29.82757,"lng":-96.7041,"zip":"78938","miles_from_dt":23.28},{"city":"Kenney","state_name":"Texas","lat":30.04654,"lng":-96.31901,"zip":"77452","miles_from_dt":24.69},{"city":"Paige","state_name":"Texas","lat":30.20667,"lng":-97.12624,"zip":"78659","miles_from_dt":25.19},{"city":"West Point","state_name":"Texas","lat":29.92586,"lng":-97.02767,"zip":"78963","miles_from_dt":25.29},{"city":"Caldwell","state_name":"Texas","lat":30.53798,"lng":-96.67813,"zip":"77836","miles_from_dt":25.71},{"city":"Snook","state_name":"Texas","lat":30.47222,"lng":-96.45089,"zip":"77878","miles_from_dt":26.12},{"city":"Lexington","state_name":"Texas","lat":30.42378,"lng":-97.04183,"zip":"78947","miles_from_dt":26.73},{"city":"Chappell Hill","state_name":"Texas","lat":30.11633,"lng":-96.24721,"zip":"77426","miles_from_dt":27.79},{"city":"Smithville","state_name":"Texas","lat":30.01279,"lng":-97.17481,"zip":"78957","miles_from_dt":29.88}],"targetCityZipCode":"78932","targetCityState":"Texas"},"__N_SSG":true}