{"pageProps":{"stateName":"Texas","cityName":"gonzales","nearbyCities":[{"city":"Cost","state_name":"Texas","lat":29.41314,"lng":-97.59429,"zip":"78614","miles_from_dt":9.72},{"city":"Wrightsboro","state_name":"Texas","lat":29.34174,"lng":-97.59335,"zip":"78677","miles_from_dt":12.7},{"city":"Ottine","state_name":"Texas","lat":29.59339,"lng":-97.62661,"zip":"78658","miles_from_dt":13.25},{"city":"Belmont","state_name":"Texas","lat":29.52393,"lng":-97.68192,"zip":"78604","miles_from_dt":14.28},{"city":"Harwood","state_name":"Texas","lat":29.68866,"lng":-97.46858,"zip":"78632","miles_from_dt":14.57},{"city":"Shiner","state_name":"Texas","lat":29.45373,"lng":-97.18849,"zip":"77984","miles_from_dt":15.9},{"city":"Leesville","state_name":"Texas","lat":29.44512,"lng":-97.72212,"zip":"78122","miles_from_dt":16.5},{"city":"Waelder","state_name":"Texas","lat":29.69877,"lng":-97.30153,"zip":"78959","miles_from_dt":17.69},{"city":"Smiley","state_name":"Texas","lat":29.23031,"lng":-97.58247,"zip":"78159","miles_from_dt":18.79},{"city":"Luling","state_name":"Texas","lat":29.69594,"lng":-97.63827,"zip":"78648","miles_from_dt":18.8},{"city":"Westhoff","state_name":"Texas","lat":29.17977,"lng":-97.46563,"zip":"77994","miles_from_dt":20.53},{"city":"Nixon","state_name":"Texas","lat":29.30758,"lng":-97.7619,"zip":"78140","miles_from_dt":22.11},{"city":"Moulton","state_name":"Texas","lat":29.56843,"lng":-97.08818,"zip":"77975","miles_from_dt":22.73},{"city":"Sweet Home","state_name":"Texas","lat":29.34569,"lng":-97.08019,"zip":"77987","miles_from_dt":24.13},{"city":"Kingsbury","state_name":"Texas","lat":29.65821,"lng":-97.79595,"zip":"78638","miles_from_dt":24.21},{"city":"Prairie Lea","state_name":"Texas","lat":29.72925,"lng":-97.74212,"zip":"78661","miles_from_dt":24.65},{"city":"Flatonia","state_name":"Texas","lat":29.74201,"lng":-97.1561,"zip":"78941","miles_from_dt":25.43},{"city":"Rosanky","state_name":"Texas","lat":29.85552,"lng":-97.35214,"zip":"78953","miles_from_dt":26.7},{"city":"Cuero","state_name":"Texas","lat":29.0966,"lng":-97.29533,"zip":"77954","miles_from_dt":27.87},{"city":"Hochheim","state_name":"Texas","lat":29.2412,"lng":-97.06962,"zip":"77967","miles_from_dt":28.19},{"city":"Fentress","state_name":"Texas","lat":29.77225,"lng":-97.78229,"zip":"78622","miles_from_dt":28.45},{"city":"Pandora","state_name":"Texas","lat":29.26267,"lng":-97.86085,"zip":"78143","miles_from_dt":28.82},{"city":"Yoakum","state_name":"Texas","lat":29.20384,"lng":-97.08814,"zip":"77995","miles_from_dt":28.89},{"city":"Seguin","state_name":"Texas","lat":29.56732,"lng":-97.93086,"zip":"78156","miles_from_dt":29.56},{"city":"Seguin","state_name":"Texas","lat":29.53305,"lng":-97.93832,"zip":"78155","miles_from_dt":29.61}],"targetCityZipCode":"78629","targetCityState":"Texas"},"__N_SSG":true}