{"pageProps":{"stateName":"Texas","cityName":"hart","nearbyCities":[{"city":"Nazareth","state_name":"Texas","lat":34.51063,"lng":-102.115,"zip":"79063","miles_from_dt":9.94},{"city":"Olton","state_name":"Texas","lat":34.17738,"lng":-102.12699,"zip":"79064","miles_from_dt":13.13},{"city":"Springlake","state_name":"Texas","lat":34.21881,"lng":-102.2862,"zip":"79082","miles_from_dt":13.33},{"city":"Dimmitt","state_name":"Texas","lat":34.49238,"lng":-102.3378,"zip":"79027","miles_from_dt":14.32},{"city":"Edmonson","state_name":"Texas","lat":34.2878,"lng":-101.89492,"zip":"79032","miles_from_dt":14.92},{"city":"Fieldton","state_name":"Texas","lat":34.09913,"lng":-102.21433,"zip":"79326","miles_from_dt":19.02},{"city":"Earth","state_name":"Texas","lat":34.24501,"lng":-102.45225,"zip":"79031","miles_from_dt":19.89},{"city":"Kress","state_name":"Texas","lat":34.35869,"lng":-101.76276,"zip":"79052","miles_from_dt":21.42},{"city":"Amherst","state_name":"Texas","lat":34.06218,"lng":-102.36794,"zip":"79312","miles_from_dt":24.85},{"city":"Hale Center","state_name":"Texas","lat":34.0376,"lng":-101.93466,"zip":"79041","miles_from_dt":25.54},{"city":"Lazbuddie","state_name":"Texas","lat":34.40284,"lng":-102.59106,"zip":"79053","miles_from_dt":26.04},{"city":"Plainview","state_name":"Texas","lat":34.1719,"lng":-101.745,"zip":"79072","miles_from_dt":26.19},{"city":"Cotton Center","state_name":"Texas","lat":33.98366,"lng":-101.99302,"zip":"79021","miles_from_dt":27.73},{"city":"Tulia","state_name":"Texas","lat":34.57463,"lng":-101.69315,"zip":"79088","miles_from_dt":29.1},{"city":"Spade","state_name":"Texas","lat":33.94322,"lng":-102.15916,"zip":"79369","miles_from_dt":29.28},{"city":"Happy","state_name":"Texas","lat":34.74802,"lng":-101.89449,"zip":"79042","miles_from_dt":29.66}],"targetCityZipCode":"79043","targetCityState":"Texas"},"__N_SSG":true}