{"pageProps":{"stateName":"Texas","cityName":"leesburg","nearbyCities":[{"city":"Scroggins","state_name":"Texas","lat":33.02129,"lng":-95.19159,"zip":"75480","miles_from_dt":5.88},{"city":"Winnsboro","state_name":"Texas","lat":32.90898,"lng":-95.26126,"zip":"75494","miles_from_dt":9.09},{"city":"Pittsburg","state_name":"Texas","lat":32.96921,"lng":-94.94697,"zip":"75686","miles_from_dt":9.97},{"city":"Winfield","state_name":"Texas","lat":33.14073,"lng":-95.11316,"zip":"75493","miles_from_dt":12.29},{"city":"Gilmer","state_name":"Texas","lat":32.79171,"lng":-94.99498,"zip":"75644","miles_from_dt":13.78},{"city":"Mount Vernon","state_name":"Texas","lat":33.1746,"lng":-95.21125,"zip":"75457","miles_from_dt":15.58},{"city":"Mount Pleasant","state_name":"Texas","lat":33.15819,"lng":-94.96805,"zip":"75456","miles_from_dt":16.06},{"city":"Pickton","state_name":"Texas","lat":33.04431,"lng":-95.38883,"zip":"75471","miles_from_dt":16.69},{"city":"Mount Pleasant","state_name":"Texas","lat":33.21725,"lng":-94.98022,"zip":"75455","miles_from_dt":19.3},{"city":"Saltillo","state_name":"Texas","lat":33.17276,"lng":-95.35226,"zip":"75478","miles_from_dt":19.86},{"city":"Quitman","state_name":"Texas","lat":32.82227,"lng":-95.42386,"zip":"75783","miles_from_dt":20.22},{"city":"Como","state_name":"Texas","lat":33.0073,"lng":-95.4628,"zip":"75431","miles_from_dt":20.24},{"city":"Daingerfield","state_name":"Texas","lat":33.01869,"lng":-94.73173,"zip":"75638","miles_from_dt":22.78},{"city":"Big Sandy","state_name":"Texas","lat":32.63236,"lng":-95.08662,"zip":"75755","miles_from_dt":22.82},{"city":"Hawkins","state_name":"Texas","lat":32.64119,"lng":-95.2359,"zip":"75765","miles_from_dt":23.17},{"city":"Gilmer","state_name":"Texas","lat":32.68375,"lng":-94.87317,"zip":"75645","miles_from_dt":23.93},{"city":"Ore City","state_name":"Texas","lat":32.82182,"lng":-94.74035,"zip":"75683","miles_from_dt":24.02},{"city":"Cason","state_name":"Texas","lat":32.94351,"lng":-94.70518,"zip":"75636","miles_from_dt":24.04},{"city":"Cookville","state_name":"Texas","lat":33.25017,"lng":-94.85564,"zip":"75558","miles_from_dt":25.01},{"city":"Lone Star","state_name":"Texas","lat":32.90846,"lng":-94.68485,"zip":"75668","miles_from_dt":25.46},{"city":"Talco","state_name":"Texas","lat":33.33584,"lng":-95.16567,"zip":"75487","miles_from_dt":25.88},{"city":"Big Sandy","state_name":"Texas","lat":32.583,"lng":-95.106,"zip":"75797","miles_from_dt":26.16},{"city":"Omaha","state_name":"Texas","lat":33.20704,"lng":-94.76407,"zip":"75571","miles_from_dt":26.58},{"city":"Yantis","state_name":"Texas","lat":32.92098,"lng":-95.5764,"zip":"75497","miles_from_dt":26.77},{"city":"Mineola","state_name":"Texas","lat":32.67969,"lng":-95.44654,"zip":"75773","miles_from_dt":27.28},{"city":"Dike","state_name":"Texas","lat":33.25605,"lng":-95.46567,"zip":"75437","miles_from_dt":28.55},{"city":"Sulphur Bluff","state_name":"Texas","lat":33.31751,"lng":-95.37485,"zip":"75481","miles_from_dt":28.63}],"targetCityZipCode":"75451","targetCityState":"Texas"},"__N_SSG":true}