{"pageProps":{"stateName":"Texas","cityName":"new-baden","nearbyCities":[{"city":"Franklin","state_name":"Texas","lat":31.07714,"lng":-96.41499,"zip":"77856","miles_from_dt":2.04},{"city":"Wheelock","state_name":"Texas","lat":30.91139,"lng":-96.37909,"zip":"77882","miles_from_dt":9.87},{"city":"Hearne","state_name":"Texas","lat":30.88012,"lng":-96.51707,"zip":"77859","miles_from_dt":12.84},{"city":"Calvert","state_name":"Texas","lat":31.00704,"lng":-96.67718,"zip":"77837","miles_from_dt":15.2},{"city":"Bremond","state_name":"Texas","lat":31.15114,"lng":-96.65499,"zip":"76629","miles_from_dt":15.31},{"city":"Marquez","state_name":"Texas","lat":31.22275,"lng":-96.22553,"zip":"77865","miles_from_dt":16.85},{"city":"Normangee","state_name":"Texas","lat":31.05129,"lng":-96.10903,"zip":"77871","miles_from_dt":18.78},{"city":"Bryan","state_name":"Texas","lat":30.78965,"lng":-96.31362,"zip":"77808","miles_from_dt":19.07},{"city":"Flynn","state_name":"Texas","lat":31.14741,"lng":-96.11217,"zip":"77855","miles_from_dt":19.78},{"city":"Kosse","state_name":"Texas","lat":31.29963,"lng":-96.60536,"zip":"76653","miles_from_dt":20.29},{"city":"Kurten","state_name":"Texas","lat":30.78475,"lng":-96.26516,"zip":"77862","miles_from_dt":20.55},{"city":"Thornton","state_name":"Texas","lat":31.36914,"lng":-96.48691,"zip":"76687","miles_from_dt":22.35},{"city":"North Zulch","state_name":"Texas","lat":30.88539,"lng":-96.0971,"zip":"77872","miles_from_dt":22.52},{"city":"Mumford","state_name":"Texas","lat":30.74163,"lng":-96.56992,"zip":"77867","miles_from_dt":22.85},{"city":"Concord","state_name":"Texas","lat":31.25732,"lng":-96.11709,"zip":"77850","miles_from_dt":23.24},{"city":"Reagan","state_name":"Texas","lat":31.18798,"lng":-96.80383,"zip":"76680","miles_from_dt":24.38},{"city":"Jewett","state_name":"Texas","lat":31.34683,"lng":-96.18118,"zip":"75846","miles_from_dt":25.11},{"city":"Bryan","state_name":"Texas","lat":30.67835,"lng":-96.3867,"zip":"77803","miles_from_dt":25.64},{"city":"Bryan","state_name":"Texas","lat":30.6783,"lng":-96.47982,"zip":"77807","miles_from_dt":25.74},{"city":"Bryan","state_name":"Texas","lat":30.67591,"lng":-96.36828,"zip":"77806","miles_from_dt":25.93},{"city":"Gause","state_name":"Texas","lat":30.78246,"lng":-96.73927,"zip":"77857","miles_from_dt":26.16},{"city":"Bryan","state_name":"Texas","lat":30.67294,"lng":-96.34302,"zip":"77805","miles_from_dt":26.37},{"city":"Bryan","state_name":"Texas","lat":30.6609,"lng":-96.32233,"zip":"77802","miles_from_dt":27.43},{"city":"Bryan","state_name":"Texas","lat":30.63968,"lng":-96.36451,"zip":"77801","miles_from_dt":28.43},{"city":"College Station","state_name":"Texas","lat":30.62996,"lng":-96.33321,"zip":"77842","miles_from_dt":29.39},{"city":"Iola","state_name":"Texas","lat":30.72477,"lng":-96.09908,"zip":"77861","miles_from_dt":29.59}],"targetCityZipCode":"77870","targetCityState":"Texas"},"__N_SSG":true}