{"pageProps":{"stateName":"Texas","cityName":"saint-jo","nearbyCities":[{"city":"Muenster","state_name":"Texas","lat":33.67788,"lng":-97.38695,"zip":"76252","miles_from_dt":9.78},{"city":"Leon","state_name":"Oklahoma","lat":33.8674,"lng":-97.44021,"zip":"73441","miles_from_dt":10.42},{"city":"Montague","state_name":"Texas","lat":33.65455,"lng":-97.69076,"zip":"76251","miles_from_dt":10.56},{"city":"Nocona","state_name":"Texas","lat":33.8179,"lng":-97.71625,"zip":"76255","miles_from_dt":11.49},{"city":"Forestburg","state_name":"Texas","lat":33.524,"lng":-97.57033,"zip":"76239","miles_from_dt":15.05},{"city":"Myra","state_name":"Texas","lat":33.62516,"lng":-97.31327,"zip":"76253","miles_from_dt":15.26},{"city":"Burneyville","state_name":"Oklahoma","lat":33.91,"lng":-97.36106,"zip":"73430","miles_from_dt":15.53},{"city":"Rosston","state_name":"Texas","lat":33.50435,"lng":-97.43735,"zip":"76263","miles_from_dt":17.32},{"city":"Lindsay","state_name":"Texas","lat":33.63006,"lng":-97.24237,"zip":"76250","miles_from_dt":18.73},{"city":"Oscar","state_name":"Oklahoma","lat":33.95997,"lng":-97.76134,"zip":"73561","miles_from_dt":19.78},{"city":"Terral","state_name":"Oklahoma","lat":33.93772,"lng":-97.80363,"zip":"73569","miles_from_dt":20.38},{"city":"Era","state_name":"Texas","lat":33.4861,"lng":-97.34148,"zip":"76238","miles_from_dt":20.93},{"city":"Gainesville","state_name":"Texas","lat":33.65654,"lng":-97.17766,"zip":"76240","miles_from_dt":21.62},{"city":"Gainesville","state_name":"Texas","lat":33.64542,"lng":-97.17628,"zip":"76241","miles_from_dt":21.92},{"city":"Thackerville","state_name":"Oklahoma","lat":33.77534,"lng":-97.14213,"zip":"73459","miles_from_dt":22.98},{"city":"Sunset","state_name":"Texas","lat":33.45471,"lng":-97.76247,"zip":"76270","miles_from_dt":23.55},{"city":"Ringgold","state_name":"Texas","lat":33.80291,"lng":-97.96233,"zip":"76261","miles_from_dt":24.73},{"city":"Greenwood","state_name":"Texas","lat":33.3785,"lng":-97.47447,"zip":"76246","miles_from_dt":25.25},{"city":"Overbrook","state_name":"Oklahoma","lat":34.03473,"lng":-97.27046,"zip":"73453","miles_from_dt":25.48},{"city":"Wilson","state_name":"Oklahoma","lat":34.11584,"lng":-97.42905,"zip":"73463","miles_from_dt":26.61},{"city":"Ringling","state_name":"Oklahoma","lat":34.12211,"lng":-97.62412,"zip":"73456","miles_from_dt":26.73},{"city":"Slidell","state_name":"Texas","lat":33.36935,"lng":-97.39711,"zip":"76267","miles_from_dt":26.88},{"city":"Alvord","state_name":"Texas","lat":33.36616,"lng":-97.67345,"zip":"76225","miles_from_dt":26.96},{"city":"Ryan","state_name":"Oklahoma","lat":34.02326,"lng":-97.8751,"zip":"73565","miles_from_dt":27.42},{"city":"Bowie","state_name":"Texas","lat":33.52264,"lng":-97.94497,"zip":"76230","miles_from_dt":27.81},{"city":"Marietta","state_name":"Oklahoma","lat":33.94813,"lng":-97.10581,"zip":"73448","miles_from_dt":28.73}],"targetCityZipCode":"76265","targetCityState":"Texas"},"__N_SSG":true}