{"pageProps":{"stateName":"Texas","cityName":"sterling-city","nearbyCities":[{"city":"Water Valley","state_name":"Texas","lat":31.64467,"lng":-100.75515,"zip":"76958","miles_from_dt":20.72},{"city":"Carlsbad","state_name":"Texas","lat":31.61491,"lng":-100.67661,"zip":"76934","miles_from_dt":25.72},{"city":"Robert Lee","state_name":"Texas","lat":31.87297,"lng":-100.60292,"zip":"76945","miles_from_dt":26.45},{"city":"San Angelo","state_name":"Texas","lat":31.54439,"lng":-100.72459,"zip":"76902","miles_from_dt":26.5},{"city":"Silver","state_name":"Texas","lat":32.04166,"lng":-100.6818,"zip":"76949","miles_from_dt":26.64},{"city":"Garden City","state_name":"Texas","lat":31.75515,"lng":-101.50668,"zip":"79739","miles_from_dt":27.34},{"city":"Forsan","state_name":"Texas","lat":32.11036,"lng":-101.36683,"zip":"79733","miles_from_dt":27.82}],"targetCityZipCode":"76951","targetCityState":"Texas"},"__N_SSG":true}