{"pageProps":{"stateName":"Texas","cityName":"vanderbilt","nearbyCities":[{"city":"La Salle","state_name":"Texas","lat":28.77579,"lng":-96.64719,"zip":"77969","miles_from_dt":3.27},{"city":"Lolita","state_name":"Texas","lat":28.83063,"lng":-96.52176,"zip":"77971","miles_from_dt":5.36},{"city":"Point Comfort","state_name":"Texas","lat":28.69152,"lng":-96.5991,"zip":"77978","miles_from_dt":6.55},{"city":"La Ward","state_name":"Texas","lat":28.84533,"lng":-96.43153,"zip":"77970","miles_from_dt":10.69},{"city":"Port Lavaca","state_name":"Texas","lat":28.60248,"lng":-96.6017,"zip":"77979","miles_from_dt":12.69},{"city":"Placedo","state_name":"Texas","lat":28.68082,"lng":-96.80183,"zip":"77977","miles_from_dt":14.53},{"city":"Francitas","state_name":"Texas","lat":28.85684,"lng":-96.35947,"zip":"77961","miles_from_dt":15.06},{"city":"Inez","state_name":"Texas","lat":28.90619,"lng":-96.84952,"zip":"77968","miles_from_dt":17.51},{"city":"Telferner","state_name":"Texas","lat":28.84701,"lng":-96.87547,"zip":"77988","miles_from_dt":17.53},{"city":"Ganado","state_name":"Texas","lat":29.03253,"lng":-96.5023,"zip":"77962","miles_from_dt":17.84},{"city":"Edna","state_name":"Texas","lat":29.03022,"lng":-96.70606,"zip":"77957","miles_from_dt":18.08},{"city":"Blessing","state_name":"Texas","lat":28.8692,"lng":-96.25603,"zip":"77419","miles_from_dt":21.31},{"city":"Bloomington","state_name":"Texas","lat":28.63476,"lng":-96.91183,"zip":"77951","miles_from_dt":21.91},{"city":"Palacios","state_name":"Texas","lat":28.71152,"lng":-96.22545,"zip":"77465","miles_from_dt":23},{"city":"Midfield","state_name":"Texas","lat":28.95409,"lng":-96.25489,"zip":"77458","miles_from_dt":23.61},{"city":"Victoria","state_name":"Texas","lat":28.80629,"lng":-96.98553,"zip":"77901","miles_from_dt":23.75},{"city":"Port O'Connor","state_name":"Texas","lat":28.44903,"lng":-96.48657,"zip":"77982","miles_from_dt":24.16},{"city":"Victoria","state_name":"Texas","lat":28.78359,"lng":-96.99618,"zip":"77902","miles_from_dt":24.36},{"city":"Victoria","state_name":"Texas","lat":28.79488,"lng":-97.00411,"zip":"77903","miles_from_dt":24.85},{"city":"Louise","state_name":"Texas","lat":29.14017,"lng":-96.43782,"zip":"77455","miles_from_dt":26.14},{"city":"Seadrift","state_name":"Texas","lat":28.39874,"lng":-96.64049,"zip":"77983","miles_from_dt":26.86},{"city":"Mcfaddin","state_name":"Texas","lat":28.54094,"lng":-96.95512,"zip":"77973","miles_from_dt":27.67},{"city":"Collegeport","state_name":"Texas","lat":28.67447,"lng":-96.15682,"zip":"77428","miles_from_dt":27.68},{"city":"Victoria","state_name":"Texas","lat":28.91788,"lng":-97.0311,"zip":"77904","miles_from_dt":27.96},{"city":"Victoria","state_name":"Texas","lat":28.72789,"lng":-97.0508,"zip":"77905","miles_from_dt":27.97},{"city":"Elmaton","state_name":"Texas","lat":28.88819,"lng":-96.14603,"zip":"77440","miles_from_dt":28.09},{"city":"Tivoli","state_name":"Texas","lat":28.48098,"lng":-96.93438,"zip":"77990","miles_from_dt":29.48},{"city":"Danevang","state_name":"Texas","lat":29.05808,"lng":-96.21608,"zip":"77432","miles_from_dt":29.59}],"targetCityZipCode":"77991","targetCityState":"Texas"},"__N_SSG":true}