{"pageProps":{"stateName":"Texas","cityName":"village-mills","nearbyCities":[{"city":"Warren","state_name":"Texas","lat":30.58901,"lng":-94.39529,"zip":"77664","miles_from_dt":5.45},{"city":"Kountze","state_name":"Texas","lat":30.37032,"lng":-94.3923,"zip":"77625","miles_from_dt":9.68},{"city":"Fred","state_name":"Texas","lat":30.56804,"lng":-94.2117,"zip":"77616","miles_from_dt":12.2},{"city":"Hillister","state_name":"Texas","lat":30.68674,"lng":-94.2822,"zip":"77624","miles_from_dt":14.19},{"city":"Silsbee","state_name":"Texas","lat":30.42866,"lng":-94.16887,"zip":"77656","miles_from_dt":15.18},{"city":"Dallardsville","state_name":"Texas","lat":30.6262,"lng":-94.63094,"zip":"77332","miles_from_dt":15.65},{"city":"Thicket","state_name":"Texas","lat":30.38226,"lng":-94.63069,"zip":"77374","miles_from_dt":16.09},{"city":"Saratoga","state_name":"Texas","lat":30.29949,"lng":-94.5294,"zip":"77585","miles_from_dt":16.31},{"city":"Votaw","state_name":"Texas","lat":30.44422,"lng":-94.6779,"zip":"77376","miles_from_dt":16.9},{"city":"Spurger","state_name":"Texas","lat":30.63993,"lng":-94.14105,"zip":"77660","miles_from_dt":18.1},{"city":"Woodville","state_name":"Texas","lat":30.77396,"lng":-94.42353,"zip":"75990","miles_from_dt":18.19},{"city":"Woodville","state_name":"Texas","lat":30.77477,"lng":-94.4026,"zip":"75979","miles_from_dt":18.22},{"city":"Rye","state_name":"Texas","lat":30.44296,"lng":-94.75084,"zip":"77369","miles_from_dt":21.14},{"city":"Doucette","state_name":"Texas","lat":30.82567,"lng":-94.41657,"zip":"75942","miles_from_dt":21.73},{"city":"Evadale","state_name":"Texas","lat":30.35713,"lng":-94.06563,"zip":"77615","miles_from_dt":22.85},{"city":"Batson","state_name":"Texas","lat":30.21124,"lng":-94.58596,"zip":"77519","miles_from_dt":23.26},{"city":"Lumberton","state_name":"Texas","lat":30.22549,"lng":-94.18862,"zip":"77657","miles_from_dt":23.5},{"city":"Sour Lake","state_name":"Texas","lat":30.15775,"lng":-94.43279,"zip":"77659","miles_from_dt":24.34},{"city":"Ace","state_name":"Texas","lat":30.50445,"lng":-94.81661,"zip":"77326","miles_from_dt":24.54},{"city":"Hull","state_name":"Texas","lat":30.21811,"lng":-94.65989,"zip":"77564","miles_from_dt":25.23},{"city":"Romayor","state_name":"Texas","lat":30.45114,"lng":-94.8407,"zip":"77368","miles_from_dt":26.3},{"city":"Livingston","state_name":"Texas","lat":30.70411,"lng":-94.81682,"zip":"77351","miles_from_dt":27.92},{"city":"Kirbyville","state_name":"Texas","lat":30.6721,"lng":-93.96706,"zip":"75956","miles_from_dt":28.39},{"city":"Buna","state_name":"Texas","lat":30.39851,"lng":-93.93276,"zip":"77612","miles_from_dt":29.23},{"city":"Beaumont","state_name":"Texas","lat":30.14747,"lng":-94.15128,"zip":"77708","miles_from_dt":29.24},{"city":"Colmesneil","state_name":"Texas","lat":30.93436,"lng":-94.35605,"zip":"75938","miles_from_dt":29.36}],"targetCityZipCode":"77663","targetCityState":"Texas"},"__N_SSG":true}