{"pageProps":{"stateName":"Montana","cityName":"boyd","nearbyCities":[{"city":"Joliet","state_name":"Montana","lat":45.50239,"lng":-108.9663,"zip":"59041","miles_from_dt":6.23},{"city":"Roberts","state_name":"Montana","lat":45.36289,"lng":-109.17961,"zip":"59070","miles_from_dt":8.33},{"city":"Fromberg","state_name":"Montana","lat":45.4085,"lng":-108.80467,"zip":"59029","miles_from_dt":13.9},{"city":"Columbus","state_name":"Montana","lat":45.62995,"lng":-109.24208,"zip":"59019","miles_from_dt":14.04},{"city":"Park City","state_name":"Montana","lat":45.65079,"lng":-108.97028,"zip":"59063","miles_from_dt":14.14},{"city":"Edgar","state_name":"Montana","lat":45.46385,"lng":-108.78392,"zip":"59026","miles_from_dt":14.42},{"city":"Laurel","state_name":"Montana","lat":45.64251,"lng":-108.74975,"zip":"59044","miles_from_dt":20.35},{"city":"Bearcreek","state_name":"Montana","lat":45.15555,"lng":-109.15805,"zip":"59007","miles_from_dt":21.45},{"city":"Absarokee","state_name":"Montana","lat":45.52952,"lng":-109.54022,"zip":"59001","miles_from_dt":22.82},{"city":"Belfry","state_name":"Montana","lat":45.07982,"lng":-109.07496,"zip":"59008","miles_from_dt":26.35},{"city":"Roscoe","state_name":"Montana","lat":45.26582,"lng":-109.57003,"zip":"59071","miles_from_dt":27.39},{"city":"Red Lodge","state_name":"Montana","lat":45.15929,"lng":-109.45626,"zip":"59068","miles_from_dt":27.75},{"city":"Molt","state_name":"Montana","lat":45.85358,"lng":-108.95377,"zip":"59057","miles_from_dt":27.78},{"city":"Bridger","state_name":"Montana","lat":45.15351,"lng":-108.66421,"zip":"59014","miles_from_dt":29.38},{"city":"Pryor","state_name":"Montana","lat":45.33907,"lng":-108.49718,"zip":"59066","miles_from_dt":29.61}],"targetCityZipCode":"59013","targetCityState":"Montana"},"__N_SSG":true}