{"pageProps":{"stateName":"Montana","cityName":"brady","nearbyCities":[{"city":"Dutton","state_name":"Montana","lat":47.89565,"lng":-111.68483,"zip":"59433","miles_from_dt":12.5},{"city":"Ledger","state_name":"Montana","lat":48.27221,"lng":-111.35432,"zip":"59456","miles_from_dt":17.81},{"city":"Conrad","state_name":"Montana","lat":48.18641,"lng":-111.88738,"zip":"59425","miles_from_dt":19.62},{"city":"Power","state_name":"Montana","lat":47.71253,"lng":-111.62842,"zip":"59468","miles_from_dt":23.18},{"city":"Carter","state_name":"Montana","lat":47.89688,"lng":-111.04034,"zip":"59420","miles_from_dt":24.52},{"city":"Floweree","state_name":"Montana","lat":47.72489,"lng":-111.14261,"zip":"59440","miles_from_dt":28.09},{"city":"Great Falls","state_name":"Montana","lat":47.63197,"lng":-111.34807,"zip":"59404","miles_from_dt":29.39}],"targetCityZipCode":"59416","targetCityState":"Montana"},"__N_SSG":true}