{"pageProps":{"stateName":"Montana","cityName":"dagmar","nearbyCities":[{"city":"Grenora","state_name":"North Dakota","lat":48.63928,"lng":-103.92207,"zip":"58845","miles_from_dt":12.08},{"city":"Antelope","state_name":"Montana","lat":48.69582,"lng":-104.35493,"zip":"59211","miles_from_dt":13.2},{"city":"Medicine Lake","state_name":"Montana","lat":48.51848,"lng":-104.52209,"zip":"59247","miles_from_dt":17.04},{"city":"Zahl","state_name":"North Dakota","lat":48.59123,"lng":-103.72546,"zip":"58856","miles_from_dt":19.85},{"city":"Homestead","state_name":"Montana","lat":48.4387,"lng":-104.55787,"zip":"59242","miles_from_dt":20.23},{"city":"Westby","state_name":"Montana","lat":48.87415,"lng":-104.17865,"zip":"59275","miles_from_dt":21.88},{"city":"Froid","state_name":"Montana","lat":48.34283,"lng":-104.51545,"zip":"59226","miles_from_dt":22.24},{"city":"Plentywood","state_name":"Montana","lat":48.75753,"lng":-104.61123,"zip":"59254","miles_from_dt":25.01},{"city":"Bainville","state_name":"Montana","lat":48.19231,"lng":-104.16968,"zip":"59212","miles_from_dt":25.27},{"city":"Reserve","state_name":"Montana","lat":48.57025,"lng":-104.735,"zip":"59258","miles_from_dt":26.59},{"city":"Williston","state_name":"North Dakota","lat":48.23522,"lng":-103.76747,"zip":"58801","miles_from_dt":28.56},{"city":"Fortuna","state_name":"North Dakota","lat":48.89167,"lng":-103.74304,"zip":"58844","miles_from_dt":29.79}],"targetCityZipCode":"59219","targetCityState":"Montana"},"__N_SSG":true}