{"pageProps":{"stateName":"Montana","cityName":"glendive","nearbyCities":[{"city":"Lindsay","state_name":"Montana","lat":47.22587,"lng":-105.19934,"zip":"59339","miles_from_dt":21.79},{"city":"Bloomfield","state_name":"Montana","lat":47.44241,"lng":-104.87483,"zip":"59315","miles_from_dt":22.99},{"city":"Fallon","state_name":"Montana","lat":46.77178,"lng":-104.85183,"zip":"59326","miles_from_dt":24.28},{"city":"Wibaux","state_name":"Montana","lat":46.96394,"lng":-104.28218,"zip":"59353","miles_from_dt":25.15},{"city":"Mildred","state_name":"Montana","lat":46.74122,"lng":-104.78224,"zip":"59341","miles_from_dt":26.05},{"city":"Savage","state_name":"Montana","lat":47.49341,"lng":-104.50518,"zip":"59262","miles_from_dt":28.65}],"targetCityZipCode":"59330","targetCityState":"Montana"},"__N_SSG":true}