{"pageProps":{"stateName":"Washington","cityName":"endicott","nearbyCities":[{"city":"Saint John","state_name":"Washington","lat":47.10485,"lng":-117.6495,"zip":"99171","miles_from_dt":12.35},{"city":"Benge","state_name":"Washington","lat":46.9213,"lng":-118.08264,"zip":"99105","miles_from_dt":14.22},{"city":"Lacrosse","state_name":"Washington","lat":46.74627,"lng":-117.85869,"zip":"99143","miles_from_dt":14.64},{"city":"Lamont","state_name":"Washington","lat":47.1829,"lng":-117.87611,"zip":"99017","miles_from_dt":16.5},{"city":"Colfax","state_name":"Washington","lat":46.86281,"lng":-117.44132,"zip":"99111","miles_from_dt":17.43},{"city":"Thornton","state_name":"Washington","lat":47.09221,"lng":-117.41224,"zip":"99176","miles_from_dt":20.11},{"city":"Steptoe","state_name":"Washington","lat":47.00719,"lng":-117.35682,"zip":"99174","miles_from_dt":20.62},{"city":"Hay","state_name":"Washington","lat":46.6747,"lng":-117.94889,"zip":"99136","miles_from_dt":20.68},{"city":"Malden","state_name":"Washington","lat":47.225,"lng":-117.46794,"zip":"99149","miles_from_dt":24.08},{"city":"Hooper","state_name":"Washington","lat":46.68112,"lng":-118.15262,"zip":"99333","miles_from_dt":25.57},{"city":"Washtucna","state_name":"Washington","lat":46.79144,"lng":-118.30614,"zip":"99371","miles_from_dt":27.05},{"city":"Rosalia","state_name":"Washington","lat":47.25132,"lng":-117.40203,"zip":"99170","miles_from_dt":27.46},{"city":"Albion","state_name":"Washington","lat":46.79218,"lng":-117.25029,"zip":"99102","miles_from_dt":27.66},{"city":"Sprague","state_name":"Washington","lat":47.32405,"lng":-118.04613,"zip":"99032","miles_from_dt":28.47},{"city":"Garfield","state_name":"Washington","lat":46.99917,"lng":-117.18556,"zip":"99130","miles_from_dt":28.55},{"city":"Oakesdale","state_name":"Washington","lat":47.13305,"lng":-117.24008,"zip":"99158","miles_from_dt":28.63}],"targetCityZipCode":"99125","targetCityState":"Washington"},"__N_SSG":true}