{"pageProps":{"stateName":"Colorado","cityName":"amherst","nearbyCities":[{"city":"Venango","state_name":"Nebraska","lat":40.74817,"lng":-101.98129,"zip":"69168","miles_from_dt":9.92},{"city":"Holyoke","state_name":"Colorado","lat":40.52472,"lng":-102.29259,"zip":"80734","miles_from_dt":13.46},{"city":"Julesburg","state_name":"Colorado","lat":40.88974,"lng":-102.19267,"zip":"80737","miles_from_dt":14.06},{"city":"Paoli","state_name":"Colorado","lat":40.60706,"lng":-102.45695,"zip":"80746","miles_from_dt":16.93},{"city":"Ovid","state_name":"Colorado","lat":40.87471,"lng":-102.38355,"zip":"80744","miles_from_dt":17.66},{"city":"Champion","state_name":"Nebraska","lat":40.48132,"lng":-101.89668,"zip":"69023","miles_from_dt":19.64},{"city":"Grant","state_name":"Nebraska","lat":40.84129,"lng":-101.7724,"zip":"69140","miles_from_dt":22.59},{"city":"Sedgwick","state_name":"Colorado","lat":40.87574,"lng":-102.55354,"zip":"80749","miles_from_dt":24.68},{"city":"Haxtun","state_name":"Colorado","lat":40.58734,"lng":-102.60558,"zip":"80731","miles_from_dt":24.79},{"city":"Imperial","state_name":"Nebraska","lat":40.56447,"lng":-101.68679,"zip":"69033","miles_from_dt":25.95},{"city":"Big Springs","state_name":"Nebraska","lat":41.09713,"lng":-102.08834,"zip":"69122","miles_from_dt":28.42}],"targetCityZipCode":"80721","targetCityState":"Colorado"},"__N_SSG":true}