{"pageProps":{"stateName":"Colorado","cityName":"chromo","nearbyCities":[{"city":"Chama","state_name":"New Mexico","lat":36.88419,"lng":-106.63552,"zip":"87520","miles_from_dt":12.52},{"city":"Antonito","state_name":"Colorado","lat":37.14248,"lng":-106.26715,"zip":"81120","miles_from_dt":21.93},{"city":"Dulce","state_name":"New Mexico","lat":36.79432,"lng":-106.87989,"zip":"87528","miles_from_dt":22.54},{"city":"Los Ojos","state_name":"New Mexico","lat":36.6925,"lng":-106.66872,"zip":"87551","miles_from_dt":25.72},{"city":"Pagosa Springs","state_name":"Colorado","lat":37.26807,"lng":-107.08867,"zip":"81157","miles_from_dt":27.85},{"city":"Pagosa Springs","state_name":"Colorado","lat":37.28675,"lng":-107.08333,"zip":"81147","miles_from_dt":28.27},{"city":"Tierra Amarilla","state_name":"New Mexico","lat":36.64203,"lng":-106.59341,"zip":"87575","miles_from_dt":29.37}],"targetCityZipCode":"81128","targetCityState":"Colorado"},"__N_SSG":true}