{"pageProps":{"stateName":"Colorado","cityName":"fairplay","nearbyCities":[{"city":"Como","state_name":"Colorado","lat":39.22256,"lng":-105.82969,"zip":"80432","miles_from_dt":12.9},{"city":"Alma","state_name":"Colorado","lat":39.31451,"lng":-106.10553,"zip":"80420","miles_from_dt":12.91},{"city":"Granite","state_name":"Colorado","lat":39.03402,"lng":-106.27723,"zip":"81228","miles_from_dt":14.44},{"city":"Leadville","state_name":"Colorado","lat":39.24244,"lng":-106.29016,"zip":"80461","miles_from_dt":15.3},{"city":"Climax","state_name":"Colorado","lat":39.32658,"lng":-106.23408,"zip":"80429","miles_from_dt":16.83},{"city":"Hartsel","state_name":"Colorado","lat":38.93059,"lng":-105.79169,"zip":"80449","miles_from_dt":19.43},{"city":"Buena Vista","state_name":"Colorado","lat":38.89548,"lng":-106.24128,"zip":"81211","miles_from_dt":19.67},{"city":"Twin Lakes","state_name":"Colorado","lat":39.13482,"lng":-106.43723,"zip":"81251","miles_from_dt":21.27},{"city":"Jefferson","state_name":"Colorado","lat":39.30643,"lng":-105.69211,"zip":"80456","miles_from_dt":22.19},{"city":"Breckenridge","state_name":"Colorado","lat":39.47089,"lng":-106.01685,"zip":"80424","miles_from_dt":23.27},{"city":"Frisco","state_name":"Colorado","lat":39.50165,"lng":-106.16673,"zip":"80443","miles_from_dt":26.23},{"city":"Red Cliff","state_name":"Colorado","lat":39.46433,"lng":-106.31954,"zip":"81649","miles_from_dt":27.23},{"city":"Grant","state_name":"Colorado","lat":39.41769,"lng":-105.63747,"zip":"80448","miles_from_dt":29.18}],"targetCityZipCode":"80440","targetCityState":"Colorado"},"__N_SSG":true}