{"pageProps":{"stateName":"Colorado","cityName":"naturita","nearbyCities":[{"city":"Paradox","state_name":"Colorado","lat":38.34121,"lng":-108.90732,"zip":"81429","miles_from_dt":10.9},{"city":"Nucla","state_name":"Colorado","lat":38.34098,"lng":-108.47346,"zip":"81424","miles_from_dt":12.84},{"city":"Bedrock","state_name":"Colorado","lat":38.25188,"lng":-108.97862,"zip":"81411","miles_from_dt":15.43},{"city":"Redvale","state_name":"Colorado","lat":38.13808,"lng":-108.51429,"zip":"81431","miles_from_dt":16.42},{"city":"Norwood","state_name":"Colorado","lat":38.03835,"lng":-108.45816,"zip":"81423","miles_from_dt":23.75},{"city":"Gateway","state_name":"Colorado","lat":38.66026,"lng":-108.93025,"zip":"81522","miles_from_dt":26.35},{"city":"Egnar","state_name":"Colorado","lat":37.89605,"lng":-108.72011,"zip":"81325","miles_from_dt":29.27}],"targetCityZipCode":"81422","targetCityState":"Colorado"},"__N_SSG":true}