{"pageProps":{"stateName":"Colorado","cityName":"padroni","nearbyCities":[{"city":"Peetz","state_name":"Colorado","lat":40.94709,"lng":-103.16392,"zip":"80747","miles_from_dt":13.05},{"city":"Sterling","state_name":"Colorado","lat":40.65263,"lng":-103.24504,"zip":"80751","miles_from_dt":18.18},{"city":"Stoneham","state_name":"Colorado","lat":40.69052,"lng":-103.64694,"zip":"80754","miles_from_dt":18.77},{"city":"Iliff","state_name":"Colorado","lat":40.81635,"lng":-103.01907,"zip":"80736","miles_from_dt":20.6},{"city":"Merino","state_name":"Colorado","lat":40.5598,"lng":-103.47339,"zip":"80741","miles_from_dt":22.97},{"city":"Dix","state_name":"Nebraska","lat":41.21975,"lng":-103.47178,"zip":"69133","miles_from_dt":23.19},{"city":"New Raymer","state_name":"Colorado","lat":40.74855,"lng":-103.81371,"zip":"80742","miles_from_dt":23.69},{"city":"Sidney","state_name":"Nebraska","lat":41.13001,"lng":-103.02815,"zip":"69162","miles_from_dt":25.66},{"city":"Potter","state_name":"Nebraska","lat":41.27689,"lng":-103.34587,"zip":"69156","miles_from_dt":26.99},{"city":"Sidney","state_name":"Nebraska","lat":41.14188,"lng":-102.97808,"zip":"69160","miles_from_dt":28.2},{"city":"Atwood","state_name":"Colorado","lat":40.49515,"lng":-103.23833,"zip":"80722","miles_from_dt":28.42},{"city":"Kimball","state_name":"Nebraska","lat":41.24913,"lng":-103.67097,"zip":"69145","miles_from_dt":28.64}],"targetCityZipCode":"80745","targetCityState":"Colorado"},"__N_SSG":true}