{"pageProps":{"stateName":"Colorado","cityName":"paonia","nearbyCities":[{"city":"Hotchkiss","state_name":"Colorado","lat":38.86332,"lng":-107.74872,"zip":"81419","miles_from_dt":10.44},{"city":"Somerset","state_name":"Colorado","lat":38.95384,"lng":-107.35954,"zip":"81434","miles_from_dt":12.9},{"city":"Lazear","state_name":"Colorado","lat":38.7768,"lng":-107.78189,"zip":"81420","miles_from_dt":15.99},{"city":"Cedaredge","state_name":"Colorado","lat":38.97171,"lng":-107.90845,"zip":"81413","miles_from_dt":16.69},{"city":"Collbran","state_name":"Colorado","lat":39.24611,"lng":-107.77259,"zip":"81624","miles_from_dt":21.88},{"city":"Crawford","state_name":"Colorado","lat":38.64027,"lng":-107.6368,"zip":"81415","miles_from_dt":22.1},{"city":"Austin","state_name":"Colorado","lat":38.81261,"lng":-107.97595,"zip":"81410","miles_from_dt":22.7},{"city":"Molina","state_name":"Colorado","lat":39.10875,"lng":-107.99199,"zip":"81646","miles_from_dt":23.52},{"city":"Cory","state_name":"Colorado","lat":38.78836,"lng":-107.98654,"zip":"81414","miles_from_dt":23.99},{"city":"Eckert","state_name":"Colorado","lat":38.90479,"lng":-108.05687,"zip":"81418","miles_from_dt":24.95},{"city":"Carbondale","state_name":"Colorado","lat":39.2451,"lng":-107.20921,"zip":"81623","miles_from_dt":28.77}],"targetCityZipCode":"81428","targetCityState":"Colorado"},"__N_SSG":true}