{"pageProps":{"stateName":"New-mexico","cityName":"los-ojos","nearbyCities":[{"city":"Tierra Amarilla","state_name":"New Mexico","lat":36.64203,"lng":-106.59341,"zip":"87575","miles_from_dt":5.44},{"city":"Chama","state_name":"New Mexico","lat":36.88419,"lng":-106.63552,"zip":"87520","miles_from_dt":13.35},{"city":"Dulce","state_name":"New Mexico","lat":36.79432,"lng":-106.87989,"zip":"87528","miles_from_dt":13.66},{"city":"Cebolla","state_name":"New Mexico","lat":36.51197,"lng":-106.54235,"zip":"87518","miles_from_dt":14.29},{"city":"Canjilon","state_name":"New Mexico","lat":36.56257,"lng":-106.3696,"zip":"87515","miles_from_dt":18.88},{"city":"Abiquiu","state_name":"New Mexico","lat":36.35906,"lng":-106.48312,"zip":"87510","miles_from_dt":25.21},{"city":"Chromo","state_name":"Colorado","lat":37.06529,"lng":-106.65223,"zip":"81128","miles_from_dt":25.72},{"city":"Gallina","state_name":"New Mexico","lat":36.30624,"lng":-106.73759,"zip":"87017","miles_from_dt":26.91},{"city":"Lindrith","state_name":"New Mexico","lat":36.39394,"lng":-107.03949,"zip":"87029","miles_from_dt":29.14}],"targetCityZipCode":"87551","targetCityState":"New Mexico"},"__N_SSG":true}