{"pageProps":{"stateName":"New-mexico","cityName":"bosque","nearbyCities":[{"city":"Veguita","state_name":"New Mexico","lat":34.46187,"lng":-106.69719,"zip":"87062","miles_from_dt":8.44},{"city":"Jarales","state_name":"New Mexico","lat":34.59583,"lng":-106.7633,"zip":"87023","miles_from_dt":8.79},{"city":"La Joya","state_name":"New Mexico","lat":34.35076,"lng":-106.78789,"zip":"87028","miles_from_dt":9.83},{"city":"Belen","state_name":"New Mexico","lat":34.63619,"lng":-106.82517,"zip":"87002","miles_from_dt":10.39},{"city":"San Acacia","state_name":"New Mexico","lat":34.28303,"lng":-106.88722,"zip":"87831","miles_from_dt":14.24},{"city":"Tome","state_name":"New Mexico","lat":34.74292,"lng":-106.73571,"zip":"87060","miles_from_dt":18.71},{"city":"Polvadera","state_name":"New Mexico","lat":34.20567,"lng":-106.92056,"zip":"87828","miles_from_dt":19.85},{"city":"Los Lunas","state_name":"New Mexico","lat":34.78007,"lng":-106.72649,"zip":"87031","miles_from_dt":21.3},{"city":"Lemitar","state_name":"New Mexico","lat":34.18348,"lng":-106.95901,"zip":"87823","miles_from_dt":21.91},{"city":"Peralta","state_name":"New Mexico","lat":34.82827,"lng":-106.68619,"zip":"87042","miles_from_dt":25.2}],"targetCityZipCode":"87006","targetCityState":"New Mexico"},"__N_SSG":true}