{"pageProps":{"stateName":"New-mexico","cityName":"holman","nearbyCities":[{"city":"Cleveland","state_name":"New Mexico","lat":36.01839,"lng":-105.42535,"zip":"87715","miles_from_dt":3.94},{"city":"Chacon","state_name":"New Mexico","lat":36.1708,"lng":-105.36111,"zip":"87713","miles_from_dt":7.76},{"city":"Guadalupita","state_name":"New Mexico","lat":36.12837,"lng":-105.24424,"zip":"87722","miles_from_dt":8.77},{"city":"Mora","state_name":"New Mexico","lat":35.942,"lng":-105.47009,"zip":"87732","miles_from_dt":9.64},{"city":"Rainsville","state_name":"New Mexico","lat":35.98431,"lng":-105.19238,"zip":"87736","miles_from_dt":11.47},{"city":"Vadito","state_name":"New Mexico","lat":36.12885,"lng":-105.56729,"zip":"87579","miles_from_dt":11.77},{"city":"Rociada","state_name":"New Mexico","lat":35.87161,"lng":-105.44427,"zip":"87742","miles_from_dt":13.47},{"city":"Ojo Feliz","state_name":"New Mexico","lat":36.04867,"lng":-105.11978,"zip":"87735","miles_from_dt":14.34},{"city":"Trampas","state_name":"New Mexico","lat":36.15321,"lng":-105.62299,"zip":"87576","miles_from_dt":15.3},{"city":"Llano","state_name":"New Mexico","lat":36.10399,"lng":-105.65781,"zip":"87543","miles_from_dt":16.1},{"city":"Buena Vista","state_name":"New Mexico","lat":35.88076,"lng":-105.17612,"zip":"87712","miles_from_dt":16.6},{"city":"Ocate","state_name":"New Mexico","lat":36.17323,"lng":-105.09363,"zip":"87734","miles_from_dt":17.63},{"city":"Chamisal","state_name":"New Mexico","lat":36.08506,"lng":-105.70477,"zip":"87521","miles_from_dt":18.52},{"city":"Sapello","state_name":"New Mexico","lat":35.7877,"lng":-105.26635,"zip":"87745","miles_from_dt":19.67},{"city":"Ranchos De Taos","state_name":"New Mexico","lat":36.28603,"lng":-105.6331,"zip":"87557","miles_from_dt":21.28},{"city":"Penasco","state_name":"New Mexico","lat":36.20389,"lng":-105.72094,"zip":"87553","miles_from_dt":21.75},{"city":"Angel Fire","state_name":"New Mexico","lat":36.3729,"lng":-105.23873,"zip":"87710","miles_from_dt":22.96},{"city":"Truchas","state_name":"New Mexico","lat":36.04392,"lng":-105.78539,"zip":"87578","miles_from_dt":22.97},{"city":"Montezuma","state_name":"New Mexico","lat":35.70411,"lng":-105.39881,"zip":"87731","miles_from_dt":24.49},{"city":"Taos","state_name":"New Mexico","lat":36.42507,"lng":-105.48523,"zip":"87571","miles_from_dt":25.98},{"city":"Chimayo","state_name":"New Mexico","lat":35.96889,"lng":-105.84639,"zip":"87522","miles_from_dt":27.09},{"city":"Tererro","state_name":"New Mexico","lat":35.77176,"lng":-105.70715,"zip":"87573","miles_from_dt":27.16},{"city":"Watrous","state_name":"New Mexico","lat":35.85796,"lng":-104.95477,"zip":"87753","miles_from_dt":27.35},{"city":"Cordova","state_name":"New Mexico","lat":36.01115,"lng":-105.86273,"zip":"87523","miles_from_dt":27.48},{"city":"Dixon","state_name":"New Mexico","lat":36.16875,"lng":-105.86352,"zip":"87527","miles_from_dt":28.33},{"city":"Embudo","state_name":"New Mexico","lat":36.25326,"lng":-105.84584,"zip":"87531","miles_from_dt":29.52},{"city":"Valmora","state_name":"New Mexico","lat":35.82498,"lng":-104.92704,"zip":"87750","miles_from_dt":29.87},{"city":"Pecos","state_name":"New Mexico","lat":35.67026,"lng":-105.61382,"zip":"87552","miles_from_dt":29.94}],"targetCityZipCode":"87723","targetCityState":"New Mexico"},"__N_SSG":true}