{"pageProps":{"stateName":"New-mexico","cityName":"santa-cruz","nearbyCities":[{"city":"Espanola","state_name":"New Mexico","lat":35.99112,"lng":-106.08,"zip":"87533","miles_from_dt":3.44},{"city":"Espanola","state_name":"New Mexico","lat":35.97965,"lng":-106.1048,"zip":"87532","miles_from_dt":4.92},{"city":"Ohkay Owingeh","state_name":"New Mexico","lat":36.07242,"lng":-106.07185,"zip":"87566","miles_from_dt":6.17},{"city":"Alcalde","state_name":"New Mexico","lat":36.08905,"lng":-105.96448,"zip":"87511","miles_from_dt":7.22},{"city":"Cordova","state_name":"New Mexico","lat":36.01115,"lng":-105.86273,"zip":"87523","miles_from_dt":8.82},{"city":"Chimayo","state_name":"New Mexico","lat":35.96889,"lng":-105.84639,"zip":"87522","miles_from_dt":9.81},{"city":"Velarde","state_name":"New Mexico","lat":36.15323,"lng":-106.00246,"zip":"87582","miles_from_dt":11.02},{"city":"Santa Fe","state_name":"New Mexico","lat":35.82119,"lng":-105.96802,"zip":"87506","miles_from_dt":12.25},{"city":"Santa Fe","state_name":"New Mexico","lat":35.81016,"lng":-105.98409,"zip":"87504","miles_from_dt":12.82},{"city":"Truchas","state_name":"New Mexico","lat":36.04392,"lng":-105.78539,"zip":"87578","miles_from_dt":13.51},{"city":"Santa Fe","state_name":"New Mexico","lat":35.79483,"lng":-105.99355,"zip":"87592","miles_from_dt":13.8},{"city":"Santa Fe","state_name":"New Mexico","lat":35.79313,"lng":-105.99364,"zip":"87594","miles_from_dt":13.92},{"city":"Tesuque","state_name":"New Mexico","lat":35.80615,"lng":-105.91527,"zip":"87574","miles_from_dt":14.19},{"city":"Hernandez","state_name":"New Mexico","lat":36.1043,"lng":-106.2454,"zip":"87537","miles_from_dt":14.8},{"city":"Dixon","state_name":"New Mexico","lat":36.16875,"lng":-105.86352,"zip":"87527","miles_from_dt":14.85},{"city":"Medanales","state_name":"New Mexico","lat":36.1756,"lng":-106.18491,"zip":"87548","miles_from_dt":15.6},{"city":"White Rock","state_name":"New Mexico","lat":35.81046,"lng":-106.20579,"zip":"87547","miles_from_dt":16.44},{"city":"Los Alamos","state_name":"New Mexico","lat":35.89354,"lng":-106.28505,"zip":"87545","miles_from_dt":16.46},{"city":"Ojo Caliente","state_name":"New Mexico","lat":36.23237,"lng":-106.0568,"zip":"87549","miles_from_dt":16.57},{"city":"Chamisal","state_name":"New Mexico","lat":36.08506,"lng":-105.70477,"zip":"87521","miles_from_dt":18.67},{"city":"Embudo","state_name":"New Mexico","lat":36.25326,"lng":-105.84584,"zip":"87531","miles_from_dt":20.32},{"city":"Santa Fe","state_name":"New Mexico","lat":35.71273,"lng":-105.86523,"zip":"87501","miles_from_dt":21.22},{"city":"Llano","state_name":"New Mexico","lat":36.10399,"lng":-105.65781,"zip":"87543","miles_from_dt":21.58},{"city":"Santa Fe","state_name":"New Mexico","lat":35.68368,"lng":-105.93889,"zip":"87503","miles_from_dt":21.86},{"city":"Penasco","state_name":"New Mexico","lat":36.20389,"lng":-105.72094,"zip":"87553","miles_from_dt":22.07},{"city":"Los Alamos","state_name":"New Mexico","lat":35.7869,"lng":-106.31914,"zip":"87544","miles_from_dt":22.09},{"city":"Santa Fe","state_name":"New Mexico","lat":35.67319,"lng":-105.95444,"zip":"87509","miles_from_dt":22.41},{"city":"Santa Fe","state_name":"New Mexico","lat":35.66283,"lng":-105.98017,"zip":"87502","miles_from_dt":22.94},{"city":"Tererro","state_name":"New Mexico","lat":35.77176,"lng":-105.70715,"zip":"87573","miles_from_dt":23.25},{"city":"Trampas","state_name":"New Mexico","lat":36.15321,"lng":-105.62299,"zip":"87576","miles_from_dt":24.72},{"city":"El Rito","state_name":"New Mexico","lat":36.34088,"lng":-106.20198,"zip":"87530","miles_from_dt":26.02},{"city":"Santa Fe","state_name":"New Mexico","lat":35.621,"lng":-106.11061,"zip":"87507","miles_from_dt":26.23},{"city":"Santa Fe","state_name":"New Mexico","lat":35.62307,"lng":-105.86891,"zip":"87505","miles_from_dt":26.92},{"city":"Vadito","state_name":"New Mexico","lat":36.12885,"lng":-105.56729,"zip":"87579","miles_from_dt":26.93},{"city":"Canones","state_name":"New Mexico","lat":36.18116,"lng":-106.46149,"zip":"87516","miles_from_dt":27.94},{"city":"La Madera","state_name":"New Mexico","lat":36.41192,"lng":-106.02393,"zip":"87539","miles_from_dt":28.82},{"city":"Ranchos De Taos","state_name":"New Mexico","lat":36.28603,"lng":-105.6331,"zip":"87557","miles_from_dt":29.5}],"targetCityZipCode":"87567","targetCityState":"New Mexico"},"__N_SSG":true}