{"pageProps":{"stateName":"Alabama","cityName":"forest-home","nearbyCities":[{"city":"Pine Apple","state_name":"Alabama","lat":31.8837,"lng":-87.01186,"zip":"36768","miles_from_dt":9.25},{"city":"Georgiana","state_name":"Alabama","lat":31.66983,"lng":-86.771,"zip":"36033","miles_from_dt":14.07},{"city":"Greenville","state_name":"Alabama","lat":31.79384,"lng":-86.62356,"zip":"36037","miles_from_dt":14.48},{"city":"McWilliams","state_name":"Alabama","lat":31.83698,"lng":-87.10762,"zip":"36753","miles_from_dt":14.83},{"city":"Furman","state_name":"Alabama","lat":32.02198,"lng":-87.02594,"zip":"36741","miles_from_dt":14.91},{"city":"Oak Hill","state_name":"Alabama","lat":31.95505,"lng":-87.08668,"zip":"36766","miles_from_dt":14.99},{"city":"Chapman","state_name":"Alabama","lat":31.66352,"lng":-86.70022,"zip":"36015","miles_from_dt":16.41},{"city":"Minter","state_name":"Alabama","lat":32.07872,"lng":-86.97602,"zip":"36761","miles_from_dt":16.59},{"city":"Fort Deposit","state_name":"Alabama","lat":31.99857,"lng":-86.57179,"zip":"36032","miles_from_dt":19.27},{"city":"McKenzie","state_name":"Alabama","lat":31.57103,"lng":-86.82556,"zip":"36456","miles_from_dt":20.03},{"city":"Beatrice","state_name":"Alabama","lat":31.75884,"lng":-87.19731,"zip":"36425","miles_from_dt":21.21},{"city":"Honoraville","state_name":"Alabama","lat":31.86655,"lng":-86.44897,"zip":"36042","miles_from_dt":23.99},{"city":"Sardis","state_name":"Alabama","lat":32.20066,"lng":-86.95487,"zip":"36775","miles_from_dt":24.14},{"city":"Hayneville","state_name":"Alabama","lat":32.17795,"lng":-86.66972,"zip":"36040","miles_from_dt":24.48},{"city":"Letohatchee","state_name":"Alabama","lat":32.07868,"lng":-86.52474,"zip":"36047","miles_from_dt":24.64},{"city":"Brooklyn","state_name":"Alabama","lat":31.49498,"lng":-86.91226,"zip":"36429","miles_from_dt":25.39},{"city":"Camden","state_name":"Alabama","lat":31.97043,"lng":-87.27532,"zip":"36726","miles_from_dt":25.73},{"city":"Peterman","state_name":"Alabama","lat":31.62616,"lng":-87.22861,"zip":"36471","miles_from_dt":27.19},{"city":"Evergreen","state_name":"Alabama","lat":31.47123,"lng":-86.94928,"zip":"36401","miles_from_dt":27.36},{"city":"Tyler","state_name":"Alabama","lat":32.27615,"lng":-86.82683,"zip":"36785","miles_from_dt":28.7},{"city":"Rutledge","state_name":"Alabama","lat":31.70534,"lng":-86.39815,"zip":"36071","miles_from_dt":29.04},{"city":"Boykin","state_name":"Alabama","lat":32.06633,"lng":-87.2907,"zip":"36723","miles_from_dt":29.16}],"targetCityZipCode":"36030","targetCityState":"Alabama"},"__N_SSG":true}