{"pageProps":{"stateName":"Alabama","cityName":"mexia","nearbyCities":[{"city":"Megargel","state_name":"Alabama","lat":31.39438,"lng":-87.41943,"zip":"36457","miles_from_dt":0.18},{"city":"Frisco City","state_name":"Alabama","lat":31.44397,"lng":-87.44982,"zip":"36445","miles_from_dt":3.95},{"city":"Uriah","state_name":"Alabama","lat":31.33662,"lng":-87.42582,"zip":"36449","miles_from_dt":4.02},{"city":"Excel","state_name":"Alabama","lat":31.42252,"lng":-87.34512,"zip":"36439","miles_from_dt":4.63},{"city":"Monroeville","state_name":"Alabama","lat":31.52018,"lng":-87.32072,"zip":"36461","miles_from_dt":10.34},{"city":"Monroeville","state_name":"Alabama","lat":31.52679,"lng":-87.30786,"zip":"36460","miles_from_dt":11.15},{"city":"Repton","state_name":"Alabama","lat":31.38511,"lng":-87.22717,"zip":"36475","miles_from_dt":11.2},{"city":"Perdue Hill","state_name":"Alabama","lat":31.51602,"lng":-87.55518,"zip":"36470","miles_from_dt":11.73},{"city":"Huxford","state_name":"Alabama","lat":31.22129,"lng":-87.46592,"zip":"36543","miles_from_dt":12.28},{"city":"Uriah","state_name":"Alabama","lat":31.32976,"lng":-87.61125,"zip":"36480","miles_from_dt":12.35},{"city":"Range","state_name":"Alabama","lat":31.32009,"lng":-87.21967,"zip":"36473","miles_from_dt":12.7},{"city":"Lenox","state_name":"Alabama","lat":31.34368,"lng":-87.20185,"zip":"36454","miles_from_dt":13.15},{"city":"Gainestown","state_name":"Alabama","lat":31.44702,"lng":-87.66487,"zip":"36540","miles_from_dt":15.13},{"city":"Atmore","state_name":"Alabama","lat":31.15674,"lng":-87.4654,"zip":"36503","miles_from_dt":16.63},{"city":"Atmore","state_name":"Alabama","lat":31.14498,"lng":-87.49303,"zip":"36502","miles_from_dt":17.77},{"city":"Franklin","state_name":"Alabama","lat":31.65935,"lng":-87.4651,"zip":"36444","miles_from_dt":18.48},{"city":"Peterman","state_name":"Alabama","lat":31.62616,"lng":-87.22861,"zip":"36471","miles_from_dt":19.44},{"city":"Whatley","state_name":"Alabama","lat":31.6223,"lng":-87.63424,"zip":"36482","miles_from_dt":20.3},{"city":"Little River","state_name":"Alabama","lat":31.25212,"lng":-87.74294,"zip":"36550","miles_from_dt":21.66},{"city":"Castleberry","state_name":"Alabama","lat":31.30055,"lng":-87.03888,"zip":"36432","miles_from_dt":23.23},{"city":"Flomaton","state_name":"Alabama","lat":31.04064,"lng":-87.25885,"zip":"36441","miles_from_dt":26.09},{"city":"Atmore","state_name":"Alabama","lat":31.01945,"lng":-87.47955,"zip":"36504","miles_from_dt":26.1},{"city":"Vredenburgh","state_name":"Alabama","lat":31.77356,"lng":-87.37553,"zip":"36481","miles_from_dt":26.24},{"city":"Brewton","state_name":"Alabama","lat":31.14386,"lng":-87.076,"zip":"36426","miles_from_dt":26.52},{"city":"Jackson","state_name":"Alabama","lat":31.48767,"lng":-87.87424,"zip":"36545","miles_from_dt":27.8},{"city":"Evergreen","state_name":"Alabama","lat":31.47123,"lng":-86.94928,"zip":"36401","miles_from_dt":28.09},{"city":"Beatrice","state_name":"Alabama","lat":31.75884,"lng":-87.19731,"zip":"36425","miles_from_dt":28.24},{"city":"Brewton","state_name":"Alabama","lat":31.10793,"lng":-87.07115,"zip":"36427","miles_from_dt":28.41},{"city":"Perdido","state_name":"Alabama","lat":31.03738,"lng":-87.66274,"zip":"36562","miles_from_dt":28.6},{"city":"Stockton","state_name":"Alabama","lat":31.11395,"lng":-87.78616,"zip":"36579","miles_from_dt":29.2},{"city":"Dickinson","state_name":"Alabama","lat":31.76636,"lng":-87.6614,"zip":"36436","miles_from_dt":29.42},{"city":"Lower Peach Tree","state_name":"Alabama","lat":31.80808,"lng":-87.54865,"zip":"36751","miles_from_dt":29.55},{"city":"Century","state_name":"Florida","lat":30.96515,"lng":-87.34673,"zip":"32535","miles_from_dt":29.86}],"targetCityZipCode":"36458","targetCityState":"Alabama"},"__N_SSG":true}