{"pageProps":{"stateName":"Virginia","cityName":"caret","nearbyCities":[{"city":"Hustle","state_name":"Virginia","lat":38.03807,"lng":-77.06872,"zip":"22476","miles_from_dt":0.7},{"city":"Loretto","state_name":"Virginia","lat":38.10642,"lng":-77.06669,"zip":"22509","miles_from_dt":4.12},{"city":"Champlain","state_name":"Virginia","lat":38.03788,"lng":-76.99971,"zip":"22438","miles_from_dt":4.14},{"city":"Port Royal","state_name":"Virginia","lat":38.12314,"lng":-77.19619,"zip":"22535","miles_from_dt":8.45},{"city":"Sparta","state_name":"Virginia","lat":37.9913,"lng":-77.22889,"zip":"22552","miles_from_dt":9.25},{"city":"Newtown","state_name":"Virginia","lat":37.92285,"lng":-77.1448,"zip":"23126","miles_from_dt":9.38},{"city":"Rollins Fork","state_name":"Virginia","lat":38.18562,"lng":-77.06584,"zip":"22544","miles_from_dt":9.57},{"city":"Colonial Beach","state_name":"Virginia","lat":38.18078,"lng":-76.99776,"zip":"22443","miles_from_dt":10.14},{"city":"Milford","state_name":"Virginia","lat":37.9724,"lng":-77.24471,"zip":"22514","miles_from_dt":10.61},{"city":"Tappahannock","state_name":"Virginia","lat":37.91289,"lng":-76.96196,"zip":"22560","miles_from_dt":11.11},{"city":"Bowling Green","state_name":"Virginia","lat":38.07177,"lng":-77.28624,"zip":"22427","miles_from_dt":11.66},{"city":"Jersey","state_name":"Virginia","lat":38.21048,"lng":-77.13727,"zip":"22481","miles_from_dt":11.78},{"city":"Saint Stephens Church","state_name":"Virginia","lat":37.84262,"lng":-77.06223,"zip":"23148","miles_from_dt":14.11},{"city":"Stratford","state_name":"Virginia","lat":38.14647,"lng":-76.84229,"zip":"22558","miles_from_dt":14.41},{"city":"Rappahannock Academy","state_name":"Virginia","lat":38.18941,"lng":-77.27334,"zip":"22538","miles_from_dt":14.62},{"city":"Bowling Green","state_name":"Virginia","lat":38.04738,"lng":-77.34812,"zip":"22428","miles_from_dt":14.91},{"city":"Dogue","state_name":"Virginia","lat":38.23522,"lng":-77.21402,"zip":"22451","miles_from_dt":15.04},{"city":"Montross","state_name":"Virginia","lat":38.11651,"lng":-76.80634,"zip":"22520","miles_from_dt":15.4},{"city":"Ninde","state_name":"Virginia","lat":38.27014,"lng":-77.05432,"zip":"22526","miles_from_dt":15.43},{"city":"King George","state_name":"Virginia","lat":38.2717,"lng":-77.15996,"zip":"22485","miles_from_dt":16.18},{"city":"Zacata","state_name":"Virginia","lat":38.1197,"lng":-76.785,"zip":"22581","miles_from_dt":16.57},{"city":"Millers Tavern","state_name":"Virginia","lat":37.82909,"lng":-76.94601,"zip":"23115","miles_from_dt":16.59},{"city":"Warsaw","state_name":"Virginia","lat":37.97552,"lng":-76.77495,"zip":"22572","miles_from_dt":17.08},{"city":"Aylett","state_name":"Virginia","lat":37.81038,"lng":-77.18717,"zip":"23009","miles_from_dt":17.44},{"city":"Dunnsville","state_name":"Virginia","lat":37.83599,"lng":-76.85032,"zip":"22454","miles_from_dt":19.03},{"city":"Sealston","state_name":"Virginia","lat":38.25047,"lng":-77.31107,"zip":"22547","miles_from_dt":19.05},{"city":"Bruington","state_name":"Virginia","lat":37.78293,"lng":-76.96586,"zip":"23023","miles_from_dt":19.16},{"city":"Cobb Island","state_name":"Maryland","lat":38.26212,"lng":-76.84877,"zip":"20625","miles_from_dt":19.28},{"city":"Issue","state_name":"Maryland","lat":38.29838,"lng":-76.91413,"zip":"20645","miles_from_dt":19.42},{"city":"Mount Victoria","state_name":"Maryland","lat":38.26474,"lng":-76.84473,"zip":"20661","miles_from_dt":19.56},{"city":"Corbin","state_name":"Virginia","lat":38.19777,"lng":-77.39052,"zip":"22446","miles_from_dt":20.11},{"city":"Dahlgren","state_name":"Virginia","lat":38.33996,"lng":-77.03238,"zip":"22448","miles_from_dt":20.34},{"city":"Woodford","state_name":"Virginia","lat":38.10941,"lng":-77.44419,"zip":"22580","miles_from_dt":20.6},{"city":"Coltons Point","state_name":"Maryland","lat":38.23256,"lng":-76.76404,"zip":"20626","miles_from_dt":21.22},{"city":"Ruther Glen","state_name":"Virginia","lat":37.94342,"lng":-77.44565,"zip":"22546","miles_from_dt":21.47},{"city":"Oldhams","state_name":"Virginia","lat":38.01036,"lng":-76.67942,"zip":"22529","miles_from_dt":21.71},{"city":"Walkerton","state_name":"Virginia","lat":37.73088,"lng":-77.00295,"zip":"23177","miles_from_dt":22.15},{"city":"Rock Point","state_name":"Maryland","lat":38.34621,"lng":-76.92068,"zip":"20682","miles_from_dt":22.28},{"city":"Bushwood","state_name":"Maryland","lat":38.28152,"lng":-76.78891,"zip":"20618","miles_from_dt":22.45},{"city":"Newburg","state_name":"Maryland","lat":38.35062,"lng":-76.91631,"zip":"20664","miles_from_dt":22.65},{"city":"Haynesville","state_name":"Virginia","lat":37.95897,"lng":-76.67257,"zip":"22472","miles_from_dt":22.77},{"city":"Fredericksburg","state_name":"Virginia","lat":38.21916,"lng":-77.44013,"zip":"22408","miles_from_dt":23.18},{"city":"Abell","state_name":"Maryland","lat":38.25412,"lng":-76.73878,"zip":"20606","miles_from_dt":23.21},{"city":"Mount Holly","state_name":"Virginia","lat":38.13575,"lng":-76.66166,"zip":"22524","miles_from_dt":23.33},{"city":"Hague","state_name":"Virginia","lat":38.0667,"lng":-76.64749,"zip":"22469","miles_from_dt":23.34},{"city":"Center Cross","state_name":"Virginia","lat":37.7764,"lng":-76.8156,"zip":"22437","miles_from_dt":23.42},{"city":"Hanover","state_name":"Virginia","lat":37.76924,"lng":-77.32874,"zip":"23069","miles_from_dt":23.66},{"city":"Avenue","state_name":"Maryland","lat":38.27191,"lng":-76.74625,"zip":"20609","miles_from_dt":23.68},{"city":"Stevensville","state_name":"Virginia","lat":37.72152,"lng":-76.93037,"zip":"23161","miles_from_dt":23.79},{"city":"Manquin","state_name":"Virginia","lat":37.71524,"lng":-77.2062,"zip":"23106","miles_from_dt":23.98},{"city":"Ladysmith","state_name":"Virginia","lat":38.01636,"lng":-77.51743,"zip":"22501","miles_from_dt":24.24},{"city":"Chaptico","state_name":"Maryland","lat":38.33062,"lng":-76.79438,"zip":"20621","miles_from_dt":24.81},{"city":"Thornburg","state_name":"Virginia","lat":38.13336,"lng":-77.51978,"zip":"22565","miles_from_dt":24.98},{"city":"Coles Point","state_name":"Virginia","lat":38.14623,"lng":-76.63382,"zip":"22442","miles_from_dt":24.99},{"city":"Sharps","state_name":"Virginia","lat":37.82929,"lng":-76.69256,"zip":"22548","miles_from_dt":25.71},{"city":"Fredericksburg","state_name":"Virginia","lat":38.31568,"lng":-77.40377,"zip":"22405","miles_from_dt":25.78},{"city":"King William","state_name":"Virginia","lat":37.66296,"lng":-77.05394,"zip":"23086","miles_from_dt":26.51},{"city":"Doswell","state_name":"Virginia","lat":37.84765,"lng":-77.48973,"zip":"23047","miles_from_dt":26.51},{"city":"Village","state_name":"Virginia","lat":37.9484,"lng":-76.60462,"zip":"22570","miles_from_dt":26.54},{"city":"Kinsale","state_name":"Virginia","lat":38.04986,"lng":-76.58796,"zip":"22488","miles_from_dt":26.55},{"city":"King And Queen Court House","state_name":"Virginia","lat":37.70623,"lng":-76.84205,"zip":"23085","miles_from_dt":26.72},{"city":"Faulkner","state_name":"Maryland","lat":38.42591,"lng":-76.95682,"zip":"20632","miles_from_dt":26.91},{"city":"Fredericksburg","state_name":"Virginia","lat":38.29772,"lng":-77.45646,"zip":"22404","miles_from_dt":27.04},{"city":"Clements","state_name":"Maryland","lat":38.33523,"lng":-76.73451,"zip":"20624","miles_from_dt":27.17},{"city":"Laneview","state_name":"Virginia","lat":37.76346,"lng":-76.72675,"zip":"22504","miles_from_dt":27.27},{"city":"Nanjemoy","state_name":"Maryland","lat":38.43359,"lng":-77.19972,"zip":"20662","miles_from_dt":27.52},{"city":"Brooke","state_name":"Virginia","lat":38.37879,"lng":-77.36252,"zip":"22430","miles_from_dt":27.73},{"city":"Callao","state_name":"Virginia","lat":37.97216,"lng":-76.57288,"zip":"22435","miles_from_dt":27.87},{"city":"Farnham","state_name":"Virginia","lat":37.87612,"lng":-76.60692,"zip":"22460","miles_from_dt":28.13},{"city":"Sandy Point","state_name":"Virginia","lat":38.0653,"lng":-76.55916,"zip":"22577","miles_from_dt":28.14},{"city":"Studley","state_name":"Virginia","lat":37.67531,"lng":-77.29021,"zip":"23162","miles_from_dt":28.21},{"city":"Fredericksburg","state_name":"Virginia","lat":38.29928,"lng":-77.48704,"zip":"22401","miles_from_dt":28.4},{"city":"Welcome","state_name":"Maryland","lat":38.45924,"lng":-77.08931,"zip":"20693","miles_from_dt":28.45},{"city":"Fredericksburg","state_name":"Virginia","lat":38.29992,"lng":-77.48821,"zip":"22412","miles_from_dt":28.48},{"city":"Leonardtown","state_name":"Maryland","lat":38.27186,"lng":-76.63276,"zip":"20650","miles_from_dt":28.63},{"city":"Bel Alton","state_name":"Maryland","lat":38.46251,"lng":-76.98538,"zip":"20611","miles_from_dt":29.07},{"city":"Loveville","state_name":"Maryland","lat":38.33914,"lng":-76.6787,"zip":"20656","miles_from_dt":29.51},{"city":"Mechanicsville","state_name":"Virginia","lat":37.67152,"lng":-77.33458,"zip":"23116","miles_from_dt":29.54},{"city":"Ashland","state_name":"Virginia","lat":37.75982,"lng":-77.4826,"zip":"23005","miles_from_dt":29.82},{"city":"Morganza","state_name":"Maryland","lat":38.36928,"lng":-76.70741,"zip":"20660","miles_from_dt":29.9},{"city":"Compton","state_name":"Maryland","lat":38.30501,"lng":-76.63201,"zip":"20627","miles_from_dt":29.96}],"targetCityZipCode":"22436","targetCityState":"Virginia"},"__N_SSG":true}