{"pageProps":{"stateName":"Virginia","cityName":"chincoteague-island","nearbyCities":[{"city":"Greenbackville","state_name":"Virginia","lat":37.9905,"lng":-75.39228,"zip":"23356","miles_from_dt":3.88},{"city":"Horntown","state_name":"Virginia","lat":37.97051,"lng":-75.45159,"zip":"23395","miles_from_dt":6.32},{"city":"Stockton","state_name":"Maryland","lat":38.04355,"lng":-75.40532,"zip":"21864","miles_from_dt":7.16},{"city":"Wallops Island","state_name":"Virginia","lat":37.93332,"lng":-75.46691,"zip":"23337","miles_from_dt":7.21},{"city":"Wattsville","state_name":"Virginia","lat":37.96152,"lng":-75.51341,"zip":"23483","miles_from_dt":9.61},{"city":"Atlantic","state_name":"Virginia","lat":37.90346,"lng":-75.50562,"zip":"23303","miles_from_dt":9.83},{"city":"Girdletree","state_name":"Maryland","lat":38.09892,"lng":-75.38324,"zip":"21829","miles_from_dt":10.26},{"city":"New Church","state_name":"Virginia","lat":37.97459,"lng":-75.53443,"zip":"23415","miles_from_dt":10.84},{"city":"Assawoman","state_name":"Virginia","lat":37.85858,"lng":-75.52197,"zip":"23302","miles_from_dt":12.06},{"city":"Oak Hall","state_name":"Virginia","lat":37.93371,"lng":-75.557,"zip":"23416","miles_from_dt":12.07},{"city":"Oak Hall","state_name":"Virginia","lat":37.92528,"lng":-75.55889,"zip":"23396","miles_from_dt":12.26},{"city":"Temperanceville","state_name":"Virginia","lat":37.90127,"lng":-75.56874,"zip":"23442","miles_from_dt":13.15},{"city":"Mappsville","state_name":"Virginia","lat":37.8432,"lng":-75.55362,"zip":"23407","miles_from_dt":14.09},{"city":"Pocomoke City","state_name":"Maryland","lat":38.07825,"lng":-75.54375,"zip":"21851","miles_from_dt":14.12},{"city":"Withams","state_name":"Virginia","lat":37.95237,"lng":-75.60831,"zip":"23488","miles_from_dt":14.79},{"city":"Modest Town","state_name":"Virginia","lat":37.83336,"lng":-75.56899,"zip":"23412","miles_from_dt":15.16},{"city":"Hallwood","state_name":"Virginia","lat":37.88643,"lng":-75.60422,"zip":"23359","miles_from_dt":15.31},{"city":"Nelsonia","state_name":"Virginia","lat":37.81375,"lng":-75.58688,"zip":"23414","miles_from_dt":16.74},{"city":"Snow Hill","state_name":"Maryland","lat":38.19167,"lng":-75.40327,"zip":"21863","miles_from_dt":16.74},{"city":"Mears","state_name":"Virginia","lat":37.88017,"lng":-75.64709,"zip":"23409","miles_from_dt":17.67},{"city":"Bloxom","state_name":"Virginia","lat":37.82431,"lng":-75.61773,"zip":"23308","miles_from_dt":17.75},{"city":"Sanford","state_name":"Virginia","lat":37.92706,"lng":-75.67506,"zip":"23426","miles_from_dt":18.53},{"city":"Rehobeth","state_name":"Maryland","lat":38.04647,"lng":-75.66726,"zip":"21857","miles_from_dt":19.07},{"city":"Parksley","state_name":"Virginia","lat":37.76564,"lng":-75.61429,"zip":"23421","miles_from_dt":19.97},{"city":"Newark","state_name":"Maryland","lat":38.24385,"lng":-75.29588,"zip":"21841","miles_from_dt":20.08},{"city":"Saxis","state_name":"Virginia","lat":37.9124,"lng":-75.71344,"zip":"23427","miles_from_dt":20.74},{"city":"Marion Station","state_name":"Maryland","lat":38.01452,"lng":-75.73098,"zip":"21838","miles_from_dt":21.87},{"city":"Greenbush","state_name":"Virginia","lat":37.75862,"lng":-75.67459,"zip":"23357","miles_from_dt":22.85},{"city":"Westover","state_name":"Maryland","lat":38.10489,"lng":-75.73127,"zip":"21871","miles_from_dt":23.85},{"city":"Westover","state_name":"Maryland","lat":38.15673,"lng":-75.6998,"zip":"21890","miles_from_dt":24.18},{"city":"Accomac","state_name":"Virginia","lat":37.68402,"lng":-75.6397,"zip":"23301","miles_from_dt":24.93},{"city":"Tasley","state_name":"Virginia","lat":37.71208,"lng":-75.69943,"zip":"23441","miles_from_dt":25.91},{"city":"Berlin","state_name":"Maryland","lat":38.31977,"lng":-75.22024,"zip":"21811","miles_from_dt":25.98},{"city":"Princess Anne","state_name":"Maryland","lat":38.20453,"lng":-75.7102,"zip":"21853","miles_from_dt":26.64},{"city":"Upper Fairmount","state_name":"Maryland","lat":38.11025,"lng":-75.79399,"zip":"21867","miles_from_dt":27.11},{"city":"Crisfield","state_name":"Maryland","lat":37.98081,"lng":-75.83537,"zip":"21817","miles_from_dt":27.24},{"city":"Salisbury","state_name":"Maryland","lat":38.31726,"lng":-75.53673,"zip":"21804","miles_from_dt":27.26},{"city":"Powellville","state_name":"Maryland","lat":38.3495,"lng":-75.40549,"zip":"21852","miles_from_dt":27.49},{"city":"Locustville","state_name":"Virginia","lat":37.6441,"lng":-75.66924,"zip":"23404","miles_from_dt":28.07},{"city":"Onancock","state_name":"Virginia","lat":37.73061,"lng":-75.76687,"zip":"23417","miles_from_dt":28.11},{"city":"Pittsville","state_name":"Maryland","lat":38.36171,"lng":-75.39867,"zip":"21850","miles_from_dt":28.27},{"city":"Onley","state_name":"Virginia","lat":37.63821,"lng":-75.66926,"zip":"23418","miles_from_dt":28.38},{"city":"Eden","state_name":"Maryland","lat":38.28129,"lng":-75.65566,"zip":"21822","miles_from_dt":28.43},{"city":"Salisbury","state_name":"Maryland","lat":38.34096,"lng":-75.53603,"zip":"21802","miles_from_dt":28.76},{"city":"Parsonsburg","state_name":"Maryland","lat":38.37006,"lng":-75.46064,"zip":"21849","miles_from_dt":29.43},{"city":"Fruitland","state_name":"Maryland","lat":38.32077,"lng":-75.62353,"zip":"21826","miles_from_dt":29.67},{"city":"Ocean City","state_name":"Maryland","lat":38.33803,"lng":-75.08397,"zip":"21843","miles_from_dt":29.84}],"targetCityZipCode":"23336","targetCityState":"Virginia"},"__N_SSG":true}