{"pageProps":{"stateName":"Virginia","cityName":"elk-creek","nearbyCities":[{"city":"Speedwell","state_name":"Virginia","lat":36.79129,"lng":-81.20178,"zip":"24374","miles_from_dt":4.39},{"city":"Independence","state_name":"Virginia","lat":36.63897,"lng":-81.17392,"zip":"24348","miles_from_dt":6.24},{"city":"Cripple Creek","state_name":"Virginia","lat":36.80534,"lng":-81.1195,"zip":"24322","miles_from_dt":6.84},{"city":"Crockett","state_name":"Virginia","lat":36.86513,"lng":-81.1997,"zip":"24323","miles_from_dt":9.48},{"city":"Fries","state_name":"Virginia","lat":36.72375,"lng":-81.02471,"zip":"24330","miles_from_dt":9.53},{"city":"Sugar Grove","state_name":"Virginia","lat":36.77128,"lng":-81.39026,"zip":"24375","miles_from_dt":11.18},{"city":"Ivanhoe","state_name":"Virginia","lat":36.81109,"lng":-81.01757,"zip":"24350","miles_from_dt":11.46},{"city":"Rural Retreat","state_name":"Virginia","lat":36.89283,"lng":-81.30003,"zip":"24368","miles_from_dt":12.76},{"city":"Troutdale","state_name":"Virginia","lat":36.69126,"lng":-81.42944,"zip":"24378","miles_from_dt":13.19},{"city":"Mouth Of Wilson","state_name":"Virginia","lat":36.6137,"lng":-81.40084,"zip":"24363","miles_from_dt":13.82},{"city":"Piney Creek","state_name":"North Carolina","lat":36.53477,"lng":-81.30063,"zip":"28663","miles_from_dt":14.51},{"city":"Atkins","state_name":"Virginia","lat":36.87292,"lng":-81.40161,"zip":"24311","miles_from_dt":15.16},{"city":"Sparta","state_name":"North Carolina","lat":36.50642,"lng":-81.13546,"zip":"28675","miles_from_dt":15.63},{"city":"Galax","state_name":"Virginia","lat":36.64057,"lng":-80.92921,"zip":"24333","miles_from_dt":16},{"city":"Wytheville","state_name":"Virginia","lat":36.95702,"lng":-81.10652,"zip":"24382","miles_from_dt":16.58},{"city":"Grassy Creek","state_name":"North Carolina","lat":36.55218,"lng":-81.40994,"zip":"28631","miles_from_dt":16.96},{"city":"Scottville","state_name":"North Carolina","lat":36.48381,"lng":-81.32735,"zip":"28672","miles_from_dt":18.33},{"city":"Ennice","state_name":"North Carolina","lat":36.53088,"lng":-80.97185,"zip":"28623","miles_from_dt":18.43},{"city":"Austinville","state_name":"Virginia","lat":36.83117,"lng":-80.86897,"zip":"24312","miles_from_dt":19.51},{"city":"Crumpler","state_name":"North Carolina","lat":36.48433,"lng":-81.38264,"zip":"28617","miles_from_dt":19.72},{"city":"Woodlawn","state_name":"Virginia","lat":36.72453,"lng":-80.83924,"zip":"24381","miles_from_dt":19.82},{"city":"Marion","state_name":"Virginia","lat":36.82159,"lng":-81.54001,"zip":"24354","miles_from_dt":20.14},{"city":"Laurel Springs","state_name":"North Carolina","lat":36.43134,"lng":-81.26758,"zip":"28644","miles_from_dt":20.82},{"city":"Glade Valley","state_name":"North Carolina","lat":36.4528,"lng":-81.01294,"zip":"28627","miles_from_dt":21.52},{"city":"Ceres","state_name":"Virginia","lat":37.00047,"lng":-81.38658,"zip":"24318","miles_from_dt":21.56},{"city":"Max Meadows","state_name":"Virginia","lat":36.93917,"lng":-80.9023,"zip":"24360","miles_from_dt":21.87},{"city":"Whitetop","state_name":"Virginia","lat":36.6147,"lng":-81.5791,"zip":"24292","miles_from_dt":22.65},{"city":"Lansing","state_name":"North Carolina","lat":36.52982,"lng":-81.53486,"zip":"28643","miles_from_dt":23.25},{"city":"Lowgap","state_name":"North Carolina","lat":36.52399,"lng":-80.84027,"zip":"27024","miles_from_dt":24.26},{"city":"Roaring Gap","state_name":"North Carolina","lat":36.40698,"lng":-80.99024,"zip":"28668","miles_from_dt":24.91},{"city":"Jefferson","state_name":"North Carolina","lat":36.40385,"lng":-81.40751,"zip":"28640","miles_from_dt":25.23},{"city":"Barren Springs","state_name":"Virginia","lat":36.9105,"lng":-80.79805,"zip":"24313","miles_from_dt":25.42},{"city":"Chilhowie","state_name":"Virginia","lat":36.76048,"lng":-81.65778,"zip":"24319","miles_from_dt":25.71},{"city":"Lambsburg","state_name":"Virginia","lat":36.58081,"lng":-80.76591,"zip":"24351","miles_from_dt":25.97},{"city":"Warrensville","state_name":"North Carolina","lat":36.46622,"lng":-81.55434,"zip":"28693","miles_from_dt":26.86},{"city":"McGrady","state_name":"North Carolina","lat":36.33198,"lng":-81.20326,"zip":"28649","miles_from_dt":27.29},{"city":"Hays","state_name":"North Carolina","lat":36.33297,"lng":-81.12603,"zip":"28635","miles_from_dt":27.5},{"city":"Traphill","state_name":"North Carolina","lat":36.34729,"lng":-81.04097,"zip":"28685","miles_from_dt":27.62},{"city":"Hillsville","state_name":"Virginia","lat":36.76612,"lng":-80.70045,"zip":"24343","miles_from_dt":27.64},{"city":"Tannersville","state_name":"Virginia","lat":37.00206,"lng":-81.56961,"zip":"24377","miles_from_dt":28.03},{"city":"Glendale Springs","state_name":"North Carolina","lat":36.34196,"lng":-81.36423,"zip":"28629","miles_from_dt":28.19},{"city":"Thurmond","state_name":"North Carolina","lat":36.38835,"lng":-80.91219,"zip":"28683","miles_from_dt":28.24},{"city":"Fancy Gap","state_name":"Virginia","lat":36.66185,"lng":-80.69382,"zip":"24328","miles_from_dt":28.27},{"city":"Draper","state_name":"Virginia","lat":36.97461,"lng":-80.78836,"zip":"24324","miles_from_dt":28.3},{"city":"Tazewell","state_name":"Virginia","lat":37.07732,"lng":-81.50054,"zip":"24651","miles_from_dt":29.41},{"city":"Bland","state_name":"Virginia","lat":37.1393,"lng":-81.0534,"zip":"24315","miles_from_dt":29.46},{"city":"West Jefferson","state_name":"North Carolina","lat":36.36197,"lng":-81.47465,"zip":"28694","miles_from_dt":29.6}],"targetCityZipCode":"24326","targetCityState":"Virginia"},"__N_SSG":true}