{"pageProps":{"stateName":"Virginia","cityName":"jamestown","nearbyCities":[{"city":"Williamsburg","state_name":"Virginia","lat":37.24927,"lng":-76.68702,"zip":"23185","miles_from_dt":5.02},{"city":"Williamsburg","state_name":"Virginia","lat":37.26824,"lng":-76.71008,"zip":"23187","miles_from_dt":5.06},{"city":"Surry","state_name":"Virginia","lat":37.12546,"lng":-76.7502,"zip":"23883","miles_from_dt":5.7},{"city":"Williamsburg","state_name":"Virginia","lat":37.27259,"lng":-76.68252,"zip":"23186","miles_from_dt":6.26},{"city":"Lightfoot","state_name":"Virginia","lat":37.32319,"lng":-76.73899,"zip":"23090","miles_from_dt":8.07},{"city":"Williamsburg","state_name":"Virginia","lat":37.33849,"lng":-76.74925,"zip":"23188","miles_from_dt":9.05},{"city":"Norge","state_name":"Virginia","lat":37.36421,"lng":-76.77181,"zip":"23127","miles_from_dt":10.82},{"city":"Fort Eustis","state_name":"Virginia","lat":37.13195,"lng":-76.58902,"zip":"23604","miles_from_dt":10.86},{"city":"Newport News","state_name":"Virginia","lat":37.19188,"lng":-76.56563,"zip":"23603","miles_from_dt":10.87},{"city":"Elberon","state_name":"Virginia","lat":37.05947,"lng":-76.83224,"zip":"23846","miles_from_dt":10.93},{"city":"Newport News","state_name":"Virginia","lat":37.14606,"lng":-76.57812,"zip":"23628","miles_from_dt":10.98},{"city":"Yorktown","state_name":"Virginia","lat":37.25906,"lng":-76.57322,"zip":"23691","miles_from_dt":10.98},{"city":"Claremont","state_name":"Virginia","lat":37.23079,"lng":-76.96562,"zip":"23899","miles_from_dt":11.36},{"city":"Lackey","state_name":"Virginia","lat":37.22937,"lng":-76.54661,"zip":"23694","miles_from_dt":11.96},{"city":"Dendron","state_name":"Virginia","lat":37.08718,"lng":-76.91895,"zip":"23839","miles_from_dt":12.01},{"city":"Spring Grove","state_name":"Virginia","lat":37.1917,"lng":-76.98588,"zip":"23881","miles_from_dt":12.42},{"city":"Newport News","state_name":"Virginia","lat":37.15093,"lng":-76.54343,"zip":"23608","miles_from_dt":12.66},{"city":"Yorktown","state_name":"Virginia","lat":37.21829,"lng":-76.52371,"zip":"23690","miles_from_dt":13.15},{"city":"Toano","state_name":"Virginia","lat":37.3942,"lng":-76.832,"zip":"23168","miles_from_dt":13.44},{"city":"Gloucester Point","state_name":"Virginia","lat":37.258,"lng":-76.50404,"zip":"23062","miles_from_dt":14.63},{"city":"Newport News","state_name":"Virginia","lat":37.11511,"lng":-76.51625,"zip":"23602","miles_from_dt":14.97},{"city":"Wicomico","state_name":"Virginia","lat":37.2921,"lng":-76.50995,"zip":"23184","miles_from_dt":15.05},{"city":"Ordinary","state_name":"Virginia","lat":37.31482,"lng":-76.51491,"zip":"23131","miles_from_dt":15.48},{"city":"Smithfield","state_name":"Virginia","lat":36.98615,"lng":-76.66337,"zip":"23430","miles_from_dt":16.21},{"city":"White Marsh","state_name":"Virginia","lat":37.34182,"lng":-76.52008,"zip":"23183","miles_from_dt":16.22},{"city":"Hayes","state_name":"Virginia","lat":37.29543,"lng":-76.48148,"zip":"23072","miles_from_dt":16.59},{"city":"Yorktown","state_name":"Virginia","lat":37.18107,"lng":-76.45868,"zip":"23692","miles_from_dt":16.82},{"city":"Newport News","state_name":"Virginia","lat":37.07847,"lng":-76.49557,"zip":"23606","miles_from_dt":17.18},{"city":"Bena","state_name":"Virginia","lat":37.27008,"lng":-76.45852,"zip":"23018","miles_from_dt":17.26},{"city":"Smithfield","state_name":"Virginia","lat":36.9837,"lng":-76.61676,"zip":"23431","miles_from_dt":17.39},{"city":"Newport News","state_name":"Virginia","lat":37.0688,"lng":-76.49493,"zip":"23612","miles_from_dt":17.56},{"city":"Battery Park","state_name":"Virginia","lat":36.99586,"lng":-76.56993,"zip":"23304","miles_from_dt":18.04},{"city":"Yorktown","state_name":"Virginia","lat":37.12669,"lng":-76.44755,"zip":"23693","miles_from_dt":18.21},{"city":"Achilles","state_name":"Virginia","lat":37.28116,"lng":-76.44096,"zip":"23001","miles_from_dt":18.4},{"city":"Seaford","state_name":"Virginia","lat":37.19249,"lng":-76.42589,"zip":"23696","miles_from_dt":18.55},{"city":"Barhamsville","state_name":"Virginia","lat":37.47562,"lng":-76.80691,"zip":"23011","miles_from_dt":18.65},{"city":"Ark","state_name":"Virginia","lat":37.43857,"lng":-76.57822,"zip":"23003","miles_from_dt":18.86},{"city":"Ruthville","state_name":"Virginia","lat":37.36965,"lng":-77.0391,"zip":"23147","miles_from_dt":18.94},{"city":"Charles City","state_name":"Virginia","lat":37.34652,"lng":-77.05962,"zip":"23030","miles_from_dt":19.01},{"city":"Newport News","state_name":"Virginia","lat":37.05862,"lng":-76.46414,"zip":"23601","miles_from_dt":19.38},{"city":"Gloucester","state_name":"Virginia","lat":37.4331,"lng":-76.55019,"zip":"23061","miles_from_dt":19.43},{"city":"Severn","state_name":"Virginia","lat":37.29473,"lng":-76.41639,"zip":"23155","miles_from_dt":19.96},{"city":"Lanexa","state_name":"Virginia","lat":37.47593,"lng":-76.91212,"zip":"23089","miles_from_dt":20.27},{"city":"Maryus","state_name":"Virginia","lat":37.27815,"lng":-76.40353,"zip":"23107","miles_from_dt":20.34},{"city":"Woods Cross Roads","state_name":"Virginia","lat":37.48354,"lng":-76.62069,"zip":"23190","miles_from_dt":20.55},{"city":"Ivor","state_name":"Virginia","lat":36.92012,"lng":-76.86693,"zip":"23866","miles_from_dt":20.66},{"city":"Schley","state_name":"Virginia","lat":37.38995,"lng":-76.45819,"zip":"23154","miles_from_dt":20.92},{"city":"Rescue","state_name":"Virginia","lat":36.95433,"lng":-76.54589,"zip":"23424","miles_from_dt":21.15},{"city":"Wakefield","state_name":"Virginia","lat":36.95383,"lng":-76.97802,"zip":"23888","miles_from_dt":21.19},{"city":"Ware Neck","state_name":"Virginia","lat":37.40177,"lng":-76.45575,"zip":"23178","miles_from_dt":21.53},{"city":"Carrollton","state_name":"Virginia","lat":36.95054,"lng":-76.53625,"zip":"23314","miles_from_dt":21.66},{"city":"Hampton","state_name":"Virginia","lat":37.05627,"lng":-76.41239,"zip":"23670","miles_from_dt":21.93},{"city":"Shacklefords","state_name":"Virginia","lat":37.5244,"lng":-76.71106,"zip":"23156","miles_from_dt":22.03},{"city":"Hampton","state_name":"Virginia","lat":37.05818,"lng":-76.40817,"zip":"23666","miles_from_dt":22.07},{"city":"Hampton","state_name":"Virginia","lat":37.09697,"lng":-76.38389,"zip":"23681","miles_from_dt":22.21},{"city":"Newport News","state_name":"Virginia","lat":37.01754,"lng":-76.43527,"zip":"23605","miles_from_dt":22.29},{"city":"Providence Forge","state_name":"Virginia","lat":37.43852,"lng":-77.04818,"zip":"23140","miles_from_dt":22.42},{"city":"Poquoson","state_name":"Virginia","lat":37.13178,"lng":-76.35678,"zip":"23662","miles_from_dt":22.95},{"city":"Hampton","state_name":"Virginia","lat":37.08963,"lng":-76.36302,"zip":"23665","miles_from_dt":23.46},{"city":"Waverly","state_name":"Virginia","lat":37.00755,"lng":-77.11837,"zip":"23890","miles_from_dt":24.05},{"city":"Hampton","state_name":"Virginia","lat":36.99988,"lng":-76.41073,"zip":"23630","miles_from_dt":24.1},{"city":"Newport News","state_name":"Virginia","lat":36.98753,"lng":-76.42235,"zip":"23607","miles_from_dt":24.12},{"city":"Newport News","state_name":"Virginia","lat":36.97696,"lng":-76.42856,"zip":"23609","miles_from_dt":24.32},{"city":"Jenkins Bridge","state_name":"Virginia","lat":36.85302,"lng":-76.72141,"zip":"23399","miles_from_dt":24.55},{"city":"Isle Of Wight","state_name":"Virginia","lat":36.85302,"lng":-76.72141,"zip":"23397","miles_from_dt":24.55},{"city":"Windsor","state_name":"Virginia","lat":36.85197,"lng":-76.72303,"zip":"23487","miles_from_dt":24.62},{"city":"North","state_name":"Virginia","lat":37.4514,"lng":-76.43216,"zip":"23128","miles_from_dt":24.74},{"city":"Hampton","state_name":"Virginia","lat":37.00804,"lng":-76.38631,"zip":"23661","miles_from_dt":24.88},{"city":"Foster","state_name":"Virginia","lat":37.41809,"lng":-76.38724,"zip":"23056","miles_from_dt":25.22},{"city":"Bohannon","state_name":"Virginia","lat":37.40102,"lng":-76.37187,"zip":"23021","miles_from_dt":25.28},{"city":"Suffolk","state_name":"Virginia","lat":36.90763,"lng":-76.49183,"zip":"23433","miles_from_dt":25.5},{"city":"Suffolk","state_name":"Virginia","lat":36.89516,"lng":-76.50873,"zip":"23436","miles_from_dt":25.68},{"city":"Hampton","state_name":"Virginia","lat":37.05052,"lng":-76.33952,"zip":"23669","miles_from_dt":25.7},{"city":"Disputanta","state_name":"Virginia","lat":37.13625,"lng":-77.22086,"zip":"23842","miles_from_dt":25.81},{"city":"Mattaponi","state_name":"Virginia","lat":37.58338,"lng":-76.76578,"zip":"23110","miles_from_dt":25.92},{"city":"Hopewell","state_name":"Virginia","lat":37.28267,"lng":-77.22267,"zip":"23860","miles_from_dt":25.94},{"city":"Suffolk","state_name":"Virginia","lat":36.87099,"lng":-76.55097,"zip":"23432","miles_from_dt":25.97},{"city":"Saluda","state_name":"Virginia","lat":37.56794,"lng":-76.61599,"zip":"23149","miles_from_dt":26.11},{"city":"Cardinal","state_name":"Virginia","lat":37.41447,"lng":-76.36204,"zip":"23025","miles_from_dt":26.23},{"city":"Hampton","state_name":"Virginia","lat":37.02034,"lng":-76.33839,"zip":"23668","miles_from_dt":26.71},{"city":"Zuni","state_name":"Virginia","lat":36.82737,"lng":-76.85662,"zip":"23898","miles_from_dt":26.74},{"city":"Waverly","state_name":"Virginia","lat":37.04752,"lng":-77.20367,"zip":"23891","miles_from_dt":26.78},{"city":"Dutton","state_name":"Virginia","lat":37.48918,"lng":-76.41986,"zip":"23050","miles_from_dt":27.04},{"city":"Hampton","state_name":"Virginia","lat":37.02081,"lng":-76.33093,"zip":"23667","miles_from_dt":27.05},{"city":"Hampton","state_name":"Virginia","lat":37.03216,"lng":-76.31589,"zip":"23663","miles_from_dt":27.43},{"city":"Prince George","state_name":"Virginia","lat":37.22941,"lng":-77.25845,"zip":"23875","miles_from_dt":27.44},{"city":"Hampton","state_name":"Virginia","lat":37.07467,"lng":-76.2925,"zip":"23664","miles_from_dt":27.48},{"city":"Port Haywood","state_name":"Virginia","lat":37.36245,"lng":-76.30062,"zip":"23138","miles_from_dt":27.56},{"city":"Susan","state_name":"Virginia","lat":37.3572,"lng":-76.29765,"zip":"23163","miles_from_dt":27.57},{"city":"West Point","state_name":"Virginia","lat":37.59809,"lng":-76.889,"zip":"23181","miles_from_dt":27.83},{"city":"New Point","state_name":"Virginia","lat":37.3496,"lng":-76.2798,"zip":"23125","miles_from_dt":28.3},{"city":"Mathews","state_name":"Virginia","lat":37.43263,"lng":-76.32445,"zip":"23109","miles_from_dt":28.65},{"city":"Fort Monroe","state_name":"Virginia","lat":37.0099,"lng":-76.30451,"zip":"23651","miles_from_dt":28.7},{"city":"Hartfield","state_name":"Virginia","lat":37.54326,"lng":-76.45228,"zip":"23071","miles_from_dt":28.74},{"city":"New Kent","state_name":"Virginia","lat":37.55271,"lng":-77.05949,"zip":"23124","miles_from_dt":28.9},{"city":"Cobbs Creek","state_name":"Virginia","lat":37.49809,"lng":-76.37679,"zip":"23035","miles_from_dt":29.16},{"city":"Sedley","state_name":"Virginia","lat":36.8291,"lng":-77.02065,"zip":"23878","miles_from_dt":29.77},{"city":"Suffolk","state_name":"Virginia","lat":36.83751,"lng":-76.4803,"zip":"23435","miles_from_dt":29.89}],"targetCityZipCode":"23081","targetCityState":"Virginia"},"__N_SSG":true}