{"pageProps":{"stateName":"Virginia","cityName":"penn-laird","nearbyCities":[{"city":"McGaheysville","state_name":"Virginia","lat":38.38642,"lng":-78.73845,"zip":"22840","miles_from_dt":2.93},{"city":"Harrisonburg","state_name":"Virginia","lat":38.40519,"lng":-78.87931,"zip":"22801","miles_from_dt":4.87},{"city":"Keezletown","state_name":"Virginia","lat":38.45778,"lng":-78.75692,"zip":"22832","miles_from_dt":5.19},{"city":"Harrisonburg","state_name":"Virginia","lat":38.43495,"lng":-78.86736,"zip":"22807","miles_from_dt":5.2},{"city":"Port Republic","state_name":"Virginia","lat":38.30837,"lng":-78.79645,"zip":"24471","miles_from_dt":5.49},{"city":"Pleasant Valley","state_name":"Virginia","lat":38.38432,"lng":-78.90002,"zip":"22848","miles_from_dt":5.85},{"city":"Harrisonburg","state_name":"Virginia","lat":38.44951,"lng":-78.86953,"zip":"22803","miles_from_dt":5.96},{"city":"Mount Crawford","state_name":"Virginia","lat":38.33887,"lng":-78.89417,"zip":"22841","miles_from_dt":6.48},{"city":"Harrisonburg","state_name":"Virginia","lat":38.50016,"lng":-78.8585,"zip":"22802","miles_from_dt":8.53},{"city":"Elkton","state_name":"Virginia","lat":38.3903,"lng":-78.6131,"zip":"22827","miles_from_dt":9.73},{"city":"Weyers Cave","state_name":"Virginia","lat":38.29366,"lng":-78.92925,"zip":"24486","miles_from_dt":9.88},{"city":"Grottoes","state_name":"Virginia","lat":38.22823,"lng":-78.8109,"zip":"24441","miles_from_dt":11.06},{"city":"Lacey Spring","state_name":"Virginia","lat":38.54906,"lng":-78.73505,"zip":"22833","miles_from_dt":11.54},{"city":"Linville","state_name":"Virginia","lat":38.55709,"lng":-78.85769,"zip":"22834","miles_from_dt":12.19},{"city":"Shenandoah","state_name":"Virginia","lat":38.5256,"lng":-78.6253,"zip":"22849","miles_from_dt":13.13},{"city":"Mount Sidney","state_name":"Virginia","lat":38.2592,"lng":-78.97249,"zip":"24467","miles_from_dt":13.21},{"city":"Bridgewater","state_name":"Virginia","lat":38.37934,"lng":-79.03836,"zip":"22812","miles_from_dt":13.37},{"city":"Singers Glen","state_name":"Virginia","lat":38.56668,"lng":-78.92048,"zip":"22850","miles_from_dt":14.15},{"city":"New Hope","state_name":"Virginia","lat":38.20099,"lng":-78.90828,"zip":"24469","miles_from_dt":14.35},{"city":"Fort Defiance","state_name":"Virginia","lat":38.2116,"lng":-78.933,"zip":"24437","miles_from_dt":14.36},{"city":"Crimora","state_name":"Virginia","lat":38.16897,"lng":-78.83924,"zip":"24431","miles_from_dt":15.31},{"city":"Dyke","state_name":"Virginia","lat":38.25785,"lng":-78.55474,"zip":"22935","miles_from_dt":15.72},{"city":"Dayton","state_name":"Virginia","lat":38.46349,"lng":-79.0743,"zip":"22821","miles_from_dt":16.16},{"city":"Free Union","state_name":"Virginia","lat":38.20559,"lng":-78.59705,"zip":"22940","miles_from_dt":16.46},{"city":"Verona","state_name":"Virginia","lat":38.20502,"lng":-78.99706,"zip":"24482","miles_from_dt":16.82},{"city":"Broadway","state_name":"Virginia","lat":38.63469,"lng":-78.80939,"zip":"22815","miles_from_dt":17.05},{"city":"Crozet","state_name":"Virginia","lat":38.15037,"lng":-78.69743,"zip":"22932","miles_from_dt":17.18},{"city":"Stanardsville","state_name":"Virginia","lat":38.33588,"lng":-78.46915,"zip":"22973","miles_from_dt":17.92},{"city":"Timberville","state_name":"Virginia","lat":38.65156,"lng":-78.76406,"zip":"22853","miles_from_dt":18.25},{"city":"Stanley","state_name":"Virginia","lat":38.56061,"lng":-78.51061,"zip":"22851","miles_from_dt":19.37},{"city":"White Hall","state_name":"Virginia","lat":38.11941,"lng":-78.6607,"zip":"22987","miles_from_dt":19.86},{"city":"New Market","state_name":"Virginia","lat":38.65886,"lng":-78.66038,"zip":"22844","miles_from_dt":20.01},{"city":"Mount Solon","state_name":"Virginia","lat":38.36703,"lng":-79.16053,"zip":"22843","miles_from_dt":20.04},{"city":"Hinton","state_name":"Virginia","lat":38.56395,"lng":-79.10005,"zip":"22831","miles_from_dt":20.63},{"city":"Waynesboro","state_name":"Virginia","lat":38.09588,"lng":-78.88585,"zip":"22980","miles_from_dt":20.77},{"city":"Quinque","state_name":"Virginia","lat":38.27941,"lng":-78.43045,"zip":"22965","miles_from_dt":21.04},{"city":"Fulks Run","state_name":"Virginia","lat":38.65789,"lng":-78.97902,"zip":"22830","miles_from_dt":21.19},{"city":"Staunton","state_name":"Virginia","lat":38.16322,"lng":-79.06689,"zip":"24402","miles_from_dt":21.52},{"city":"Fishersville","state_name":"Virginia","lat":38.10575,"lng":-78.97288,"zip":"22939","miles_from_dt":21.8},{"city":"Earlysville","state_name":"Virginia","lat":38.1671,"lng":-78.49974,"zip":"22936","miles_from_dt":22.03},{"city":"Hood","state_name":"Virginia","lat":38.33789,"lng":-78.38821,"zip":"22723","miles_from_dt":22.22},{"city":"Quicksburg","state_name":"Virginia","lat":38.71792,"lng":-78.70972,"zip":"22847","miles_from_dt":23.2},{"city":"Greenwood","state_name":"Virginia","lat":38.04508,"lng":-78.78369,"zip":"22943","miles_from_dt":23.65},{"city":"Churchville","state_name":"Virginia","lat":38.26389,"lng":-79.20019,"zip":"24421","miles_from_dt":23.75},{"city":"Staunton","state_name":"Virginia","lat":38.13257,"lng":-79.08846,"zip":"24401","miles_from_dt":23.86},{"city":"Ruckersville","state_name":"Virginia","lat":38.24111,"lng":-78.39407,"zip":"22968","miles_from_dt":23.9},{"city":"Wolftown","state_name":"Virginia","lat":38.35812,"lng":-78.3482,"zip":"22748","miles_from_dt":24.21},{"city":"Charlottesville","state_name":"Virginia","lat":38.08874,"lng":-78.55569,"zip":"22901","miles_from_dt":24.32},{"city":"Syria","state_name":"Virginia","lat":38.52477,"lng":-78.37132,"zip":"22743","miles_from_dt":24.71},{"city":"Ivy","state_name":"Virginia","lat":38.05725,"lng":-78.59772,"zip":"22945","miles_from_dt":25.15},{"city":"Madison","state_name":"Virginia","lat":38.39626,"lng":-78.30058,"zip":"22727","miles_from_dt":26.7},{"city":"Luray","state_name":"Virginia","lat":38.67199,"lng":-78.4548,"zip":"22835","miles_from_dt":26.81},{"city":"Mount Jackson","state_name":"Virginia","lat":38.77191,"lng":-78.6992,"zip":"22842","miles_from_dt":26.96},{"city":"Orkney Springs","state_name":"Virginia","lat":38.77991,"lng":-78.8375,"zip":"22845","miles_from_dt":27.15},{"city":"Criders","state_name":"Virginia","lat":38.74387,"lng":-79.00948,"zip":"22820","miles_from_dt":27.22},{"city":"Batesville","state_name":"Virginia","lat":37.99565,"lng":-78.72021,"zip":"22924","miles_from_dt":27.34},{"city":"Charlottesville","state_name":"Virginia","lat":38.02167,"lng":-78.59871,"zip":"22910","miles_from_dt":27.37},{"city":"Brandywine","state_name":"West Virginia","lat":38.64454,"lng":-79.18706,"zip":"26802","miles_from_dt":27.76},{"city":"Charlottesville","state_name":"Virginia","lat":38.01239,"lng":-78.60159,"zip":"22903","miles_from_dt":27.9},{"city":"Mint Spring","state_name":"Virginia","lat":38.06358,"lng":-79.11379,"zip":"24463","miles_from_dt":28.39},{"city":"Banco","state_name":"Virginia","lat":38.46239,"lng":-78.27634,"zip":"22711","miles_from_dt":28.47},{"city":"Afton","state_name":"Virginia","lat":37.97294,"lng":-78.81276,"zip":"22920","miles_from_dt":28.64},{"city":"Charlottesville","state_name":"Virginia","lat":38.03492,"lng":-78.51161,"zip":"22904","miles_from_dt":28.74},{"city":"Rochelle","state_name":"Virginia","lat":38.28692,"lng":-78.27685,"zip":"22738","miles_from_dt":28.86},{"city":"Pratts","state_name":"Virginia","lat":38.34413,"lng":-78.26151,"zip":"22731","miles_from_dt":28.99},{"city":"Barboursville","state_name":"Virginia","lat":38.18671,"lng":-78.32405,"zip":"22923","miles_from_dt":29},{"city":"Charlottesville","state_name":"Virginia","lat":38.09522,"lng":-78.4078,"zip":"22911","miles_from_dt":29.07},{"city":"Swoope","state_name":"Virginia","lat":38.15353,"lng":-79.23992,"zip":"24479","miles_from_dt":29.21},{"city":"Etlan","state_name":"Virginia","lat":38.52888,"lng":-78.28337,"zip":"22719","miles_from_dt":29.27},{"city":"Charlottesville","state_name":"Virginia","lat":38.04321,"lng":-78.47404,"zip":"22909","miles_from_dt":29.42},{"city":"Charlottesville","state_name":"Virginia","lat":38.03103,"lng":-78.49639,"zip":"22908","miles_from_dt":29.42},{"city":"Bergton","state_name":"Virginia","lat":38.79264,"lng":-78.9757,"zip":"22811","miles_from_dt":29.63},{"city":"Stuarts Draft","state_name":"Virginia","lat":38.00416,"lng":-79.04374,"zip":"24477","miles_from_dt":29.79}],"targetCityZipCode":"22846","targetCityState":"Virginia"},"__N_SSG":true}