{"pageProps":{"stateName":"Virginia","cityName":"salem","nearbyCities":[{"city":"Roanoke","state_name":"Virginia","lat":37.29241,"lng":-80.06396,"zip":"24157","miles_from_dt":2.89},{"city":"Roanoke","state_name":"Virginia","lat":37.29,"lng":-80.06219,"zip":"24155","miles_from_dt":3.01},{"city":"Roanoke","state_name":"Virginia","lat":37.29472,"lng":-79.99183,"zip":"24017","miles_from_dt":6.85},{"city":"Roanoke","state_name":"Virginia","lat":37.21238,"lng":-80.04261,"zip":"24018","miles_from_dt":7.09},{"city":"Catawba","state_name":"Virginia","lat":37.37316,"lng":-80.21238,"zip":"24070","miles_from_dt":7.48},{"city":"Roanoke","state_name":"Virginia","lat":37.25588,"lng":-79.97979,"zip":"24015","miles_from_dt":8.02},{"city":"Elliston","state_name":"Virginia","lat":37.22594,"lng":-80.24748,"zip":"24087","miles_from_dt":8.73},{"city":"Roanoke","state_name":"Virginia","lat":37.27791,"lng":-79.95694,"zip":"24002","miles_from_dt":8.86},{"city":"Roanoke","state_name":"Virginia","lat":37.27169,"lng":-79.95629,"zip":"24038","miles_from_dt":8.97},{"city":"Roanoke","state_name":"Virginia","lat":37.27342,"lng":-79.95596,"zip":"24033","miles_from_dt":8.97},{"city":"Roanoke","state_name":"Virginia","lat":37.27219,"lng":-79.95606,"zip":"24031","miles_from_dt":8.98},{"city":"Roanoke","state_name":"Virginia","lat":37.27362,"lng":-79.95503,"zip":"24027","miles_from_dt":9.02},{"city":"Roanoke","state_name":"Virginia","lat":37.27208,"lng":-79.95468,"zip":"24016","miles_from_dt":9.06},{"city":"Roanoke","state_name":"Virginia","lat":37.27096,"lng":-79.95433,"zip":"24030","miles_from_dt":9.09},{"city":"Roanoke","state_name":"Virginia","lat":37.27292,"lng":-79.95282,"zip":"24025","miles_from_dt":9.15},{"city":"Roanoke","state_name":"Virginia","lat":37.27159,"lng":-79.9527,"zip":"24029","miles_from_dt":9.17},{"city":"Roanoke","state_name":"Virginia","lat":37.26997,"lng":-79.9517,"zip":"24023","miles_from_dt":9.24},{"city":"Roanoke","state_name":"Virginia","lat":37.27224,"lng":-79.95112,"zip":"24026","miles_from_dt":9.25},{"city":"Roanoke","state_name":"Virginia","lat":37.34622,"lng":-79.95718,"zip":"24050","miles_from_dt":9.39},{"city":"Roanoke","state_name":"Virginia","lat":37.3446,"lng":-79.95564,"zip":"24019","miles_from_dt":9.43},{"city":"Roanoke","state_name":"Virginia","lat":37.28178,"lng":-79.94288,"zip":"24028","miles_from_dt":9.6},{"city":"Roanoke","state_name":"Virginia","lat":37.27134,"lng":-79.94435,"zip":"24008","miles_from_dt":9.62},{"city":"Roanoke","state_name":"Virginia","lat":37.27019,"lng":-79.94467,"zip":"24004","miles_from_dt":9.62},{"city":"Roanoke","state_name":"Virginia","lat":37.27307,"lng":-79.94332,"zip":"24006","miles_from_dt":9.66},{"city":"Roanoke","state_name":"Virginia","lat":37.27347,"lng":-79.9421,"zip":"24003","miles_from_dt":9.72},{"city":"Roanoke","state_name":"Virginia","lat":37.27587,"lng":-79.94159,"zip":"24042","miles_from_dt":9.72},{"city":"Roanoke","state_name":"Virginia","lat":37.2715,"lng":-79.94234,"zip":"24010","miles_from_dt":9.73},{"city":"Bent Mountain","state_name":"Virginia","lat":37.15577,"lng":-80.13159,"zip":"24059","miles_from_dt":9.76},{"city":"Roanoke","state_name":"Virginia","lat":37.2706,"lng":-79.9415,"zip":"24007","miles_from_dt":9.79},{"city":"Roanoke","state_name":"Virginia","lat":37.27048,"lng":-79.94128,"zip":"24011","miles_from_dt":9.8},{"city":"Roanoke","state_name":"Virginia","lat":37.27119,"lng":-79.94097,"zip":"24005","miles_from_dt":9.81},{"city":"Roanoke","state_name":"Virginia","lat":37.28012,"lng":-79.93826,"zip":"24034","miles_from_dt":9.87},{"city":"Roanoke","state_name":"Virginia","lat":37.27076,"lng":-79.93933,"zip":"24001","miles_from_dt":9.9},{"city":"Roanoke","state_name":"Virginia","lat":37.27066,"lng":-79.93851,"zip":"24009","miles_from_dt":9.95},{"city":"Roanoke","state_name":"Virginia","lat":37.28023,"lng":-79.9357,"zip":"24037","miles_from_dt":10},{"city":"Roanoke","state_name":"Virginia","lat":37.27828,"lng":-79.9353,"zip":"24032","miles_from_dt":10.04},{"city":"Roanoke","state_name":"Virginia","lat":37.2771,"lng":-79.93464,"zip":"24040","miles_from_dt":10.09},{"city":"Roanoke","state_name":"Virginia","lat":37.27689,"lng":-79.93429,"zip":"24022","miles_from_dt":10.11},{"city":"Roanoke","state_name":"Virginia","lat":37.27579,"lng":-79.93424,"zip":"24024","miles_from_dt":10.12},{"city":"Roanoke","state_name":"Virginia","lat":37.27891,"lng":-79.93298,"zip":"24036","miles_from_dt":10.16},{"city":"Roanoke","state_name":"Virginia","lat":37.2824,"lng":-79.92859,"zip":"24035","miles_from_dt":10.38},{"city":"Roanoke","state_name":"Virginia","lat":37.35739,"lng":-79.94279,"zip":"24020","miles_from_dt":10.42},{"city":"Roanoke","state_name":"Virginia","lat":37.27017,"lng":-79.92206,"zip":"24043","miles_from_dt":10.85},{"city":"Roanoke","state_name":"Virginia","lat":37.26691,"lng":-79.92219,"zip":"24013","miles_from_dt":10.88},{"city":"Roanoke","state_name":"Virginia","lat":37.31585,"lng":-79.89833,"zip":"24012","miles_from_dt":12.07},{"city":"Roanoke","state_name":"Virginia","lat":37.22427,"lng":-79.91282,"zip":"24014","miles_from_dt":12.27},{"city":"Cloverdale","state_name":"Virginia","lat":37.36337,"lng":-79.90278,"zip":"24077","miles_from_dt":12.61},{"city":"Daleville","state_name":"Virginia","lat":37.40614,"lng":-79.92031,"zip":"24083","miles_from_dt":13.16},{"city":"Troutville","state_name":"Virginia","lat":37.42589,"lng":-79.93788,"zip":"24175","miles_from_dt":13.25},{"city":"New Castle","state_name":"Virginia","lat":37.47949,"lng":-80.19468,"zip":"24127","miles_from_dt":13.32},{"city":"Shawsville","state_name":"Virginia","lat":37.13735,"lng":-80.25828,"zip":"24162","miles_from_dt":13.5},{"city":"Boones Mill","state_name":"Virginia","lat":37.11814,"lng":-79.96453,"zip":"24065","miles_from_dt":14.89},{"city":"Copper Hill","state_name":"Virginia","lat":37.0539,"lng":-80.15418,"zip":"24079","miles_from_dt":16.88},{"city":"Blacksburg","state_name":"Virginia","lat":37.25772,"lng":-80.41961,"zip":"24060","miles_from_dt":16.94},{"city":"Blacksburg","state_name":"Virginia","lat":37.22884,"lng":-80.41576,"zip":"24063","miles_from_dt":17.17},{"city":"Blacksburg","state_name":"Virginia","lat":37.22844,"lng":-80.41562,"zip":"24062","miles_from_dt":17.17},{"city":"Vinton","state_name":"Virginia","lat":37.2855,"lng":-79.79963,"zip":"24179","miles_from_dt":17.45},{"city":"McCoy","state_name":"Virginia","lat":37.25889,"lng":-80.42978,"zip":"24111","miles_from_dt":17.48},{"city":"Blacksburg","state_name":"Virginia","lat":37.22539,"lng":-80.42658,"zip":"24061","miles_from_dt":17.81},{"city":"Callaway","state_name":"Virginia","lat":37.03737,"lng":-80.06884,"zip":"24067","miles_from_dt":18.08},{"city":"Check","state_name":"Virginia","lat":37.03809,"lng":-80.23113,"zip":"24072","miles_from_dt":18.93},{"city":"Christiansburg","state_name":"Virginia","lat":37.14246,"lng":-80.40079,"zip":"24068","miles_from_dt":18.97},{"city":"Hardy","state_name":"Virginia","lat":37.17702,"lng":-79.80111,"zip":"24101","miles_from_dt":19.23},{"city":"Blue Ridge","state_name":"Virginia","lat":37.37237,"lng":-79.7759,"zip":"24064","miles_from_dt":19.45},{"city":"Paint Bank","state_name":"Virginia","lat":37.56836,"lng":-80.22894,"zip":"24131","miles_from_dt":19.73},{"city":"Newport","state_name":"Virginia","lat":37.3426,"lng":-80.47196,"zip":"24128","miles_from_dt":19.85},{"city":"Fincastle","state_name":"Virginia","lat":37.52633,"lng":-79.88921,"zip":"24090","miles_from_dt":20.16},{"city":"Pilot","state_name":"Virginia","lat":37.05052,"lng":-80.31684,"zip":"24138","miles_from_dt":20.27},{"city":"Christiansburg","state_name":"Virginia","lat":37.13053,"lng":-80.4225,"zip":"24073","miles_from_dt":20.42},{"city":"Waiteville","state_name":"West Virginia","lat":37.48942,"lng":-80.41749,"zip":"24984","miles_from_dt":21.25},{"city":"Goodview","state_name":"Virginia","lat":37.22304,"lng":-79.73787,"zip":"24095","miles_from_dt":21.46},{"city":"Wirtz","state_name":"Virginia","lat":37.0881,"lng":-79.77642,"zip":"24184","miles_from_dt":23.63},{"city":"Gap Mills","state_name":"West Virginia","lat":37.58824,"lng":-80.3577,"zip":"24941","miles_from_dt":24.1},{"city":"Villamont","state_name":"Virginia","lat":37.42527,"lng":-79.70855,"zip":"24178","miles_from_dt":24.12},{"city":"Montvale","state_name":"Virginia","lat":37.4212,"lng":-79.69372,"zip":"24122","miles_from_dt":24.78},{"city":"Thaxton","state_name":"Virginia","lat":37.35087,"lng":-79.66762,"zip":"24174","miles_from_dt":24.98},{"city":"Riner","state_name":"Virginia","lat":37.02277,"lng":-80.43424,"zip":"24149","miles_from_dt":25.79},{"city":"Radford","state_name":"Virginia","lat":37.13833,"lng":-80.55084,"zip":"24142","miles_from_dt":26.35},{"city":"Pembroke","state_name":"Virginia","lat":37.31927,"lng":-80.60686,"zip":"24136","miles_from_dt":27.08},{"city":"Rocky Mount","state_name":"Virginia","lat":36.95827,"lng":-79.86457,"zip":"24151","miles_from_dt":27.16},{"city":"Ripplemead","state_name":"Virginia","lat":37.40229,"lng":-80.59694,"zip":"24150","miles_from_dt":27.46},{"city":"Moneta","state_name":"Virginia","lat":37.1709,"lng":-79.64141,"zip":"24121","miles_from_dt":27.57},{"city":"Redwood","state_name":"Virginia","lat":37.00792,"lng":-79.77025,"zip":"24146","miles_from_dt":27.59},{"city":"Ferrum","state_name":"Virginia","lat":36.89492,"lng":-80.0798,"zip":"24088","miles_from_dt":27.78},{"city":"Radford","state_name":"Virginia","lat":37.12589,"lng":-80.57524,"zip":"24143","miles_from_dt":27.93},{"city":"Glade Hill","state_name":"Virginia","lat":37.00158,"lng":-79.76306,"zip":"24092","miles_from_dt":28.18},{"city":"Radford","state_name":"Virginia","lat":37.10105,"lng":-80.56677,"zip":"24141","miles_from_dt":28.29},{"city":"Floyd","state_name":"Virginia","lat":36.92131,"lng":-80.32264,"zip":"24091","miles_from_dt":28.29},{"city":"New River","state_name":"Virginia","lat":37.13947,"lng":-80.5918,"zip":"24129","miles_from_dt":28.39},{"city":"Belspring","state_name":"Virginia","lat":37.18257,"lng":-80.61637,"zip":"24058","miles_from_dt":28.68},{"city":"Eggleston","state_name":"Virginia","lat":37.27268,"lng":-80.63585,"zip":"24086","miles_from_dt":28.69},{"city":"Buchanan","state_name":"Virginia","lat":37.5382,"lng":-79.67822,"zip":"24066","miles_from_dt":29.28},{"city":"Oriskany","state_name":"Virginia","lat":37.66188,"lng":-79.83496,"zip":"24130","miles_from_dt":29.54},{"city":"Parrott","state_name":"Virginia","lat":37.20534,"lng":-80.64707,"zip":"24132","miles_from_dt":29.94},{"city":"Union","state_name":"West Virginia","lat":37.59165,"lng":-80.51672,"zip":"24983","miles_from_dt":29.98}],"targetCityZipCode":"24153","targetCityState":"Virginia"},"__N_SSG":true}