{"pageProps":{"stateName":"Virginia","cityName":"saltville","nearbyCities":[{"city":"Broadford","state_name":"Virginia","lat":36.95277,"lng":-81.67145,"zip":"24316","miles_from_dt":2.92},{"city":"Tannersville","state_name":"Virginia","lat":37.00206,"lng":-81.56961,"zip":"24377","miles_from_dt":9.08},{"city":"Pounding Mill","state_name":"Virginia","lat":37.05258,"lng":-81.70981,"zip":"24637","miles_from_dt":9.65},{"city":"Cedar Bluff","state_name":"Virginia","lat":37.02955,"lng":-81.795,"zip":"24609","miles_from_dt":9.86},{"city":"Marion","state_name":"Virginia","lat":36.82159,"lng":-81.54001,"zip":"24354","miles_from_dt":10.5},{"city":"Chilhowie","state_name":"Virginia","lat":36.76048,"lng":-81.65778,"zip":"24319","miles_from_dt":10.71},{"city":"Glade Spring","state_name":"Virginia","lat":36.75267,"lng":-81.75891,"zip":"24340","miles_from_dt":11.71},{"city":"Emory","state_name":"Virginia","lat":36.77357,"lng":-81.82971,"zip":"24327","miles_from_dt":12.33},{"city":"Meadowview","state_name":"Virginia","lat":36.76672,"lng":-81.84552,"zip":"24361","miles_from_dt":13.25},{"city":"Rosedale","state_name":"Virginia","lat":36.95575,"lng":-81.94167,"zip":"24280","miles_from_dt":14.18},{"city":"Doran","state_name":"Virginia","lat":37.09728,"lng":-81.84461,"zip":"24612","miles_from_dt":15.26},{"city":"Tazewell","state_name":"Virginia","lat":37.07732,"lng":-81.50054,"zip":"24651","miles_from_dt":15.45},{"city":"Richlands","state_name":"Virginia","lat":37.11797,"lng":-81.80802,"zip":"24641","miles_from_dt":15.52},{"city":"Atkins","state_name":"Virginia","lat":36.87292,"lng":-81.40161,"zip":"24311","miles_from_dt":16.27},{"city":"Red Ash","state_name":"Virginia","lat":37.10647,"lng":-81.86272,"zip":"24640","miles_from_dt":16.35},{"city":"Burkes Garden","state_name":"Virginia","lat":37.116,"lng":-81.52534,"zip":"24608","miles_from_dt":16.71},{"city":"Swords Creek","state_name":"Virginia","lat":37.08303,"lng":-81.92198,"zip":"24649","miles_from_dt":17.32},{"city":"Ceres","state_name":"Virginia","lat":37.00047,"lng":-81.38658,"zip":"24318","miles_from_dt":17.89},{"city":"Honaker","state_name":"Virginia","lat":37.02291,"lng":-82.00059,"zip":"24260","miles_from_dt":18.72},{"city":"Bandy","state_name":"Virginia","lat":37.18383,"lng":-81.65762,"zip":"24602","miles_from_dt":18.74},{"city":"Damascus","state_name":"Virginia","lat":36.64408,"lng":-81.73689,"zip":"24236","miles_from_dt":18.75},{"city":"Amonate","state_name":"Virginia","lat":37.19068,"lng":-81.64049,"zip":"24601","miles_from_dt":19.32},{"city":"Sugar Grove","state_name":"Virginia","lat":36.77128,"lng":-81.39026,"zip":"24375","miles_from_dt":19.34},{"city":"Shortt Gap","state_name":"Virginia","lat":37.15848,"lng":-81.87377,"zip":"24647","miles_from_dt":19.69},{"city":"Abingdon","state_name":"Virginia","lat":36.77231,"lng":-82.02244,"zip":"24210","miles_from_dt":20.78},{"city":"Troutdale","state_name":"Virginia","lat":36.69126,"lng":-81.42944,"zip":"24378","miles_from_dt":21.1},{"city":"Abingdon","state_name":"Virginia","lat":36.70693,"lng":-81.97439,"zip":"24212","miles_from_dt":21.2},{"city":"North Tazewell","state_name":"Virginia","lat":37.17292,"lng":-81.4782,"zip":"24630","miles_from_dt":21.42},{"city":"Berwind","state_name":"West Virginia","lat":37.22036,"lng":-81.63026,"zip":"24815","miles_from_dt":21.43},{"city":"Raven","state_name":"Virginia","lat":37.17357,"lng":-81.90461,"zip":"24639","miles_from_dt":21.47},{"city":"Whitetop","state_name":"Virginia","lat":36.6147,"lng":-81.5791,"zip":"24292","miles_from_dt":21.52},{"city":"Rural Retreat","state_name":"Virginia","lat":36.89283,"lng":-81.30003,"zip":"24368","miles_from_dt":21.7},{"city":"Jewell Ridge","state_name":"Virginia","lat":37.22005,"lng":-81.79638,"zip":"24622","miles_from_dt":21.93},{"city":"Bishop","state_name":"Virginia","lat":37.21088,"lng":-81.54378,"zip":"24604","miles_from_dt":22.07},{"city":"Whitewood","state_name":"Virginia","lat":37.22363,"lng":-81.84737,"zip":"24657","miles_from_dt":23.07},{"city":"Lebanon","state_name":"Virginia","lat":36.8671,"lng":-82.10523,"zip":"24266","miles_from_dt":23.16},{"city":"Abingdon","state_name":"Virginia","lat":36.65413,"lng":-81.95643,"zip":"24211","miles_from_dt":23.16},{"city":"Warriormine","state_name":"West Virginia","lat":37.25186,"lng":-81.69052,"zip":"24894","miles_from_dt":23.34},{"city":"Laurel Bloomery","state_name":"Tennessee","lat":36.57462,"lng":-81.72556,"zip":"37680","miles_from_dt":23.44},{"city":"Horsepen","state_name":"Virginia","lat":37.22745,"lng":-81.51732,"zip":"24619","miles_from_dt":23.69},{"city":"Newhall","state_name":"West Virginia","lat":37.25216,"lng":-81.59925,"zip":"24866","miles_from_dt":23.9},{"city":"Rowe","state_name":"Virginia","lat":37.13751,"lng":-82.02976,"zip":"24646","miles_from_dt":24.28},{"city":"Cleveland","state_name":"Virginia","lat":36.97543,"lng":-82.14115,"zip":"24225","miles_from_dt":25.28},{"city":"Keen Mountain","state_name":"Virginia","lat":37.20438,"lng":-81.98706,"zip":"24624","miles_from_dt":25.89},{"city":"Mouth Of Wilson","state_name":"Virginia","lat":36.6137,"lng":-81.40084,"zip":"24363","miles_from_dt":26.2},{"city":"Cucumber","state_name":"West Virginia","lat":37.29212,"lng":-81.62411,"zip":"24826","miles_from_dt":26.37},{"city":"Squire","state_name":"West Virginia","lat":37.27943,"lng":-81.55048,"zip":"24884","miles_from_dt":26.41},{"city":"Oakwood","state_name":"Virginia","lat":37.2202,"lng":-81.99714,"zip":"24631","miles_from_dt":27.08},{"city":"Crockett","state_name":"Virginia","lat":36.86513,"lng":-81.1997,"zip":"24323","miles_from_dt":27.42},{"city":"Pilgrims Knob","state_name":"Virginia","lat":37.27411,"lng":-81.90253,"zip":"24634","miles_from_dt":27.48},{"city":"Shady Valley","state_name":"Tennessee","lat":36.54548,"lng":-81.88281,"zip":"37688","miles_from_dt":27.51},{"city":"War","state_name":"West Virginia","lat":37.31691,"lng":-81.69699,"zip":"24892","miles_from_dt":27.82},{"city":"Lansing","state_name":"North Carolina","lat":36.52982,"lng":-81.53486,"zip":"28643","miles_from_dt":27.84},{"city":"Raysal","state_name":"West Virginia","lat":37.31639,"lng":-81.76725,"zip":"24879","miles_from_dt":28.1},{"city":"Speedwell","state_name":"Virginia","lat":36.79129,"lng":-81.20178,"zip":"24374","miles_from_dt":28.39},{"city":"Davenport","state_name":"Virginia","lat":37.1136,"lng":-82.14577,"zip":"24239","miles_from_dt":28.68},{"city":"Bluefield","state_name":"Virginia","lat":37.24093,"lng":-81.36123,"zip":"24605","miles_from_dt":29.02},{"city":"Jenkinjones","state_name":"West Virginia","lat":37.28206,"lng":-81.43413,"zip":"24848","miles_from_dt":29.11},{"city":"Grassy Creek","state_name":"North Carolina","lat":36.55218,"lng":-81.40994,"zip":"28631","miles_from_dt":29.39},{"city":"Bee","state_name":"Virginia","lat":37.1014,"lng":-82.17783,"zip":"24217","miles_from_dt":29.88},{"city":"Vansant","state_name":"Virginia","lat":37.1743,"lng":-82.12364,"zip":"24656","miles_from_dt":29.92},{"city":"Elbert","state_name":"West Virginia","lat":37.33399,"lng":-81.55799,"zip":"24830","miles_from_dt":29.92}],"targetCityZipCode":"24370","targetCityState":"Virginia"},"__N_SSG":true}