{"pageProps":{"stateName":"Virginia","cityName":"vinton","nearbyCities":[{"city":"Goodview","state_name":"Virginia","lat":37.22304,"lng":-79.73787,"zip":"24095","miles_from_dt":5.49},{"city":"Roanoke","state_name":"Virginia","lat":37.31585,"lng":-79.89833,"zip":"24012","miles_from_dt":5.83},{"city":"Blue Ridge","state_name":"Virginia","lat":37.37237,"lng":-79.7759,"zip":"24064","miles_from_dt":6.13},{"city":"Roanoke","state_name":"Virginia","lat":37.27017,"lng":-79.92206,"zip":"24043","miles_from_dt":6.83},{"city":"Roanoke","state_name":"Virginia","lat":37.26691,"lng":-79.92219,"zip":"24013","miles_from_dt":6.87},{"city":"Roanoke","state_name":"Virginia","lat":37.2824,"lng":-79.92859,"zip":"24035","miles_from_dt":7.11},{"city":"Roanoke","state_name":"Virginia","lat":37.27891,"lng":-79.93298,"zip":"24036","miles_from_dt":7.36},{"city":"Roanoke","state_name":"Virginia","lat":37.27689,"lng":-79.93429,"zip":"24022","miles_from_dt":7.44},{"city":"Roanoke","state_name":"Virginia","lat":37.27579,"lng":-79.93424,"zip":"24024","miles_from_dt":7.45},{"city":"Roanoke","state_name":"Virginia","lat":37.2771,"lng":-79.93464,"zip":"24040","miles_from_dt":7.46},{"city":"Hardy","state_name":"Virginia","lat":37.17702,"lng":-79.80111,"zip":"24101","miles_from_dt":7.48},{"city":"Roanoke","state_name":"Virginia","lat":37.27828,"lng":-79.9353,"zip":"24032","miles_from_dt":7.49},{"city":"Roanoke","state_name":"Virginia","lat":37.28023,"lng":-79.9357,"zip":"24037","miles_from_dt":7.51},{"city":"Roanoke","state_name":"Virginia","lat":37.22427,"lng":-79.91282,"zip":"24014","miles_from_dt":7.53},{"city":"Roanoke","state_name":"Virginia","lat":37.28012,"lng":-79.93826,"zip":"24034","miles_from_dt":7.65},{"city":"Roanoke","state_name":"Virginia","lat":37.27066,"lng":-79.93851,"zip":"24009","miles_from_dt":7.72},{"city":"Roanoke","state_name":"Virginia","lat":37.27076,"lng":-79.93933,"zip":"24001","miles_from_dt":7.77},{"city":"Cloverdale","state_name":"Virginia","lat":37.36337,"lng":-79.90278,"zip":"24077","miles_from_dt":7.82},{"city":"Roanoke","state_name":"Virginia","lat":37.27119,"lng":-79.94097,"zip":"24005","miles_from_dt":7.85},{"city":"Roanoke","state_name":"Virginia","lat":37.27587,"lng":-79.94159,"zip":"24042","miles_from_dt":7.85},{"city":"Roanoke","state_name":"Virginia","lat":37.27048,"lng":-79.94128,"zip":"24011","miles_from_dt":7.87},{"city":"Roanoke","state_name":"Virginia","lat":37.27347,"lng":-79.9421,"zip":"24003","miles_from_dt":7.89},{"city":"Roanoke","state_name":"Virginia","lat":37.2706,"lng":-79.9415,"zip":"24007","miles_from_dt":7.89},{"city":"Roanoke","state_name":"Virginia","lat":37.28178,"lng":-79.94288,"zip":"24028","miles_from_dt":7.9},{"city":"Roanoke","state_name":"Virginia","lat":37.2715,"lng":-79.94234,"zip":"24010","miles_from_dt":7.92},{"city":"Roanoke","state_name":"Virginia","lat":37.27307,"lng":-79.94332,"zip":"24006","miles_from_dt":7.96},{"city":"Roanoke","state_name":"Virginia","lat":37.27134,"lng":-79.94435,"zip":"24008","miles_from_dt":8.03},{"city":"Roanoke","state_name":"Virginia","lat":37.27019,"lng":-79.94467,"zip":"24004","miles_from_dt":8.06},{"city":"Roanoke","state_name":"Virginia","lat":37.27224,"lng":-79.95112,"zip":"24026","miles_from_dt":8.4},{"city":"Roanoke","state_name":"Virginia","lat":37.26997,"lng":-79.9517,"zip":"24023","miles_from_dt":8.45},{"city":"Roanoke","state_name":"Virginia","lat":37.27292,"lng":-79.95282,"zip":"24025","miles_from_dt":8.49},{"city":"Roanoke","state_name":"Virginia","lat":37.27159,"lng":-79.9527,"zip":"24029","miles_from_dt":8.49},{"city":"Thaxton","state_name":"Virginia","lat":37.35087,"lng":-79.66762,"zip":"24174","miles_from_dt":8.55},{"city":"Roanoke","state_name":"Virginia","lat":37.27096,"lng":-79.95433,"zip":"24030","miles_from_dt":8.58},{"city":"Roanoke","state_name":"Virginia","lat":37.27208,"lng":-79.95468,"zip":"24016","miles_from_dt":8.59},{"city":"Roanoke","state_name":"Virginia","lat":37.27362,"lng":-79.95503,"zip":"24027","miles_from_dt":8.6},{"city":"Roanoke","state_name":"Virginia","lat":37.27342,"lng":-79.95596,"zip":"24033","miles_from_dt":8.65},{"city":"Roanoke","state_name":"Virginia","lat":37.27219,"lng":-79.95606,"zip":"24031","miles_from_dt":8.67},{"city":"Roanoke","state_name":"Virginia","lat":37.27791,"lng":-79.95694,"zip":"24002","miles_from_dt":8.68},{"city":"Roanoke","state_name":"Virginia","lat":37.27169,"lng":-79.95629,"zip":"24038","miles_from_dt":8.69},{"city":"Roanoke","state_name":"Virginia","lat":37.35739,"lng":-79.94279,"zip":"24020","miles_from_dt":9.31},{"city":"Roanoke","state_name":"Virginia","lat":37.3446,"lng":-79.95564,"zip":"24019","miles_from_dt":9.51},{"city":"Roanoke","state_name":"Virginia","lat":37.34622,"lng":-79.95718,"zip":"24050","miles_from_dt":9.64},{"city":"Roanoke","state_name":"Virginia","lat":37.25588,"lng":-79.97979,"zip":"24015","miles_from_dt":10.14},{"city":"Roanoke","state_name":"Virginia","lat":37.29472,"lng":-79.99183,"zip":"24017","miles_from_dt":10.61},{"city":"Daleville","state_name":"Virginia","lat":37.40614,"lng":-79.92031,"zip":"24083","miles_from_dt":10.65},{"city":"Villamont","state_name":"Virginia","lat":37.42527,"lng":-79.70855,"zip":"24178","miles_from_dt":10.87},{"city":"Montvale","state_name":"Virginia","lat":37.4212,"lng":-79.69372,"zip":"24122","miles_from_dt":11.03},{"city":"Moneta","state_name":"Virginia","lat":37.1709,"lng":-79.64141,"zip":"24121","miles_from_dt":11.77},{"city":"Troutville","state_name":"Virginia","lat":37.42589,"lng":-79.93788,"zip":"24175","miles_from_dt":12.31},{"city":"Wirtz","state_name":"Virginia","lat":37.0881,"lng":-79.77642,"zip":"24184","miles_from_dt":13.67},{"city":"Roanoke","state_name":"Virginia","lat":37.21238,"lng":-80.04261,"zip":"24018","miles_from_dt":14.31},{"city":"Roanoke","state_name":"Virginia","lat":37.29,"lng":-80.06219,"zip":"24155","miles_from_dt":14.47},{"city":"Roanoke","state_name":"Virginia","lat":37.29241,"lng":-80.06396,"zip":"24157","miles_from_dt":14.57},{"city":"Boones Mill","state_name":"Virginia","lat":37.11814,"lng":-79.96453,"zip":"24065","miles_from_dt":14.7},{"city":"Bedford","state_name":"Virginia","lat":37.3364,"lng":-79.52347,"zip":"24523","miles_from_dt":15.61},{"city":"Fincastle","state_name":"Virginia","lat":37.52633,"lng":-79.88921,"zip":"24090","miles_from_dt":17.32},{"city":"Salem","state_name":"Virginia","lat":37.29674,"lng":-80.11609,"zip":"24153","miles_from_dt":17.45},{"city":"Buchanan","state_name":"Virginia","lat":37.5382,"lng":-79.67822,"zip":"24066","miles_from_dt":18.66},{"city":"Redwood","state_name":"Virginia","lat":37.00792,"lng":-79.77025,"zip":"24146","miles_from_dt":19.21},{"city":"Glade Hill","state_name":"Virginia","lat":37.00158,"lng":-79.76306,"zip":"24092","miles_from_dt":19.68},{"city":"Union Hall","state_name":"Virginia","lat":37.00937,"lng":-79.69193,"zip":"24176","miles_from_dt":19.95},{"city":"Huddleston","state_name":"Virginia","lat":37.13546,"lng":-79.48773,"zip":"24104","miles_from_dt":20.08},{"city":"Bent Mountain","state_name":"Virginia","lat":37.15577,"lng":-80.13159,"zip":"24059","miles_from_dt":20.38},{"city":"Lowry","state_name":"Virginia","lat":37.3486,"lng":-79.4272,"zip":"24570","miles_from_dt":20.97},{"city":"Callaway","state_name":"Virginia","lat":37.03737,"lng":-80.06884,"zip":"24067","miles_from_dt":22.66},{"city":"Rocky Mount","state_name":"Virginia","lat":36.95827,"lng":-79.86457,"zip":"24151","miles_from_dt":22.85},{"city":"Goode","state_name":"Virginia","lat":37.38093,"lng":-79.4021,"zip":"24556","miles_from_dt":22.86},{"city":"Catawba","state_name":"Virginia","lat":37.37316,"lng":-80.21238,"zip":"24070","miles_from_dt":23.52},{"city":"Elliston","state_name":"Virginia","lat":37.22594,"lng":-80.24748,"zip":"24087","miles_from_dt":25.03},{"city":"Copper Hill","state_name":"Virginia","lat":37.0539,"lng":-80.15418,"zip":"24079","miles_from_dt":25.26},{"city":"Sandy Level","state_name":"Virginia","lat":36.98132,"lng":-79.54391,"zip":"24161","miles_from_dt":25.29},{"city":"Lynch Station","state_name":"Virginia","lat":37.13671,"lng":-79.37983,"zip":"24571","miles_from_dt":25.33},{"city":"New Castle","state_name":"Virginia","lat":37.47949,"lng":-80.19468,"zip":"24127","miles_from_dt":25.53},{"city":"Oriskany","state_name":"Virginia","lat":37.66188,"lng":-79.83496,"zip":"24130","miles_from_dt":26.03},{"city":"Pittsville","state_name":"Virginia","lat":37.01092,"lng":-79.4752,"zip":"24139","miles_from_dt":26.06},{"city":"Penhook","state_name":"Virginia","lat":36.92587,"lng":-79.65456,"zip":"24137","miles_from_dt":26.06},{"city":"Natural Bridge Station","state_name":"Virginia","lat":37.58763,"lng":-79.50483,"zip":"24579","miles_from_dt":26.4},{"city":"Forest","state_name":"Virginia","lat":37.36655,"lng":-79.3268,"zip":"24551","miles_from_dt":26.63},{"city":"Eagle Rock","state_name":"Virginia","lat":37.67539,"lng":-79.83639,"zip":"24085","miles_from_dt":26.96},{"city":"Shawsville","state_name":"Virginia","lat":37.13735,"lng":-80.25828,"zip":"24162","miles_from_dt":27.28},{"city":"Big Island","state_name":"Virginia","lat":37.55452,"lng":-79.40169,"zip":"24526","miles_from_dt":28.69},{"city":"Natural Bridge","state_name":"Virginia","lat":37.66269,"lng":-79.55693,"zip":"24578","miles_from_dt":29.23},{"city":"Check","state_name":"Virginia","lat":37.03809,"lng":-80.23113,"zip":"24072","miles_from_dt":29.3},{"city":"Evington","state_name":"Virginia","lat":37.23493,"lng":-79.26898,"zip":"24550","miles_from_dt":29.46},{"city":"Coleman Falls","state_name":"Virginia","lat":37.48996,"lng":-79.32097,"zip":"24536","miles_from_dt":29.88}],"targetCityZipCode":"24179","targetCityState":"Virginia"},"__N_SSG":true}