{"pageProps":{"stateName":"Virginia","cityName":"yale","nearbyCities":[{"city":"Sussex","state_name":"Virginia","lat":36.91733,"lng":-77.28011,"zip":"23884","miles_from_dt":5.75},{"city":"Capron","state_name":"Virginia","lat":36.73393,"lng":-77.22525,"zip":"23829","miles_from_dt":7.59},{"city":"Stony Creek","state_name":"Virginia","lat":36.92591,"lng":-77.41543,"zip":"23882","miles_from_dt":9.72},{"city":"Jarratt","state_name":"Virginia","lat":36.82063,"lng":-77.4878,"zip":"23867","miles_from_dt":11.43},{"city":"Drewryville","state_name":"Virginia","lat":36.67032,"lng":-77.3358,"zip":"23844","miles_from_dt":11.67},{"city":"Courtland","state_name":"Virginia","lat":36.75816,"lng":-77.08753,"zip":"23837","miles_from_dt":12},{"city":"Jarratt","state_name":"Virginia","lat":36.75241,"lng":-77.50016,"zip":"23870","miles_from_dt":13.33},{"city":"Carson","state_name":"Virginia","lat":37.02098,"lng":-77.39771,"zip":"23830","miles_from_dt":14.39},{"city":"Sedley","state_name":"Virginia","lat":36.8291,"lng":-77.02065,"zip":"23878","miles_from_dt":14.51},{"city":"Waverly","state_name":"Virginia","lat":37.00755,"lng":-77.11837,"zip":"23890","miles_from_dt":15.02},{"city":"Waverly","state_name":"Virginia","lat":37.04752,"lng":-77.20367,"zip":"23891","miles_from_dt":15.35},{"city":"Boykins","state_name":"Virginia","lat":36.61491,"lng":-77.20724,"zip":"23827","miles_from_dt":15.67},{"city":"Branchville","state_name":"Virginia","lat":36.58693,"lng":-77.28557,"zip":"23828","miles_from_dt":17.04},{"city":"Newsoms","state_name":"Virginia","lat":36.60761,"lng":-77.09803,"zip":"23874","miles_from_dt":18.66},{"city":"Emporia","state_name":"Virginia","lat":36.668,"lng":-77.54972,"zip":"23847","miles_from_dt":18.74},{"city":"Wakefield","state_name":"Virginia","lat":36.95383,"lng":-76.97802,"zip":"23888","miles_from_dt":18.77},{"city":"Disputanta","state_name":"Virginia","lat":37.13625,"lng":-77.22086,"zip":"23842","miles_from_dt":21.12},{"city":"Petersburg","state_name":"Virginia","lat":37.12922,"lng":-77.3953,"zip":"23805","miles_from_dt":21.3},{"city":"Dinwiddie","state_name":"Virginia","lat":37.05421,"lng":-77.55305,"zip":"23841","miles_from_dt":21.33},{"city":"Margarettsville","state_name":"North Carolina","lat":36.51716,"lng":-77.30488,"zip":"27853","miles_from_dt":21.88},{"city":"Franklin","state_name":"Virginia","lat":36.6521,"lng":-76.95776,"zip":"23851","miles_from_dt":21.95},{"city":"Severn","state_name":"North Carolina","lat":36.51883,"lng":-77.19219,"zip":"27877","miles_from_dt":22.3},{"city":"Freeman","state_name":"Virginia","lat":36.78735,"lng":-77.70291,"zip":"23856","miles_from_dt":23.54},{"city":"Zuni","state_name":"Virginia","lat":36.82737,"lng":-76.85662,"zip":"23898","miles_from_dt":23.6},{"city":"Ivor","state_name":"Virginia","lat":36.92012,"lng":-76.86693,"zip":"23866","miles_from_dt":23.77},{"city":"Skippers","state_name":"Virginia","lat":36.59224,"lng":-77.59547,"zip":"23879","miles_from_dt":24.08},{"city":"Pendleton","state_name":"North Carolina","lat":36.49264,"lng":-77.18906,"zip":"27862","miles_from_dt":24.1},{"city":"Carrsville","state_name":"Virginia","lat":36.73861,"lng":-76.84289,"zip":"23315","miles_from_dt":25.25},{"city":"Seaboard","state_name":"North Carolina","lat":36.48015,"lng":-77.40065,"zip":"27876","miles_from_dt":25.27},{"city":"Pleasant Hill","state_name":"North Carolina","lat":36.51832,"lng":-77.51577,"zip":"27866","miles_from_dt":25.34},{"city":"Warfield","state_name":"Virginia","lat":36.8972,"lng":-77.74395,"zip":"23889","miles_from_dt":25.94},{"city":"Dewitt","state_name":"Virginia","lat":37.05638,"lng":-77.67076,"zip":"23840","miles_from_dt":26.41},{"city":"Dendron","state_name":"Virginia","lat":37.08718,"lng":-76.91895,"zip":"23839","miles_from_dt":26.63},{"city":"McKenney","state_name":"Virginia","lat":36.98351,"lng":-77.72629,"zip":"23872","miles_from_dt":26.66},{"city":"Como","state_name":"North Carolina","lat":36.50275,"lng":-77.01394,"zip":"27818","miles_from_dt":27.28},{"city":"Prince George","state_name":"Virginia","lat":37.22941,"lng":-77.25845,"zip":"23875","miles_from_dt":27.3},{"city":"Virginia State University","state_name":"Virginia","lat":37.22638,"lng":-77.40309,"zip":"23806","miles_from_dt":27.87},{"city":"Fort Lee","state_name":"Virginia","lat":37.23618,"lng":-77.33582,"zip":"23801","miles_from_dt":27.89},{"city":"Petersburg","state_name":"Virginia","lat":37.22906,"lng":-77.40367,"zip":"23804","miles_from_dt":28.06},{"city":"Ammon","state_name":"Virginia","lat":37.16145,"lng":-77.58517,"zip":"23822","miles_from_dt":28.12},{"city":"Petersburg","state_name":"Virginia","lat":37.21183,"lng":-77.48028,"zip":"23803","miles_from_dt":28.26},{"city":"Conway","state_name":"North Carolina","lat":36.4154,"lng":-77.24431,"zip":"27820","miles_from_dt":28.94},{"city":"Sutherland","state_name":"Virginia","lat":37.18521,"lng":-77.57834,"zip":"23885","miles_from_dt":29.23},{"city":"Dolphin","state_name":"Virginia","lat":36.84988,"lng":-77.8109,"zip":"23843","miles_from_dt":29.32},{"city":"Elberon","state_name":"Virginia","lat":37.05947,"lng":-76.83224,"zip":"23846","miles_from_dt":29.37},{"city":"Spring Grove","state_name":"Virginia","lat":37.1917,"lng":-76.98588,"zip":"23881","miles_from_dt":29.62},{"city":"Suffolk","state_name":"Virginia","lat":36.63533,"lng":-76.80256,"zip":"23437","miles_from_dt":29.95}],"targetCityZipCode":"23897","targetCityState":"Virginia"},"__N_SSG":true}