{"pageProps":{"stateName":"Connecticut","cityName":"coventry","nearbyCities":[{"city":"Mansfield Depot","state_name":"Connecticut","lat":41.81589,"lng":-72.286,"zip":"06251","miles_from_dt":3.58},{"city":"Andover","state_name":"Connecticut","lat":41.73309,"lng":-72.37603,"zip":"06232","miles_from_dt":3.92},{"city":"Storrs Mansfield","state_name":"Connecticut","lat":41.79852,"lng":-72.24843,"zip":"06268","miles_from_dt":4.82},{"city":"Storrs Mansfield","state_name":"Connecticut","lat":41.80998,"lng":-72.25283,"zip":"06269","miles_from_dt":4.85},{"city":"Bolton","state_name":"Connecticut","lat":41.76647,"lng":-72.43903,"zip":"06043","miles_from_dt":5.27},{"city":"South Willington","state_name":"Connecticut","lat":41.85452,"lng":-72.30189,"zip":"06265","miles_from_dt":5.31},{"city":"Columbia","state_name":"Connecticut","lat":41.69387,"lng":-72.30722,"zip":"06237","miles_from_dt":6.36},{"city":"Tolland","state_name":"Connecticut","lat":41.87917,"lng":-72.36443,"zip":"06084","miles_from_dt":6.77},{"city":"Vernon Rockville","state_name":"Connecticut","lat":41.83641,"lng":-72.46063,"zip":"06066","miles_from_dt":7.27},{"city":"Mansfield Center","state_name":"Connecticut","lat":41.77434,"lng":-72.19669,"zip":"06250","miles_from_dt":7.4},{"city":"Hebron","state_name":"Connecticut","lat":41.68468,"lng":-72.40523,"zip":"06248","miles_from_dt":7.58},{"city":"Willington","state_name":"Connecticut","lat":41.88959,"lng":-72.25933,"zip":"06279","miles_from_dt":8.45},{"city":"Willimantic","state_name":"Connecticut","lat":41.70816,"lng":-72.20731,"zip":"06226","miles_from_dt":8.55},{"city":"Manchester","state_name":"Connecticut","lat":41.77495,"lng":-72.52156,"zip":"06041","miles_from_dt":9.43},{"city":"Manchester","state_name":"Connecticut","lat":41.77573,"lng":-72.5232,"zip":"06045","miles_from_dt":9.51},{"city":"Manchester","state_name":"Connecticut","lat":41.7616,"lng":-72.52247,"zip":"06040","miles_from_dt":9.57},{"city":"Manchester","state_name":"Connecticut","lat":41.79743,"lng":-72.52704,"zip":"06042","miles_from_dt":9.74},{"city":"North Windham","state_name":"Connecticut","lat":41.73699,"lng":-72.15723,"zip":"06256","miles_from_dt":9.93},{"city":"Ellington","state_name":"Connecticut","lat":41.91439,"lng":-72.4535,"zip":"06029","miles_from_dt":10.82},{"city":"Chaplin","state_name":"Connecticut","lat":41.79292,"lng":-72.1275,"zip":"06235","miles_from_dt":10.97},{"city":"Amston","state_name":"Connecticut","lat":41.62512,"lng":-72.37055,"zip":"06231","miles_from_dt":11},{"city":"Ashford","state_name":"Connecticut","lat":41.89126,"lng":-72.17003,"zip":"06278","miles_from_dt":11.51},{"city":"Glastonbury","state_name":"Connecticut","lat":41.70593,"lng":-72.53915,"zip":"06033","miles_from_dt":11.61},{"city":"South Windham","state_name":"Connecticut","lat":41.67136,"lng":-72.17048,"zip":"06266","miles_from_dt":11.64},{"city":"Lebanon","state_name":"Connecticut","lat":41.63128,"lng":-72.24019,"zip":"06249","miles_from_dt":11.65},{"city":"Marlborough","state_name":"Connecticut","lat":41.63309,"lng":-72.45472,"zip":"06447","miles_from_dt":11.93},{"city":"East Glastonbury","state_name":"Connecticut","lat":41.69089,"lng":-72.53492,"zip":"06025","miles_from_dt":11.93},{"city":"Windham","state_name":"Connecticut","lat":41.69237,"lng":-72.13829,"zip":"06280","miles_from_dt":12.13},{"city":"South Windsor","state_name":"Connecticut","lat":41.83528,"lng":-72.57332,"zip":"06074","miles_from_dt":12.61},{"city":"Scotland","state_name":"Connecticut","lat":41.69869,"lng":-72.10487,"zip":"06264","miles_from_dt":13.44},{"city":"Broad Brook","state_name":"Connecticut","lat":41.90417,"lng":-72.54438,"zip":"06016","miles_from_dt":13.49},{"city":"North Westchester","state_name":"Connecticut","lat":41.58816,"lng":-72.39783,"zip":"06474","miles_from_dt":13.77},{"city":"East Hartford","state_name":"Connecticut","lat":41.74871,"lng":-72.60976,"zip":"06118","miles_from_dt":14.17},{"city":"East Hartford","state_name":"Connecticut","lat":41.76168,"lng":-72.61261,"zip":"06138","miles_from_dt":14.19},{"city":"Hampton","state_name":"Connecticut","lat":41.76829,"lng":-72.06548,"zip":"06247","miles_from_dt":14.19},{"city":"Stafford","state_name":"Connecticut","lat":41.98793,"lng":-72.28708,"zip":"06075","miles_from_dt":14.41},{"city":"East Windsor Hill","state_name":"Connecticut","lat":41.86415,"lng":-72.5999,"zip":"06028","miles_from_dt":14.57},{"city":"East Hartford","state_name":"Connecticut","lat":41.78078,"lng":-72.62165,"zip":"06108","miles_from_dt":14.58},{"city":"South Glastonbury","state_name":"Connecticut","lat":41.65753,"lng":-72.56742,"zip":"06073","miles_from_dt":14.62},{"city":"East Hartford","state_name":"Connecticut","lat":41.78177,"lng":-72.62246,"zip":"06128","miles_from_dt":14.62},{"city":"Eastford","state_name":"Connecticut","lat":41.89326,"lng":-72.09706,"zip":"06242","miles_from_dt":14.65},{"city":"Stafford Springs","state_name":"Connecticut","lat":41.98906,"lng":-72.26224,"zip":"06076","miles_from_dt":14.78},{"city":"Staffordville","state_name":"Connecticut","lat":41.99494,"lng":-72.26029,"zip":"06077","miles_from_dt":15.2},{"city":"North Franklin","state_name":"Connecticut","lat":41.61585,"lng":-72.14313,"zip":"06254","miles_from_dt":15.36},{"city":"Colchester","state_name":"Connecticut","lat":41.55563,"lng":-72.34694,"zip":"06415","miles_from_dt":15.68},{"city":"East Windsor","state_name":"Connecticut","lat":41.9058,"lng":-72.59646,"zip":"06088","miles_from_dt":15.75},{"city":"Somers","state_name":"Connecticut","lat":41.99489,"lng":-72.45213,"zip":"06071","miles_from_dt":15.75},{"city":"Somersville","state_name":"Connecticut","lat":41.98465,"lng":-72.4876,"zip":"06072","miles_from_dt":15.89},{"city":"Gilman","state_name":"Connecticut","lat":41.57934,"lng":-72.19505,"zip":"06336","miles_from_dt":15.9},{"city":"Windsor","state_name":"Connecticut","lat":41.85424,"lng":-72.64405,"zip":"06006","miles_from_dt":16.48},{"city":"Baltic","state_name":"Connecticut","lat":41.64199,"lng":-72.07541,"zip":"06330","miles_from_dt":16.76},{"city":"Hartford","state_name":"Connecticut","lat":41.78982,"lng":-72.6637,"zip":"06140","miles_from_dt":16.76},{"city":"Hanover","state_name":"Connecticut","lat":41.64829,"lng":-72.0693,"zip":"06350","miles_from_dt":16.77},{"city":"Hartford","state_name":"Connecticut","lat":41.78857,"lng":-72.66512,"zip":"06146","miles_from_dt":16.83},{"city":"Hartford","state_name":"Connecticut","lat":41.78944,"lng":-72.66523,"zip":"06120","miles_from_dt":16.84},{"city":"Hartford","state_name":"Connecticut","lat":41.7889,"lng":-72.66525,"zip":"06104","miles_from_dt":16.84},{"city":"Hartford","state_name":"Connecticut","lat":41.79222,"lng":-72.66532,"zip":"06141","miles_from_dt":16.85},{"city":"Hartford","state_name":"Connecticut","lat":41.78822,"lng":-72.66567,"zip":"06101","miles_from_dt":16.86},{"city":"Hartford","state_name":"Connecticut","lat":41.79182,"lng":-72.66828,"zip":"06145","miles_from_dt":17},{"city":"Hartford","state_name":"Connecticut","lat":41.79111,"lng":-72.66868,"zip":"06147","miles_from_dt":17.02},{"city":"Hartford","state_name":"Connecticut","lat":41.79084,"lng":-72.66892,"zip":"06143","miles_from_dt":17.03},{"city":"Hartford","state_name":"Connecticut","lat":41.76841,"lng":-72.66918,"zip":"06176","miles_from_dt":17.07},{"city":"Hartford","state_name":"Connecticut","lat":41.79073,"lng":-72.66999,"zip":"06144","miles_from_dt":17.08},{"city":"Hartford","state_name":"Connecticut","lat":41.76595,"lng":-72.67006,"zip":"06102","miles_from_dt":17.12},{"city":"Hartford","state_name":"Connecticut","lat":41.76477,"lng":-72.67012,"zip":"06103","miles_from_dt":17.13},{"city":"Hartford","state_name":"Connecticut","lat":41.7663,"lng":-72.67312,"zip":"06151","miles_from_dt":17.28},{"city":"Hartford","state_name":"Connecticut","lat":41.7394,"lng":-72.66949,"zip":"06114","miles_from_dt":17.32},{"city":"Wethersfield","state_name":"Connecticut","lat":41.70859,"lng":-72.65977,"zip":"06129","miles_from_dt":17.33},{"city":"Hartford","state_name":"Connecticut","lat":41.76056,"lng":-72.67405,"zip":"06115","miles_from_dt":17.36},{"city":"Abington","state_name":"Connecticut","lat":41.84652,"lng":-72.01367,"zip":"06230","miles_from_dt":17.38},{"city":"Hartford","state_name":"Connecticut","lat":41.76567,"lng":-72.67516,"zip":"06150","miles_from_dt":17.39},{"city":"Woodstock Valley","state_name":"Connecticut","lat":41.94556,"lng":-72.07928,"zip":"06282","miles_from_dt":17.5},{"city":"Hartford","state_name":"Connecticut","lat":41.76651,"lng":-72.67999,"zip":"06126","miles_from_dt":17.63},{"city":"East Hampton","state_name":"Connecticut","lat":41.5588,"lng":-72.50452,"zip":"06424","miles_from_dt":17.66},{"city":"West Hartford","state_name":"Connecticut","lat":41.76671,"lng":-72.68228,"zip":"06127","miles_from_dt":17.75},{"city":"Hartford","state_name":"Connecticut","lat":41.76832,"lng":-72.68292,"zip":"06167","miles_from_dt":17.77},{"city":"Hartford","state_name":"Connecticut","lat":41.76646,"lng":-72.6827,"zip":"06134","miles_from_dt":17.77},{"city":"Enfield","state_name":"Connecticut","lat":41.98393,"lng":-72.55475,"zip":"06082","miles_from_dt":17.78},{"city":"Hartford","state_name":"Connecticut","lat":41.7687,"lng":-72.68351,"zip":"06132","miles_from_dt":17.8},{"city":"Hartford","state_name":"Connecticut","lat":41.70107,"lng":-72.66746,"zip":"06161","miles_from_dt":17.87},{"city":"Hartford","state_name":"Connecticut","lat":41.76565,"lng":-72.68609,"zip":"06123","miles_from_dt":17.95},{"city":"Hartford","state_name":"Connecticut","lat":41.76401,"lng":-72.68595,"zip":"06183","miles_from_dt":17.95},{"city":"Cobalt","state_name":"Connecticut","lat":41.57702,"lng":-72.55231,"zip":"06414","miles_from_dt":17.97},{"city":"Wethersfield","state_name":"Connecticut","lat":41.70131,"lng":-72.67035,"zip":"06109","miles_from_dt":18.01},{"city":"Portland","state_name":"Connecticut","lat":41.59885,"lng":-72.5893,"zip":"06480","miles_from_dt":18.12},{"city":"Hartford","state_name":"Connecticut","lat":41.75706,"lng":-72.68864,"zip":"06152","miles_from_dt":18.13},{"city":"Windsor","state_name":"Connecticut","lat":41.87229,"lng":-72.67348,"zip":"06095","miles_from_dt":18.32},{"city":"Canterbury","state_name":"Connecticut","lat":41.69717,"lng":-72.00109,"zip":"06331","miles_from_dt":18.46},{"city":"Hartford","state_name":"Connecticut","lat":41.776,"lng":-72.69747,"zip":"06142","miles_from_dt":18.5},{"city":"Hartford","state_name":"Connecticut","lat":41.79317,"lng":-72.69741,"zip":"06112","miles_from_dt":18.51},{"city":"Bozrah","state_name":"Connecticut","lat":41.54431,"lng":-72.17424,"zip":"06334","miles_from_dt":18.55},{"city":"Hartford","state_name":"Connecticut","lat":41.74818,"lng":-72.69683,"zip":"06106","miles_from_dt":18.62},{"city":"Rocky Hill","state_name":"Connecticut","lat":41.6574,"lng":-72.66259,"zip":"06067","miles_from_dt":18.82},{"city":"Hartford","state_name":"Connecticut","lat":41.77322,"lng":-72.70442,"zip":"06105","miles_from_dt":18.87},{"city":"Pomfret Center","state_name":"Connecticut","lat":41.8703,"lng":-71.99248,"zip":"06259","miles_from_dt":18.9},{"city":"West Hartford","state_name":"Connecticut","lat":41.75322,"lng":-72.70404,"zip":"06133","miles_from_dt":18.95},{"city":"Yantic","state_name":"Connecticut","lat":41.56036,"lng":-72.12338,"zip":"06389","miles_from_dt":18.99},{"city":"Hartford","state_name":"Connecticut","lat":41.77312,"lng":-72.70705,"zip":"06154","miles_from_dt":19},{"city":"Hartford","state_name":"Connecticut","lat":41.77149,"lng":-72.70781,"zip":"06160","miles_from_dt":19.05},{"city":"Windsor Locks","state_name":"Connecticut","lat":41.92671,"lng":-72.65443,"zip":"06096","miles_from_dt":19.05},{"city":"Hartford","state_name":"Connecticut","lat":41.92683,"lng":-72.65442,"zip":"06199","miles_from_dt":19.05},{"city":"Suffield","state_name":"Connecticut","lat":41.95044,"lng":-72.63519,"zip":"06080","miles_from_dt":19.15},{"city":"Enfield","state_name":"Connecticut","lat":41.99818,"lng":-72.57639,"zip":"06083","miles_from_dt":19.24},{"city":"Poquonock","state_name":"Connecticut","lat":41.90596,"lng":-72.68268,"zip":"06064","miles_from_dt":19.65},{"city":"Hampden","state_name":"Massachusetts","lat":42.0638,"lng":-72.4157,"zip":"01036","miles_from_dt":19.79},{"city":"Moodus","state_name":"Connecticut","lat":41.50757,"lng":-72.44924,"zip":"06469","miles_from_dt":19.83},{"city":"Versailles","state_name":"Connecticut","lat":41.60059,"lng":-72.04304,"zip":"06383","miles_from_dt":19.83},{"city":"Middle Haddam","state_name":"Connecticut","lat":41.541,"lng":-72.5483,"zip":"06456","miles_from_dt":19.88},{"city":"Brooklyn","state_name":"Connecticut","lat":41.78938,"lng":-71.95266,"zip":"06234","miles_from_dt":19.98},{"city":"West Hartford","state_name":"Connecticut","lat":41.76351,"lng":-72.72711,"zip":"06119","miles_from_dt":20.07},{"city":"Wales","state_name":"Massachusetts","lat":42.06232,"lng":-72.23085,"zip":"01081","miles_from_dt":20.09},{"city":"Hartford","state_name":"Connecticut","lat":41.75895,"lng":-72.73209,"zip":"06156","miles_from_dt":20.35},{"city":"Cromwell","state_name":"Connecticut","lat":41.61218,"lng":-72.66382,"zip":"06416","miles_from_dt":20.5},{"city":"Pomfret","state_name":"Connecticut","lat":41.88554,"lng":-71.96353,"zip":"06258","miles_from_dt":20.66},{"city":"West Hartford","state_name":"Connecticut","lat":41.73247,"lng":-72.73378,"zip":"06110","miles_from_dt":20.67},{"city":"Norwich","state_name":"Connecticut","lat":41.54883,"lng":-72.08914,"zip":"06360","miles_from_dt":20.7},{"city":"East Longmeadow","state_name":"Massachusetts","lat":42.05967,"lng":-72.49899,"zip":"01028","miles_from_dt":20.8},{"city":"Salem","state_name":"Connecticut","lat":41.48492,"lng":-72.26733,"zip":"06420","miles_from_dt":20.89},{"city":"Bloomfield","state_name":"Connecticut","lat":41.84286,"lng":-72.73714,"zip":"06002","miles_from_dt":20.95},{"city":"Hartford","state_name":"Connecticut","lat":41.75716,"lng":-72.74358,"zip":"06155","miles_from_dt":20.96},{"city":"Taftville","state_name":"Connecticut","lat":41.56533,"lng":-72.05308,"zip":"06380","miles_from_dt":21.09},{"city":"Holland","state_name":"Massachusetts","lat":42.06012,"lng":-72.16592,"zip":"01521","miles_from_dt":21.13},{"city":"Hartford","state_name":"Connecticut","lat":41.68815,"lng":-72.72886,"zip":"06153","miles_from_dt":21.17},{"city":"Newington","state_name":"Connecticut","lat":41.68869,"lng":-72.72981,"zip":"06131","miles_from_dt":21.2},{"city":"Woodstock","state_name":"Connecticut","lat":41.97253,"lng":-72.01458,"zip":"06281","miles_from_dt":21.26},{"city":"Newington","state_name":"Connecticut","lat":41.68677,"lng":-72.73057,"zip":"06111","miles_from_dt":21.28},{"city":"Monson","state_name":"Massachusetts","lat":42.09118,"lng":-72.32392,"zip":"01057","miles_from_dt":21.3},{"city":"Suffield","state_name":"Connecticut","lat":41.98903,"lng":-72.64875,"zip":"06078","miles_from_dt":21.38},{"city":"Longmeadow","state_name":"Massachusetts","lat":42.06444,"lng":-72.51306,"zip":"01116","miles_from_dt":21.4},{"city":"West Hartford","state_name":"Connecticut","lat":41.75375,"lng":-72.75966,"zip":"06107","miles_from_dt":21.81},{"city":"West Hartford","state_name":"Connecticut","lat":41.7875,"lng":-72.76203,"zip":"06117","miles_from_dt":21.83},{"city":"Longmeadow","state_name":"Massachusetts","lat":42.04877,"lng":-72.57163,"zip":"01106","miles_from_dt":21.91},{"city":"East Haddam","state_name":"Connecticut","lat":41.46654,"lng":-72.39054,"zip":"06423","miles_from_dt":21.99},{"city":"Hartford","state_name":"Connecticut","lat":41.75757,"lng":-72.76472,"zip":"06180","miles_from_dt":22.04},{"city":"South Woodstock","state_name":"Connecticut","lat":41.9302,"lng":-71.95897,"zip":"06267","miles_from_dt":22.11},{"city":"Wauregan","state_name":"Connecticut","lat":41.74418,"lng":-71.90981,"zip":"06387","miles_from_dt":22.36},{"city":"Central Village","state_name":"Connecticut","lat":41.72845,"lng":-71.91008,"zip":"06332","miles_from_dt":22.5},{"city":"Rogers","state_name":"Connecticut","lat":41.83738,"lng":-71.90444,"zip":"06263","miles_from_dt":22.77},{"city":"Springfield","state_name":"Massachusetts","lat":42.09497,"lng":-72.48806,"zip":"01128","miles_from_dt":22.87},{"city":"East Berlin","state_name":"Connecticut","lat":41.61355,"lng":-72.72072,"zip":"06023","miles_from_dt":22.92},{"city":"Middletown","state_name":"Connecticut","lat":41.5516,"lng":-72.66017,"zip":"06459","miles_from_dt":23.02},{"city":"Middletown","state_name":"Connecticut","lat":41.54759,"lng":-72.65484,"zip":"06457","miles_from_dt":23.02},{"city":"Plainfield","state_name":"Connecticut","lat":41.6798,"lng":-71.91441,"zip":"06374","miles_from_dt":23.09},{"city":"Oakdale","state_name":"Connecticut","lat":41.46541,"lng":-72.18659,"zip":"06370","miles_from_dt":23.29},{"city":"East Granby","state_name":"Connecticut","lat":41.94242,"lng":-72.74093,"zip":"06026","miles_from_dt":23.46},{"city":"East Woodstock","state_name":"Connecticut","lat":41.98632,"lng":-71.97448,"zip":"06244","miles_from_dt":23.48},{"city":"Springfield","state_name":"Massachusetts","lat":42.0814,"lng":-72.55866,"zip":"01108","miles_from_dt":23.5},{"city":"Springfield","state_name":"Massachusetts","lat":42.09476,"lng":-72.5253,"zip":"01118","miles_from_dt":23.56},{"city":"New Britain","state_name":"Connecticut","lat":41.66519,"lng":-72.76983,"zip":"06051","miles_from_dt":23.69},{"city":"Tariffville","state_name":"Connecticut","lat":41.90708,"lng":-72.76839,"zip":"06081","miles_from_dt":23.74},{"city":"New Britain","state_name":"Connecticut","lat":41.67363,"lng":-72.77882,"zip":"06050","miles_from_dt":23.93},{"city":"Springfield","state_name":"Massachusetts","lat":42.0886,"lng":-72.56103,"zip":"01138","miles_from_dt":24},{"city":"Haddam","state_name":"Connecticut","lat":41.45516,"lng":-72.50701,"zip":"06438","miles_from_dt":24.22},{"city":"Wilbraham","state_name":"Massachusetts","lat":42.12763,"lng":-72.42994,"zip":"01095","miles_from_dt":24.25},{"city":"Jewett City","state_name":"Connecticut","lat":41.58873,"lng":-71.94854,"zip":"06351","miles_from_dt":24.25},{"city":"Agawam","state_name":"Massachusetts","lat":42.06262,"lng":-72.62521,"zip":"01001","miles_from_dt":24.29},{"city":"New Britain","state_name":"Connecticut","lat":41.68874,"lng":-72.7941,"zip":"06053","miles_from_dt":24.38},{"city":"Springfield","state_name":"Massachusetts","lat":42.1211,"lng":-72.4877,"zip":"01129","miles_from_dt":24.57},{"city":"Southbridge","state_name":"Massachusetts","lat":42.06039,"lng":-72.03377,"zip":"01550","miles_from_dt":24.8},{"city":"Montville","state_name":"Connecticut","lat":41.45612,"lng":-72.13928,"zip":"06353","miles_from_dt":24.81},{"city":"Brimfield","state_name":"Massachusetts","lat":42.12904,"lng":-72.20597,"zip":"01010","miles_from_dt":24.86},{"city":"West Suffield","state_name":"Connecticut","lat":42.00265,"lng":-72.72285,"zip":"06093","miles_from_dt":24.92},{"city":"Danielson","state_name":"Connecticut","lat":41.79116,"lng":-71.85711,"zip":"06239","miles_from_dt":24.92},{"city":"Uncasville","state_name":"Connecticut","lat":41.46137,"lng":-72.11762,"zip":"06382","miles_from_dt":24.98},{"city":"Springfield","state_name":"Massachusetts","lat":42.09911,"lng":-72.57865,"zip":"01105","miles_from_dt":25.07},{"city":"Preston","state_name":"Connecticut","lat":41.52281,"lng":-72.00072,"zip":"06365","miles_from_dt":25.09},{"city":"Higganum","state_name":"Connecticut","lat":41.46674,"lng":-72.58038,"zip":"06441","miles_from_dt":25.13},{"city":"Springfield","state_name":"Massachusetts","lat":42.11605,"lng":-72.53858,"zip":"01102","miles_from_dt":25.18},{"city":"Springfield","state_name":"Massachusetts","lat":42.12452,"lng":-72.51126,"zip":"01119","miles_from_dt":25.19},{"city":"Weatogue","state_name":"Connecticut","lat":41.83801,"lng":-72.82343,"zip":"06089","miles_from_dt":25.28},{"city":"Ballouville","state_name":"Connecticut","lat":41.87311,"lng":-71.8635,"zip":"06233","miles_from_dt":25.34},{"city":"Rockfall","state_name":"Connecticut","lat":41.53435,"lng":-72.70067,"zip":"06481","miles_from_dt":25.37},{"city":"Springfield","state_name":"Massachusetts","lat":42.11632,"lng":-72.54693,"zip":"01139","miles_from_dt":25.38},{"city":"Springfield","state_name":"Massachusetts","lat":42.09992,"lng":-72.58958,"zip":"01101","miles_from_dt":25.4},{"city":"Simsbury","state_name":"Connecticut","lat":41.87674,"lng":-72.81626,"zip":"06070","miles_from_dt":25.45},{"city":"Springfield","state_name":"Massachusetts","lat":42.11798,"lng":-72.5479,"zip":"01111","miles_from_dt":25.5},{"city":"Hadlyme","state_name":"Connecticut","lat":41.41573,"lng":-72.39964,"zip":"06439","miles_from_dt":25.52},{"city":"Springfield","state_name":"Massachusetts","lat":42.11839,"lng":-72.54876,"zip":"01109","miles_from_dt":25.55},{"city":"Fiskdale","state_name":"Massachusetts","lat":42.11342,"lng":-72.11632,"zip":"01518","miles_from_dt":25.55},{"city":"Springfield","state_name":"Massachusetts","lat":42.10189,"lng":-72.59091,"zip":"01144","miles_from_dt":25.55},{"city":"Berlin","state_name":"Connecticut","lat":41.61148,"lng":-72.7775,"zip":"06037","miles_from_dt":25.56},{"city":"New Britain","state_name":"Connecticut","lat":41.65736,"lng":-72.80506,"zip":"06052","miles_from_dt":25.59},{"city":"Putnam","state_name":"Connecticut","lat":41.90898,"lng":-71.87181,"zip":"06260","miles_from_dt":25.65},{"city":"Springfield","state_name":"Massachusetts","lat":42.10443,"lng":-72.58997,"zip":"01103","miles_from_dt":25.68},{"city":"Springfield","state_name":"Massachusetts","lat":42.10403,"lng":-72.59179,"zip":"01115","miles_from_dt":25.7},{"city":"Farmington","state_name":"Connecticut","lat":41.72528,"lng":-72.83147,"zip":"06032","miles_from_dt":25.74},{"city":"Dayville","state_name":"Connecticut","lat":41.85635,"lng":-71.84904,"zip":"06241","miles_from_dt":25.82},{"city":"Quinebaug","state_name":"Connecticut","lat":42.01871,"lng":-71.94959,"zip":"06262","miles_from_dt":25.87},{"city":"Moosup","state_name":"Connecticut","lat":41.69836,"lng":-71.85016,"zip":"06354","miles_from_dt":25.95},{"city":"Sturbridge","state_name":"Massachusetts","lat":42.1047,"lng":-72.07745,"zip":"01566","miles_from_dt":25.99},{"city":"Fabyan","state_name":"Connecticut","lat":42.01424,"lng":-71.93716,"zip":"06245","miles_from_dt":26.18},{"city":"Farmington","state_name":"Connecticut","lat":41.71177,"lng":-72.83934,"zip":"06030","miles_from_dt":26.3},{"city":"Grosvenor Dale","state_name":"Connecticut","lat":41.96956,"lng":-71.8943,"zip":"06246","miles_from_dt":26.33},{"city":"Feeding Hills","state_name":"Massachusetts","lat":42.06869,"lng":-72.67967,"zip":"01030","miles_from_dt":26.4},{"city":"Avon","state_name":"Connecticut","lat":41.79185,"lng":-72.85107,"zip":"06001","miles_from_dt":26.44},{"city":"North Grosvenordale","state_name":"Connecticut","lat":41.98791,"lng":-71.90299,"zip":"06255","miles_from_dt":26.59},{"city":"Granby","state_name":"Connecticut","lat":41.9608,"lng":-72.80179,"zip":"06035","miles_from_dt":26.83},{"city":"Springfield","state_name":"Massachusetts","lat":42.13326,"lng":-72.56733,"zip":"01104","miles_from_dt":26.89},{"city":"Springfield","state_name":"Massachusetts","lat":42.11915,"lng":-72.60341,"zip":"01199","miles_from_dt":26.9},{"city":"Middlefield","state_name":"Connecticut","lat":41.51468,"lng":-72.71732,"zip":"06455","miles_from_dt":26.93},{"city":"Indian Orchard","state_name":"Massachusetts","lat":42.15294,"lng":-72.50883,"zip":"01151","miles_from_dt":26.99},{"city":"Springfield","state_name":"Massachusetts","lat":42.15279,"lng":-72.51126,"zip":"01152","miles_from_dt":27.03},{"city":"Chester","state_name":"Connecticut","lat":41.40594,"lng":-72.48319,"zip":"06412","miles_from_dt":27.05},{"city":"Springfield","state_name":"Massachusetts","lat":42.12116,"lng":-72.60642,"zip":"01107","miles_from_dt":27.1},{"city":"Sterling","state_name":"Connecticut","lat":41.72708,"lng":-71.81679,"zip":"06377","miles_from_dt":27.28},{"city":"Three Rivers","state_name":"Massachusetts","lat":42.18228,"lng":-72.36515,"zip":"01080","miles_from_dt":27.6},{"city":"West Simsbury","state_name":"Connecticut","lat":41.87266,"lng":-72.86101,"zip":"06092","miles_from_dt":27.63},{"city":"Thorndike","state_name":"Massachusetts","lat":42.18508,"lng":-72.33406,"zip":"01079","miles_from_dt":27.77},{"city":"East Lyme","state_name":"Connecticut","lat":41.38602,"lng":-72.24527,"zip":"06333","miles_from_dt":27.81},{"city":"East Killingly","state_name":"Connecticut","lat":41.84743,"lng":-71.80701,"zip":"06243","miles_from_dt":27.85},{"city":"Plainville","state_name":"Connecticut","lat":41.67338,"lng":-72.86079,"zip":"06062","miles_from_dt":27.99},{"city":"Palmer","state_name":"Massachusetts","lat":42.18798,"lng":-72.30578,"zip":"01069","miles_from_dt":28.02},{"city":"Dudley","state_name":"Massachusetts","lat":42.05501,"lng":-71.93519,"zip":"01571","miles_from_dt":28.05},{"city":"Farmington","state_name":"Connecticut","lat":41.70891,"lng":-72.87348,"zip":"06034","miles_from_dt":28.07},{"city":"Gales Ferry","state_name":"Connecticut","lat":41.42943,"lng":-72.06247,"zip":"06335","miles_from_dt":28.29},{"city":"Quaker Hill","state_name":"Connecticut","lat":41.40544,"lng":-72.12554,"zip":"06375","miles_from_dt":28.3},{"city":"Meriden","state_name":"Connecticut","lat":41.53332,"lng":-72.77399,"zip":"06450","miles_from_dt":28.33},{"city":"Durham","state_name":"Connecticut","lat":41.46221,"lng":-72.68285,"zip":"06422","miles_from_dt":28.39},{"city":"West Springfield","state_name":"Massachusetts","lat":42.12128,"lng":-72.65486,"zip":"01090","miles_from_dt":28.46},{"city":"Unionville","state_name":"Connecticut","lat":41.74717,"lng":-72.88883,"zip":"06085","miles_from_dt":28.49},{"city":"West Springfield","state_name":"Massachusetts","lat":42.12532,"lng":-72.65025,"zip":"01089","miles_from_dt":28.55},{"city":"Oneco","state_name":"Connecticut","lat":41.68394,"lng":-71.79881,"zip":"06373","miles_from_dt":28.77},{"city":"Thompson","state_name":"Connecticut","lat":41.96895,"lng":-71.83927,"zip":"06277","miles_from_dt":28.82},{"city":"Ludlow","state_name":"Massachusetts","lat":42.19211,"lng":-72.45805,"zip":"01056","miles_from_dt":28.9},{"city":"Old Lyme","state_name":"Connecticut","lat":41.36361,"lng":-72.32582,"zip":"06371","miles_from_dt":28.94},{"city":"Mashantucket","state_name":"Connecticut","lat":41.46473,"lng":-71.97281,"zip":"06338","miles_from_dt":29.02},{"city":"Deep River","state_name":"Connecticut","lat":41.36894,"lng":-72.46227,"zip":"06417","miles_from_dt":29.26},{"city":"West Warren","state_name":"Massachusetts","lat":42.20008,"lng":-72.23715,"zip":"01092","miles_from_dt":29.28},{"city":"North Canton","state_name":"Connecticut","lat":41.89054,"lng":-72.88833,"zip":"06059","miles_from_dt":29.29},{"city":"Ledyard","state_name":"Connecticut","lat":41.44408,"lng":-71.99851,"zip":"06339","miles_from_dt":29.29},{"city":"Groton","state_name":"Connecticut","lat":41.40194,"lng":-72.08928,"zip":"06349","miles_from_dt":29.31},{"city":"West Granby","state_name":"Connecticut","lat":41.94685,"lng":-72.86403,"zip":"06090","miles_from_dt":29.34},{"city":"Southwick","state_name":"Massachusetts","lat":42.05441,"lng":-72.77851,"zip":"01077","miles_from_dt":29.39},{"city":"Chicopee","state_name":"Massachusetts","lat":42.16059,"lng":-72.60788,"zip":"01012","miles_from_dt":29.51},{"city":"Chicopee","state_name":"Massachusetts","lat":42.17618,"lng":-72.56538,"zip":"01020","miles_from_dt":29.54},{"city":"Bondsville","state_name":"Massachusetts","lat":42.21133,"lng":-72.34189,"zip":"01009","miles_from_dt":29.58},{"city":"Chicopee","state_name":"Massachusetts","lat":42.17481,"lng":-72.57229,"zip":"01014","miles_from_dt":29.59},{"city":"Voluntown","state_name":"Connecticut","lat":41.58188,"lng":-71.83139,"zip":"06384","miles_from_dt":29.72},{"city":"Canton","state_name":"Connecticut","lat":41.8592,"lng":-72.90717,"zip":"06019","miles_from_dt":29.78},{"city":"Essex","state_name":"Connecticut","lat":41.35346,"lng":-72.39791,"zip":"06426","miles_from_dt":29.79},{"city":"Chicopee","state_name":"Massachusetts","lat":42.17796,"lng":-72.57284,"zip":"01021","miles_from_dt":29.8},{"city":"Southington","state_name":"Connecticut","lat":41.61312,"lng":-72.87233,"zip":"06489","miles_from_dt":29.95},{"city":"Canton Center","state_name":"Connecticut","lat":41.86283,"lng":-72.90991,"zip":"06020","miles_from_dt":29.96}],"targetCityZipCode":"06238","targetCityState":"Connecticut"},"__N_SSG":true}