{"pageProps":{"stateName":"Missouri","cityName":"clyde","nearbyCities":[{"city":"Conception","state_name":"Missouri","lat":40.24107,"lng":-94.68053,"zip":"64433","miles_from_dt":1.88},{"city":"Conception Junction","state_name":"Missouri","lat":40.2584,"lng":-94.73615,"zip":"64434","miles_from_dt":3.98},{"city":"Ravenwood","state_name":"Missouri","lat":40.34853,"lng":-94.66636,"zip":"64479","miles_from_dt":5.84},{"city":"Stanberry","state_name":"Missouri","lat":40.23543,"lng":-94.54969,"zip":"64489","miles_from_dt":6.22},{"city":"Guilford","state_name":"Missouri","lat":40.15886,"lng":-94.68368,"zip":"64457","miles_from_dt":7.35},{"city":"Gentry","state_name":"Missouri","lat":40.34471,"lng":-94.46947,"zip":"64453","miles_from_dt":11.56},{"city":"Barnard","state_name":"Missouri","lat":40.18695,"lng":-94.8552,"zip":"64423","miles_from_dt":11.56},{"city":"Parnell","state_name":"Missouri","lat":40.43561,"lng":-94.63049,"zip":"64475","miles_from_dt":11.95},{"city":"Maryville","state_name":"Missouri","lat":40.34241,"lng":-94.8811,"zip":"64468","miles_from_dt":12.82},{"city":"Rea","state_name":"Missouri","lat":40.06102,"lng":-94.70826,"zip":"64480","miles_from_dt":14.22},{"city":"Bolckow","state_name":"Missouri","lat":40.10828,"lng":-94.84136,"zip":"64427","miles_from_dt":14.36},{"city":"Darlington","state_name":"Missouri","lat":40.16106,"lng":-94.41091,"zip":"64438","miles_from_dt":15.02},{"city":"Pickering","state_name":"Missouri","lat":40.45115,"lng":-94.83034,"zip":"64476","miles_from_dt":15.7},{"city":"Worth","state_name":"Missouri","lat":40.39707,"lng":-94.41521,"zip":"64499","miles_from_dt":15.91},{"city":"King City","state_name":"Missouri","lat":40.06526,"lng":-94.4869,"zip":"64463","miles_from_dt":16.53},{"city":"Rosendale","state_name":"Missouri","lat":40.04335,"lng":-94.83471,"zip":"64483","miles_from_dt":17.78},{"city":"Albany","state_name":"Missouri","lat":40.25201,"lng":-94.32276,"zip":"64402","miles_from_dt":17.91},{"city":"Sheridan","state_name":"Missouri","lat":40.52951,"lng":-94.61471,"zip":"64486","miles_from_dt":18.48},{"city":"Union Star","state_name":"Missouri","lat":39.99234,"lng":-94.61465,"zip":"64494","miles_from_dt":18.9},{"city":"Graham","state_name":"Missouri","lat":40.18592,"lng":-95.00594,"zip":"64455","miles_from_dt":19.01},{"city":"Hopkins","state_name":"Missouri","lat":40.52459,"lng":-94.81063,"zip":"64461","miles_from_dt":19.63},{"city":"Grant City","state_name":"Missouri","lat":40.49433,"lng":-94.38733,"zip":"64456","miles_from_dt":21.48},{"city":"Fillmore","state_name":"Missouri","lat":40.04135,"lng":-94.97754,"zip":"64449","miles_from_dt":22.73},{"city":"Denver","state_name":"Missouri","lat":40.39883,"lng":-94.2642,"zip":"64441","miles_from_dt":22.93},{"city":"Helena","state_name":"Missouri","lat":39.93129,"lng":-94.65017,"zip":"64459","miles_from_dt":22.96},{"city":"Savannah","state_name":"Missouri","lat":39.95325,"lng":-94.8184,"zip":"64485","miles_from_dt":23},{"city":"Skidmore","state_name":"Missouri","lat":40.31218,"lng":-95.10293,"zip":"64487","miles_from_dt":23.58},{"city":"Maitland","state_name":"Missouri","lat":40.16865,"lng":-95.1067,"zip":"64466","miles_from_dt":24.47},{"city":"New Hampton","state_name":"Missouri","lat":40.26548,"lng":-94.1936,"zip":"64471","miles_from_dt":24.72},{"city":"Allendale","state_name":"Missouri","lat":40.48645,"lng":-94.2892,"zip":"64420","miles_from_dt":24.92},{"city":"McFall","state_name":"Missouri","lat":40.13269,"lng":-94.21292,"zip":"64657","miles_from_dt":25.39},{"city":"Clearmont","state_name":"Missouri","lat":40.53046,"lng":-94.99357,"zip":"64431","miles_from_dt":25.41},{"city":"Burlington Junction","state_name":"Missouri","lat":40.4418,"lng":-95.08836,"zip":"64428","miles_from_dt":25.67},{"city":"Amity","state_name":"Missouri","lat":39.90022,"lng":-94.4941,"zip":"64422","miles_from_dt":26.61},{"city":"Blockton","state_name":"Iowa","lat":40.63116,"lng":-94.49689,"zip":"50836","miles_from_dt":26.77},{"city":"Martinsville","state_name":"Missouri","lat":40.39772,"lng":-94.16236,"zip":"64467","miles_from_dt":27.91},{"city":"Maysville","state_name":"Missouri","lat":39.93085,"lng":-94.35762,"zip":"64469","miles_from_dt":28.05},{"city":"Bedford","state_name":"Iowa","lat":40.66956,"lng":-94.70309,"zip":"50833","miles_from_dt":28.07},{"city":"Amazonia","state_name":"Missouri","lat":39.9082,"lng":-94.92779,"zip":"64421","miles_from_dt":28.32},{"city":"Cosby","state_name":"Missouri","lat":39.85362,"lng":-94.69034,"zip":"64436","miles_from_dt":28.36},{"city":"Redding","state_name":"Iowa","lat":40.62253,"lng":-94.34949,"zip":"50860","miles_from_dt":29.7},{"city":"Braddyville","state_name":"Iowa","lat":40.60267,"lng":-95.00918,"zip":"51631","miles_from_dt":29.71},{"city":"Clarksdale","state_name":"Missouri","lat":39.83771,"lng":-94.56924,"zip":"64430","miles_from_dt":29.81},{"city":"Oregon","state_name":"Missouri","lat":39.97606,"lng":-95.08446,"zip":"64473","miles_from_dt":29.95}],"targetCityZipCode":"64432","targetCityState":"Missouri"},"__N_SSG":true}