{"pageProps":{"stateName":"Missouri","cityName":"perryville","nearbyCities":[{"city":"McBride","state_name":"Missouri","lat":37.71445,"lng":-89.89065,"zip":"63776","miles_from_dt":0.68},{"city":"Farrar","state_name":"Missouri","lat":37.70783,"lng":-89.69484,"zip":"63746","miles_from_dt":10.1},{"city":"Saint Mary","state_name":"Missouri","lat":37.83641,"lng":-89.98861,"zip":"63673","miles_from_dt":10.55},{"city":"Friedheim","state_name":"Missouri","lat":37.55993,"lng":-89.81121,"zip":"63747","miles_from_dt":11.03},{"city":"Sedgewickville","state_name":"Missouri","lat":37.5329,"lng":-89.93078,"zip":"63781","miles_from_dt":12.57},{"city":"Old Appleton","state_name":"Missouri","lat":37.59456,"lng":-89.70049,"zip":"63770","miles_from_dt":12.65},{"city":"Brazeau","state_name":"Missouri","lat":37.6593,"lng":-89.65455,"zip":"63737","miles_from_dt":12.81},{"city":"Uniontown","state_name":"Missouri","lat":37.60958,"lng":-89.6823,"zip":"63783","miles_from_dt":12.84},{"city":"Daisy","state_name":"Missouri","lat":37.51886,"lng":-89.83261,"zip":"63743","miles_from_dt":13.46},{"city":"Menard","state_name":"Illinois","lat":37.91019,"lng":-89.8398,"zip":"62259","miles_from_dt":13.94},{"city":"Rockwood","state_name":"Illinois","lat":37.83179,"lng":-89.65952,"zip":"62280","miles_from_dt":14.65},{"city":"Frohna","state_name":"Missouri","lat":37.66912,"lng":-89.61282,"zip":"63748","miles_from_dt":14.88},{"city":"Oak Ridge","state_name":"Missouri","lat":37.52312,"lng":-89.74203,"zip":"63769","miles_from_dt":14.95},{"city":"Patton","state_name":"Missouri","lat":37.53782,"lng":-90.05321,"zip":"63662","miles_from_dt":15.26},{"city":"Chester","state_name":"Illinois","lat":37.93719,"lng":-89.78842,"zip":"62233","miles_from_dt":16.4},{"city":"Altenburg","state_name":"Missouri","lat":37.59428,"lng":-89.59123,"zip":"63732","miles_from_dt":17.71},{"city":"Jacob","state_name":"Illinois","lat":37.75184,"lng":-89.55573,"zip":"62950","miles_from_dt":17.95},{"city":"Millersville","state_name":"Missouri","lat":37.43558,"lng":-89.84424,"zip":"63766","miles_from_dt":19.06},{"city":"Pocahontas","state_name":"Missouri","lat":37.49944,"lng":-89.64216,"zip":"63779","miles_from_dt":19.52},{"city":"Sainte Genevieve","state_name":"Missouri","lat":37.89667,"lng":-90.16245,"zip":"63670","miles_from_dt":20.13},{"city":"Ellis Grove","state_name":"Illinois","lat":38.01474,"lng":-89.88845,"zip":"62241","miles_from_dt":20.99},{"city":"Modoc","state_name":"Illinois","lat":38.01218,"lng":-89.99774,"zip":"62261","miles_from_dt":21.79},{"city":"Steeleville","state_name":"Illinois","lat":37.99267,"lng":-89.69106,"zip":"62288","miles_from_dt":22.01},{"city":"Jackson","state_name":"Missouri","lat":37.44351,"lng":-89.64193,"zip":"63755","miles_from_dt":22.55},{"city":"Grand Tower","state_name":"Illinois","lat":37.6348,"lng":-89.47681,"zip":"62942","miles_from_dt":22.67},{"city":"Gorham","state_name":"Illinois","lat":37.7292,"lng":-89.46279,"zip":"62940","miles_from_dt":22.85},{"city":"Campbell Hill","state_name":"Illinois","lat":37.93722,"lng":-89.56947,"zip":"62916","miles_from_dt":23.06},{"city":"Ava","state_name":"Illinois","lat":37.86503,"lng":-89.50009,"zip":"62907","miles_from_dt":23.33},{"city":"Walsh","state_name":"Illinois","lat":38.04938,"lng":-89.81239,"zip":"62297","miles_from_dt":23.65},{"city":"Willisville","state_name":"Illinois","lat":37.98357,"lng":-89.59013,"zip":"62997","miles_from_dt":24.59},{"city":"Burfordville","state_name":"Missouri","lat":37.35686,"lng":-89.80216,"zip":"63739","miles_from_dt":24.75},{"city":"Percy","state_name":"Illinois","lat":38.00241,"lng":-89.61562,"zip":"62272","miles_from_dt":24.76},{"city":"Evansville","state_name":"Illinois","lat":38.09257,"lng":-89.94339,"zip":"62242","miles_from_dt":26.58},{"city":"Farmington","state_name":"Missouri","lat":37.75446,"lng":-90.36525,"zip":"63640","miles_from_dt":26.8},{"city":"Marble Hill","state_name":"Missouri","lat":37.32944,"lng":-89.9837,"zip":"63764","miles_from_dt":26.9},{"city":"Knob Lick","state_name":"Missouri","lat":37.67544,"lng":-90.37029,"zip":"63651","miles_from_dt":27.02},{"city":"Fredericktown","state_name":"Missouri","lat":37.54204,"lng":-90.32428,"zip":"63645","miles_from_dt":27.04},{"city":"Wolf Lake","state_name":"Illinois","lat":37.51649,"lng":-89.44698,"zip":"62998","miles_from_dt":27.23},{"city":"Pomona","state_name":"Illinois","lat":37.64307,"lng":-89.37274,"zip":"62975","miles_from_dt":28.15},{"city":"Marquand","state_name":"Missouri","lat":37.39312,"lng":-90.20552,"zip":"63655","miles_from_dt":28.29},{"city":"Murphysboro","state_name":"Illinois","lat":37.7693,"lng":-89.35198,"zip":"62966","miles_from_dt":29.16},{"city":"Sparta","state_name":"Illinois","lat":38.11756,"lng":-89.7154,"zip":"62286","miles_from_dt":29.47},{"city":"Gordonville","state_name":"Missouri","lat":37.31394,"lng":-89.67871,"zip":"63752","miles_from_dt":29.48},{"city":"Prairie Du Rocher","state_name":"Illinois","lat":38.09844,"lng":-90.11081,"zip":"62277","miles_from_dt":29.6},{"city":"Cutler","state_name":"Illinois","lat":38.04499,"lng":-89.5319,"zip":"62238","miles_from_dt":29.88}],"targetCityZipCode":"63775","targetCityState":"Missouri"},"__N_SSG":true}