{"pageProps":{"stateName":"Maine","cityName":"monroe","nearbyCities":[{"city":"Brooks","state_name":"Maine","lat":44.57256,"lng":-69.13326,"zip":"04921","miles_from_dt":4.93},{"city":"Frankfort","state_name":"Maine","lat":44.59856,"lng":-68.91904,"zip":"04438","miles_from_dt":6.28},{"city":"Dixmont","state_name":"Maine","lat":44.6957,"lng":-69.13335,"zip":"04932","miles_from_dt":7.48},{"city":"Winterport","state_name":"Maine","lat":44.65839,"lng":-68.91189,"zip":"04496","miles_from_dt":7.49},{"city":"Thorndike","state_name":"Maine","lat":44.55286,"lng":-69.22354,"zip":"04986","miles_from_dt":9.54},{"city":"Hampden","state_name":"Maine","lat":44.72591,"lng":-68.94585,"zip":"04444","miles_from_dt":9.56},{"city":"Belfast","state_name":"Maine","lat":44.46643,"lng":-69.04156,"zip":"04915","miles_from_dt":9.72},{"city":"Searsport","state_name":"Maine","lat":44.4893,"lng":-68.92996,"zip":"04974","miles_from_dt":9.95},{"city":"Stockton Springs","state_name":"Maine","lat":44.53228,"lng":-68.85941,"zip":"04981","miles_from_dt":10.55},{"city":"Troy","state_name":"Maine","lat":44.67915,"lng":-69.25361,"zip":"04987","miles_from_dt":11.39},{"city":"Etna","state_name":"Maine","lat":44.78529,"lng":-69.13385,"zip":"04434","miles_from_dt":13.04},{"city":"Carmel","state_name":"Maine","lat":44.7969,"lng":-69.03154,"zip":"04419","miles_from_dt":13.12},{"city":"Sandy Point","state_name":"Maine","lat":44.51252,"lng":-68.81108,"zip":"04972","miles_from_dt":13.3},{"city":"Plymouth","state_name":"Maine","lat":44.77019,"lng":-69.22461,"zip":"04969","miles_from_dt":14.29},{"city":"Morrill","state_name":"Maine","lat":44.40934,"lng":-69.14261,"zip":"04952","miles_from_dt":14.47},{"city":"Bucksport","state_name":"Maine","lat":44.62725,"lng":-68.75286,"zip":"04416","miles_from_dt":14.51},{"city":"Orrington","state_name":"Maine","lat":44.71501,"lng":-68.77901,"zip":"04474","miles_from_dt":15.11},{"city":"Unity","state_name":"Maine","lat":44.59588,"lng":-69.35959,"zip":"04988","miles_from_dt":15.5},{"city":"Freedom","state_name":"Maine","lat":44.4654,"lng":-69.3017,"zip":"04941","miles_from_dt":15.99},{"city":"Detroit","state_name":"Maine","lat":44.76238,"lng":-69.31131,"zip":"04929","miles_from_dt":16.91},{"city":"East Newport","state_name":"Maine","lat":44.82036,"lng":-69.22429,"zip":"04933","miles_from_dt":17.15},{"city":"Burnham","state_name":"Maine","lat":44.68739,"lng":-69.38255,"zip":"04922","miles_from_dt":17.5},{"city":"Orland","state_name":"Maine","lat":44.57334,"lng":-68.67736,"zip":"04472","miles_from_dt":18.33},{"city":"Castine","state_name":"Maine","lat":44.4111,"lng":-68.79524,"zip":"04421","miles_from_dt":18.34},{"city":"Searsmont","state_name":"Maine","lat":44.36229,"lng":-69.19303,"zip":"04973","miles_from_dt":18.41},{"city":"Stetson","state_name":"Maine","lat":44.87586,"lng":-69.11143,"zip":"04488","miles_from_dt":18.83},{"city":"East Orland","state_name":"Maine","lat":44.56453,"lng":-68.6678,"zip":"04431","miles_from_dt":18.88},{"city":"Penobscot","state_name":"Maine","lat":44.47474,"lng":-68.70521,"zip":"04476","miles_from_dt":19.14},{"city":"Bangor","state_name":"Maine","lat":44.84711,"lng":-68.84654,"zip":"04401","miles_from_dt":19.25},{"city":"Castine","state_name":"Maine","lat":44.39467,"lng":-68.78946,"zip":"04420","miles_from_dt":19.38},{"city":"Levant","state_name":"Maine","lat":44.88645,"lng":-68.9977,"zip":"04456","miles_from_dt":19.43},{"city":"Brewer","state_name":"Maine","lat":44.78354,"lng":-68.73517,"zip":"04412","miles_from_dt":19.55},{"city":"Newport","state_name":"Maine","lat":44.86017,"lng":-69.23297,"zip":"04953","miles_from_dt":19.75},{"city":"Lincolnville","state_name":"Maine","lat":44.3179,"lng":-69.04753,"zip":"04849","miles_from_dt":19.97},{"city":"Bangor","state_name":"Maine","lat":44.83297,"lng":-68.78927,"zip":"04402","miles_from_dt":20.06},{"city":"Albion","state_name":"Maine","lat":44.517,"lng":-69.44123,"zip":"04910","miles_from_dt":20.49},{"city":"Islesboro","state_name":"Maine","lat":44.31083,"lng":-68.90896,"zip":"04848","miles_from_dt":21.55},{"city":"Lincolnville Center","state_name":"Maine","lat":44.29488,"lng":-69.10973,"zip":"04850","miles_from_dt":21.79},{"city":"Liberty","state_name":"Maine","lat":44.36712,"lng":-69.34029,"zip":"04949","miles_from_dt":22.06},{"city":"Kenduskeag","state_name":"Maine","lat":44.91593,"lng":-68.92797,"zip":"04450","miles_from_dt":22.09},{"city":"Harborside","state_name":"Maine","lat":44.33906,"lng":-68.79591,"zip":"04642","miles_from_dt":22.25},{"city":"Pittsfield","state_name":"Maine","lat":44.77138,"lng":-69.43866,"zip":"04967","miles_from_dt":22.43},{"city":"Holden","state_name":"Maine","lat":44.72039,"lng":-68.6171,"zip":"04429","miles_from_dt":22.52},{"city":"Brooksville","state_name":"Maine","lat":44.36929,"lng":-68.73081,"zip":"04617","miles_from_dt":22.63},{"city":"Palmyra","state_name":"Maine","lat":44.84563,"lng":-69.36272,"zip":"04965","miles_from_dt":22.68},{"city":"Palermo","state_name":"Maine","lat":44.39602,"lng":-69.42709,"zip":"04354","miles_from_dt":23.83},{"city":"Clinton","state_name":"Maine","lat":44.67021,"lng":-69.53589,"zip":"04927","miles_from_dt":24.55},{"city":"China Village","state_name":"Maine","lat":44.48035,"lng":-69.51521,"zip":"04926","miles_from_dt":24.78},{"city":"Exeter","state_name":"Maine","lat":44.96435,"lng":-69.13539,"zip":"04435","miles_from_dt":25.06},{"city":"Orono","state_name":"Maine","lat":44.88594,"lng":-68.71888,"zip":"04473","miles_from_dt":25.09},{"city":"Hope","state_name":"Maine","lat":44.25104,"lng":-69.18962,"zip":"04847","miles_from_dt":25.6},{"city":"Corinna","state_name":"Maine","lat":44.94973,"lng":-69.25695,"zip":"04928","miles_from_dt":25.84},{"city":"Corinth","state_name":"Maine","lat":44.9805,"lng":-69.01063,"zip":"04427","miles_from_dt":25.84},{"city":"Waterville","state_name":"Maine","lat":44.55449,"lng":-69.57037,"zip":"04901","miles_from_dt":26.14},{"city":"Camden","state_name":"Maine","lat":44.22929,"lng":-69.08924,"zip":"04843","miles_from_dt":26.18},{"city":"Blue Hill","state_name":"Maine","lat":44.41819,"lng":-68.58223,"zip":"04614","miles_from_dt":26.36},{"city":"Union","state_name":"Maine","lat":44.26186,"lng":-69.27703,"zip":"04862","miles_from_dt":26.45},{"city":"Surry","state_name":"Maine","lat":44.49335,"lng":-68.52796,"zip":"04684","miles_from_dt":26.75},{"city":"Shawmut","state_name":"Maine","lat":44.62549,"lng":-69.58837,"zip":"04975","miles_from_dt":26.79},{"city":"Sedgwick","state_name":"Maine","lat":44.34741,"lng":-68.64238,"zip":"04676","miles_from_dt":26.82},{"city":"Stillwater","state_name":"Maine","lat":44.91074,"lng":-68.69119,"zip":"04489","miles_from_dt":27.27},{"city":"South China","state_name":"Maine","lat":44.41821,"lng":-69.53286,"zip":"04358","miles_from_dt":27.38},{"city":"Little Deer Isle","state_name":"Maine","lat":44.28924,"lng":-68.71412,"zip":"04650","miles_from_dt":27.4},{"city":"Canaan","state_name":"Maine","lat":44.77922,"lng":-69.54967,"zip":"04924","miles_from_dt":27.52},{"city":"Orono","state_name":"Maine","lat":44.90251,"lng":-68.66624,"zip":"04469","miles_from_dt":27.65},{"city":"Eddington","state_name":"Maine","lat":44.80643,"lng":-68.55584,"zip":"04428","miles_from_dt":27.77},{"city":"Sunset","state_name":"Maine","lat":44.23596,"lng":-68.82368,"zip":"04683","miles_from_dt":27.89},{"city":"Sargentville","state_name":"Maine","lat":44.30484,"lng":-68.67028,"zip":"04673","miles_from_dt":27.94},{"city":"Hudson","state_name":"Maine","lat":44.99761,"lng":-68.88357,"zip":"04449","miles_from_dt":28.12},{"city":"Saint Albans","state_name":"Maine","lat":44.93191,"lng":-69.39225,"zip":"04971","miles_from_dt":28.17},{"city":"Washington","state_name":"Maine","lat":44.2734,"lng":-69.39105,"zip":"04574","miles_from_dt":28.69},{"city":"East Blue Hill","state_name":"Maine","lat":44.41551,"lng":-68.52147,"zip":"04629","miles_from_dt":29.09},{"city":"West Rockport","state_name":"Maine","lat":44.18957,"lng":-69.15183,"zip":"04865","miles_from_dt":29.31},{"city":"Waterville","state_name":"Maine","lat":44.54033,"lng":-69.63501,"zip":"04903","miles_from_dt":29.45},{"city":"East Vassalboro","state_name":"Maine","lat":44.44977,"lng":-69.60836,"zip":"04935","miles_from_dt":29.84},{"city":"Rockport","state_name":"Maine","lat":44.17798,"lng":-69.12007,"zip":"04856","miles_from_dt":29.86},{"city":"Hinckley","state_name":"Maine","lat":44.68737,"lng":-69.64237,"zip":"04944","miles_from_dt":29.93},{"city":"North Vassalboro","state_name":"Maine","lat":44.4757,"lng":-69.62456,"zip":"04962","miles_from_dt":29.99}],"targetCityZipCode":"04951","targetCityState":"Maine"},"__N_SSG":true}