{"pageProps":{"stateName":"Maine","cityName":"saint-agatha","nearbyCities":[{"city":"Frenchville","state_name":"Maine","lat":47.27371,"lng":-68.39936,"zip":"04745","miles_from_dt":4.37},{"city":"Saint David","state_name":"Maine","lat":47.27426,"lng":-68.22649,"zip":"04773","miles_from_dt":5.51},{"city":"Madawaska","state_name":"Maine","lat":47.33054,"lng":-68.30176,"zip":"04756","miles_from_dt":6.79},{"city":"Sinclair","state_name":"Maine","lat":47.11615,"lng":-68.31162,"zip":"04779","miles_from_dt":8.16},{"city":"Grand Isle","state_name":"Maine","lat":47.24885,"lng":-68.12472,"zip":"04746","miles_from_dt":9.59},{"city":"Fort Kent Mills","state_name":"Maine","lat":47.23781,"lng":-68.58145,"zip":"04744","miles_from_dt":11.96},{"city":"Wallagrass","state_name":"Maine","lat":47.14634,"lng":-68.61883,"zip":"04781","miles_from_dt":15},{"city":"Stockholm","state_name":"Maine","lat":47.03586,"lng":-68.18907,"zip":"04783","miles_from_dt":15.14},{"city":"Van Buren","state_name":"Maine","lat":47.12678,"lng":-68.00368,"zip":"04785","miles_from_dt":16.94},{"city":"Fort Kent","state_name":"Maine","lat":47.15427,"lng":-68.72512,"zip":"04743","miles_from_dt":19.52},{"city":"New Sweden","state_name":"Maine","lat":46.97574,"lng":-68.12094,"zip":"04762","miles_from_dt":20.31},{"city":"Eagle Lake","state_name":"Maine","lat":46.97137,"lng":-68.61049,"zip":"04739","miles_from_dt":22.51},{"city":"Perham","state_name":"Maine","lat":46.88162,"lng":-68.23911,"zip":"04766","miles_from_dt":24.68},{"city":"Caribou","state_name":"Maine","lat":46.90661,"lng":-68.01998,"zip":"04736","miles_from_dt":26.85},{"city":"Limestone","state_name":"Maine","lat":46.9582,"lng":-67.85718,"zip":"04750","miles_from_dt":29.23}],"targetCityZipCode":"04772","targetCityState":"Maine"},"__N_SSG":true}