{"pageProps":{"stateName":"Maine","cityName":"westfield","nearbyCities":[{"city":"Blaine","state_name":"Maine","lat":46.48479,"lng":-67.91955,"zip":"04734","miles_from_dt":5.37},{"city":"Mars Hill","state_name":"Maine","lat":46.55426,"lng":-67.84732,"zip":"04758","miles_from_dt":6.17},{"city":"Easton","state_name":"Maine","lat":46.64325,"lng":-67.85487,"zip":"04740","miles_from_dt":8.59},{"city":"Presque Isle","state_name":"Maine","lat":46.68676,"lng":-67.98737,"zip":"04769","miles_from_dt":9.35},{"city":"Mapleton","state_name":"Maine","lat":46.6141,"lng":-68.18278,"zip":"04757","miles_from_dt":10.71},{"city":"Bridgewater","state_name":"Maine","lat":46.38072,"lng":-68.02865,"zip":"04735","miles_from_dt":12.06},{"city":"Crouseville","state_name":"Maine","lat":46.75854,"lng":-68.09583,"zip":"04738","miles_from_dt":15.37},{"city":"Monticello","state_name":"Maine","lat":46.32354,"lng":-67.90928,"zip":"04760","miles_from_dt":16.08},{"city":"Fort Fairfield","state_name":"Maine","lat":46.77766,"lng":-67.85526,"zip":"04742","miles_from_dt":16.65},{"city":"Washburn","state_name":"Maine","lat":46.79207,"lng":-68.17878,"zip":"04786","miles_from_dt":19.18},{"city":"Oxbow","state_name":"Maine","lat":46.36843,"lng":-68.34229,"zip":"04764","miles_from_dt":21.55},{"city":"Sheridan","state_name":"Maine","lat":46.65689,"lng":-68.4053,"zip":"04775","miles_from_dt":21.65},{"city":"Caribou","state_name":"Maine","lat":46.90661,"lng":-68.01998,"zip":"04736","miles_from_dt":24.6},{"city":"Ashland","state_name":"Maine","lat":46.56679,"lng":-68.49326,"zip":"04732","miles_from_dt":24.63},{"city":"Limestone","state_name":"Maine","lat":46.90861,"lng":-67.82639,"zip":"04751","miles_from_dt":25.67},{"city":"Perham","state_name":"Maine","lat":46.88162,"lng":-68.23911,"zip":"04766","miles_from_dt":25.98},{"city":"Limestone","state_name":"Maine","lat":46.9582,"lng":-67.85718,"zip":"04750","miles_from_dt":28.65},{"city":"Houlton","state_name":"Maine","lat":46.12574,"lng":-67.91471,"zip":"04730","miles_from_dt":29.57},{"city":"New Limerick","state_name":"Maine","lat":46.11857,"lng":-67.97183,"zip":"04761","miles_from_dt":29.91},{"city":"Smyrna Mills","state_name":"Maine","lat":46.1677,"lng":-68.26924,"zip":"04780","miles_from_dt":29.98}],"targetCityZipCode":"04787","targetCityState":"Maine"},"__N_SSG":true}