{"pageProps":{"stateName":"Arizona","cityName":"hackberry","nearbyCities":[{"city":"Hualapai","state_name":"Arizona","lat":35.50306,"lng":-113.88171,"zip":"86412","miles_from_dt":8.67},{"city":"Valentine","state_name":"Arizona","lat":35.39511,"lng":-113.59784,"zip":"86437","miles_from_dt":9},{"city":"Kingman","state_name":"Arizona","lat":35.46429,"lng":-114.03245,"zip":"86409","miles_from_dt":16.32},{"city":"Peach Springs","state_name":"Arizona","lat":35.65959,"lng":-113.58538,"zip":"86434","miles_from_dt":17.12},{"city":"Kingman","state_name":"Arizona","lat":35.11024,"lng":-113.70423,"zip":"86401","miles_from_dt":23.37},{"city":"Kingman","state_name":"Arizona","lat":35.20473,"lng":-114.0705,"zip":"86402","miles_from_dt":24.92},{"city":"Chloride","state_name":"Arizona","lat":35.42521,"lng":-114.24738,"zip":"86431","miles_from_dt":28.45}],"targetCityZipCode":"86411","targetCityState":"Arizona"},"__N_SSG":true}