{"pageProps":{"stateName":"Arizona","cityName":"morristown","nearbyCities":[{"city":"Peoria","state_name":"Arizona","lat":33.80297,"lng":-112.31734,"zip":"85383","miles_from_dt":14.08},{"city":"Wickenburg","state_name":"Arizona","lat":33.96314,"lng":-112.74689,"zip":"85358","miles_from_dt":15.14},{"city":"Wittmann","state_name":"Arizona","lat":33.76617,"lng":-112.63093,"zip":"85361","miles_from_dt":15.42},{"city":"Surprise","state_name":"Arizona","lat":33.71025,"lng":-112.44869,"zip":"85387","miles_from_dt":16.86},{"city":"Crown King","state_name":"Arizona","lat":34.17937,"lng":-112.31236,"zip":"86343","miles_from_dt":18.43},{"city":"New River","state_name":"Arizona","lat":33.92635,"lng":-112.14908,"zip":"85087","miles_from_dt":19.3},{"city":"Sun City West","state_name":"Arizona","lat":33.6716,"lng":-112.3565,"zip":"85375","miles_from_dt":20.73},{"city":"Sun City West","state_name":"Arizona","lat":33.66753,"lng":-112.35172,"zip":"85376","miles_from_dt":21.09},{"city":"Surprise","state_name":"Arizona","lat":33.64449,"lng":-112.395,"zip":"85374","miles_from_dt":21.87},{"city":"Sun City","state_name":"Arizona","lat":33.67257,"lng":-112.29983,"zip":"85373","miles_from_dt":22.03},{"city":"Wickenburg","state_name":"Arizona","lat":33.92391,"lng":-112.86739,"zip":"85390","miles_from_dt":22.14},{"city":"Phoenix","state_name":"Arizona","lat":33.82639,"lng":-112.12876,"zip":"85086","miles_from_dt":22.19},{"city":"Peoria","state_name":"Arizona","lat":33.68864,"lng":-112.24448,"zip":"85380","miles_from_dt":22.83},{"city":"Surprise","state_name":"Arizona","lat":33.64162,"lng":-112.32012,"zip":"85378","miles_from_dt":23.44},{"city":"Phoenix","state_name":"Arizona","lat":33.74032,"lng":-112.16308,"zip":"85083","miles_from_dt":23.55},{"city":"Surprise","state_name":"Arizona","lat":33.60743,"lng":-112.43413,"zip":"85388","miles_from_dt":23.99},{"city":"Peoria","state_name":"Arizona","lat":33.65548,"lng":-112.24771,"zip":"85382","miles_from_dt":24.59},{"city":"Surprise","state_name":"Arizona","lat":33.60207,"lng":-112.3736,"zip":"85379","miles_from_dt":25.01},{"city":"Glendale","state_name":"Arizona","lat":33.69532,"lng":-112.17162,"zip":"85310","miles_from_dt":25.25},{"city":"Kirkland","state_name":"Arizona","lat":34.30403,"lng":-112.61809,"zip":"86332","miles_from_dt":25.39},{"city":"Black Canyon City","state_name":"Arizona","lat":34.10456,"lng":-112.07094,"zip":"85324","miles_from_dt":25.88},{"city":"Sun City","state_name":"Arizona","lat":33.61605,"lng":-112.28382,"zip":"85372","miles_from_dt":25.92},{"city":"Waddell","state_name":"Arizona","lat":33.57519,"lng":-112.45374,"zip":"85355","miles_from_dt":26.1},{"city":"Glendale","state_name":"Arizona","lat":33.66036,"lng":-112.18457,"zip":"85318","miles_from_dt":26.51},{"city":"Glendale","state_name":"Arizona","lat":33.66029,"lng":-112.18486,"zip":"85308","miles_from_dt":26.51},{"city":"Sun City","state_name":"Arizona","lat":33.60638,"lng":-112.28213,"zip":"85351","miles_from_dt":26.56},{"city":"El Mirage","state_name":"Arizona","lat":33.58721,"lng":-112.32836,"zip":"85335","miles_from_dt":26.75},{"city":"Phoenix","state_name":"Arizona","lat":33.75637,"lng":-112.07426,"zip":"85085","miles_from_dt":27.16},{"city":"Youngtown","state_name":"Arizona","lat":33.58458,"lng":-112.30489,"zip":"85363","miles_from_dt":27.4},{"city":"Peoria","state_name":"Arizona","lat":33.60957,"lng":-112.23175,"zip":"85381","miles_from_dt":27.76},{"city":"Glendale","state_name":"Arizona","lat":33.62363,"lng":-112.18087,"zip":"85312","miles_from_dt":28.62},{"city":"Congress","state_name":"Arizona","lat":34.19209,"lng":-112.89444,"zip":"85332","miles_from_dt":28.75},{"city":"Glendale","state_name":"Arizona","lat":33.62333,"lng":-112.17569,"zip":"85306","miles_from_dt":28.82},{"city":"Phoenix","state_name":"Arizona","lat":33.6771,"lng":-112.10206,"zip":"85027","miles_from_dt":29.04},{"city":"Phoenix","state_name":"Arizona","lat":33.63187,"lng":-112.1526,"zip":"85036","miles_from_dt":29.2},{"city":"Peoria","state_name":"Arizona","lat":33.582,"lng":-112.238,"zip":"85385","miles_from_dt":29.22},{"city":"Luke Air Force Base","state_name":"Arizona","lat":33.53556,"lng":-112.37637,"zip":"85309","miles_from_dt":29.43},{"city":"Peoria","state_name":"Arizona","lat":33.57215,"lng":-112.24838,"zip":"85345","miles_from_dt":29.54}],"targetCityZipCode":"85342","targetCityState":"Arizona"},"__N_SSG":true}