{"pageProps":{"stateName":"New-jersey","cityName":"high-bridge","nearbyCities":[{"city":"Clinton","state_name":"New Jersey","lat":40.64973,"lng":-74.92503,"zip":"08809","miles_from_dt":2.07},{"city":"Annandale","state_name":"New Jersey","lat":40.62774,"lng":-74.88655,"zip":"08801","miles_from_dt":2.83},{"city":"Glen Gardner","state_name":"New Jersey","lat":40.71912,"lng":-74.90527,"zip":"08826","miles_from_dt":3.56},{"city":"Hampton","state_name":"New Jersey","lat":40.66775,"lng":-74.97351,"zip":"08827","miles_from_dt":4.17},{"city":"Lebanon","state_name":"New Jersey","lat":40.645,"lng":-74.81989,"zip":"08833","miles_from_dt":4.22},{"city":"Changewater","state_name":"New Jersey","lat":40.73909,"lng":-74.94678,"zip":"07831","miles_from_dt":5.61},{"city":"Califon","state_name":"New Jersey","lat":40.72099,"lng":-74.80033,"zip":"07830","miles_from_dt":6.12},{"city":"Asbury","state_name":"New Jersey","lat":40.6783,"lng":-75.02515,"zip":"08802","miles_from_dt":6.92},{"city":"Stanton","state_name":"New Jersey","lat":40.57427,"lng":-74.83818,"zip":"08885","miles_from_dt":7.12},{"city":"Pittstown","state_name":"New Jersey","lat":40.57513,"lng":-74.96777,"zip":"08867","miles_from_dt":7.5},{"city":"Quakertown","state_name":"New Jersey","lat":40.56607,"lng":-74.94355,"zip":"08868","miles_from_dt":7.52},{"city":"Port Murray","state_name":"New Jersey","lat":40.78722,"lng":-74.89845,"zip":"07865","miles_from_dt":8.21},{"city":"Whitehouse Station","state_name":"New Jersey","lat":40.60744,"lng":-74.75936,"zip":"08889","miles_from_dt":8.24},{"city":"Oldwick","state_name":"New Jersey","lat":40.67903,"lng":-74.73748,"zip":"08858","miles_from_dt":8.26},{"city":"Washington","state_name":"New Jersey","lat":40.75327,"lng":-75.00748,"zip":"07882","miles_from_dt":8.36},{"city":"Whitehouse","state_name":"New Jersey","lat":40.625,"lng":-74.74164,"zip":"08888","miles_from_dt":8.55},{"city":"Broadway","state_name":"New Jersey","lat":40.72559,"lng":-75.04837,"zip":"08808","miles_from_dt":9.01},{"city":"Pottersville","state_name":"New Jersey","lat":40.71225,"lng":-74.72581,"zip":"07979","miles_from_dt":9.35},{"city":"Little York","state_name":"New Jersey","lat":40.60764,"lng":-75.05804,"zip":"08834","miles_from_dt":9.58},{"city":"Long Valley","state_name":"New Jersey","lat":40.78785,"lng":-74.78315,"zip":"07853","miles_from_dt":10.1},{"city":"Flemington","state_name":"New Jersey","lat":40.52281,"lng":-74.86576,"zip":"08822","miles_from_dt":10.15},{"city":"Schooleys Mountain","state_name":"New Jersey","lat":40.80535,"lng":-74.82303,"zip":"07870","miles_from_dt":10.17},{"city":"Readington","state_name":"New Jersey","lat":40.56649,"lng":-74.73994,"zip":"08870","miles_from_dt":10.73},{"city":"Oxford","state_name":"New Jersey","lat":40.81515,"lng":-74.96562,"zip":"07863","miles_from_dt":10.81},{"city":"Bloomsbury","state_name":"New Jersey","lat":40.64412,"lng":-75.09936,"zip":"08804","miles_from_dt":10.91},{"city":"Stewartsville","state_name":"New Jersey","lat":40.69302,"lng":-75.10565,"zip":"08886","miles_from_dt":11.24},{"city":"Three Bridges","state_name":"New Jersey","lat":40.52219,"lng":-74.79428,"zip":"08887","miles_from_dt":11.37},{"city":"Bedminster","state_name":"New Jersey","lat":40.65599,"lng":-74.6771,"zip":"07921","miles_from_dt":11.44},{"city":"Gladstone","state_name":"New Jersey","lat":40.72044,"lng":-74.68159,"zip":"07934","miles_from_dt":11.73},{"city":"Milford","state_name":"New Jersey","lat":40.59386,"lng":-75.09569,"zip":"08848","miles_from_dt":11.77},{"city":"Somerville","state_name":"New Jersey","lat":40.58925,"lng":-74.68871,"zip":"08876","miles_from_dt":12.1},{"city":"Neshanic Station","state_name":"New Jersey","lat":40.52879,"lng":-74.74246,"zip":"08853","miles_from_dt":12.5},{"city":"Frenchtown","state_name":"New Jersey","lat":40.51353,"lng":-75.02341,"zip":"08825","miles_from_dt":12.66},{"city":"Far Hills","state_name":"New Jersey","lat":40.70791,"lng":-74.65732,"zip":"07931","miles_from_dt":12.74},{"city":"Belvidere","state_name":"New Jersey","lat":40.82589,"lng":-75.03781,"zip":"07823","miles_from_dt":13.23},{"city":"Peapack","state_name":"New Jersey","lat":40.70969,"lng":-74.64786,"zip":"07977","miles_from_dt":13.25},{"city":"Chester","state_name":"New Jersey","lat":40.78222,"lng":-74.68642,"zip":"07930","miles_from_dt":13.44},{"city":"Hackettstown","state_name":"New Jersey","lat":40.86034,"lng":-74.83192,"zip":"07840","miles_from_dt":13.65},{"city":"Pluckemin","state_name":"New Jersey","lat":40.64409,"lng":-74.63553,"zip":"07978","miles_from_dt":13.69},{"city":"Phillipsburg","state_name":"New Jersey","lat":40.7094,"lng":-75.15109,"zip":"08865","miles_from_dt":13.79},{"city":"Vienna","state_name":"New Jersey","lat":40.874,"lng":-74.88503,"zip":"07880","miles_from_dt":14.2},{"city":"Raritan","state_name":"New Jersey","lat":40.57316,"lng":-74.64305,"zip":"08869","miles_from_dt":14.74},{"city":"Flagtown","state_name":"New Jersey","lat":40.52074,"lng":-74.68835,"zip":"08821","miles_from_dt":14.86},{"city":"Upper Black Eddy","state_name":"Pennsylvania","lat":40.53395,"lng":-75.11997,"zip":"18972","miles_from_dt":15.07},{"city":"Great Meadows","state_name":"New Jersey","lat":40.88925,"lng":-74.91042,"zip":"07838","miles_from_dt":15.27},{"city":"Bridgewater","state_name":"New Jersey","lat":40.59241,"lng":-74.6202,"zip":"08807","miles_from_dt":15.32},{"city":"Sergeantsville","state_name":"New Jersey","lat":40.44541,"lng":-74.94305,"zip":"08557","miles_from_dt":15.59},{"city":"Ringoes","state_name":"New Jersey","lat":40.44425,"lng":-74.83907,"zip":"08551","miles_from_dt":15.73},{"city":"Erwinna","state_name":"Pennsylvania","lat":40.49264,"lng":-75.09067,"zip":"18920","miles_from_dt":15.93},{"city":"Flanders","state_name":"New Jersey","lat":40.84767,"lng":-74.70163,"zip":"07836","miles_from_dt":15.98},{"city":"Stockton","state_name":"New Jersey","lat":40.4387,"lng":-74.9716,"zip":"08559","miles_from_dt":16.36},{"city":"Bernardsville","state_name":"New Jersey","lat":40.727,"lng":-74.58941,"zip":"07924","miles_from_dt":16.51},{"city":"Hillsborough","state_name":"New Jersey","lat":40.49858,"lng":-74.67274,"zip":"08844","miles_from_dt":16.52},{"city":"Liberty Corner","state_name":"New Jersey","lat":40.6647,"lng":-74.57772,"zip":"07938","miles_from_dt":16.63},{"city":"Budd Lake","state_name":"New Jersey","lat":40.88559,"lng":-74.75237,"zip":"07828","miles_from_dt":16.74},{"city":"Martins Creek","state_name":"Pennsylvania","lat":40.78229,"lng":-75.18164,"zip":"18063","miles_from_dt":17.02},{"city":"Hope","state_name":"New Jersey","lat":40.90861,"lng":-74.96961,"zip":"07844","miles_from_dt":17.05},{"city":"Easton","state_name":"Pennsylvania","lat":40.69,"lng":-75.22001,"zip":"18043","miles_from_dt":17.18},{"city":"Easton","state_name":"Pennsylvania","lat":40.69004,"lng":-75.22003,"zip":"18044","miles_from_dt":17.19},{"city":"Revere","state_name":"Pennsylvania","lat":40.52487,"lng":-75.16262,"zip":"18953","miles_from_dt":17.24},{"city":"Mendham","state_name":"New Jersey","lat":40.78065,"lng":-74.59928,"zip":"07945","miles_from_dt":17.31},{"city":"Easton","state_name":"Pennsylvania","lat":40.6497,"lng":-75.22376,"zip":"18042","miles_from_dt":17.37},{"city":"Ferndale","state_name":"Pennsylvania","lat":40.52946,"lng":-75.1738,"zip":"18921","miles_from_dt":17.55},{"city":"Point Pleasant","state_name":"Pennsylvania","lat":40.44709,"lng":-75.06544,"zip":"18950","miles_from_dt":17.73},{"city":"Succasunna","state_name":"New Jersey","lat":40.85302,"lng":-74.65627,"zip":"07876","miles_from_dt":17.84},{"city":"Rosemont","state_name":"New Jersey","lat":40.42097,"lng":-74.9951,"zip":"08556","miles_from_dt":17.87},{"city":"Basking Ridge","state_name":"New Jersey","lat":40.68374,"lng":-74.55444,"zip":"07920","miles_from_dt":17.88},{"city":"Ironia","state_name":"New Jersey","lat":40.83013,"lng":-74.62683,"zip":"07845","miles_from_dt":17.93},{"city":"Lyons","state_name":"New Jersey","lat":40.66723,"lng":-74.55215,"zip":"07939","miles_from_dt":17.97},{"city":"Easton","state_name":"Pennsylvania","lat":40.7459,"lng":-75.22172,"zip":"18040","miles_from_dt":18.02},{"city":"Delaware","state_name":"New Jersey","lat":40.89422,"lng":-75.06979,"zip":"07833","miles_from_dt":18.11},{"city":"Manville","state_name":"New Jersey","lat":40.54147,"lng":-74.58876,"zip":"08835","miles_from_dt":18.29},{"city":"Durham","state_name":"Pennsylvania","lat":40.57631,"lng":-75.22419,"zip":"18039","miles_from_dt":18.48},{"city":"Martinsville","state_name":"New Jersey","lat":40.59705,"lng":-74.55446,"zip":"08836","miles_from_dt":18.52},{"city":"Allamuchy","state_name":"New Jersey","lat":40.93104,"lng":-74.80424,"zip":"07820","miles_from_dt":18.73},{"city":"Netcong","state_name":"New Jersey","lat":40.89733,"lng":-74.69998,"zip":"07857","miles_from_dt":18.8},{"city":"Mount Bethel","state_name":"Pennsylvania","lat":40.89043,"lng":-75.1058,"zip":"18343","miles_from_dt":18.93},{"city":"Zarephath","state_name":"New Jersey","lat":40.53877,"lng":-74.57531,"zip":"08890","miles_from_dt":19},{"city":"Ledgewood","state_name":"New Jersey","lat":40.88374,"lng":-74.66531,"zip":"07852","miles_from_dt":19.11},{"city":"Brookside","state_name":"New Jersey","lat":40.80029,"lng":-74.56879,"zip":"07926","miles_from_dt":19.35},{"city":"Kintnersville","state_name":"Pennsylvania","lat":40.52926,"lng":-75.2142,"zip":"18930","miles_from_dt":19.37},{"city":"Bangor","state_name":"Pennsylvania","lat":40.85511,"lng":-75.17114,"zip":"18013","miles_from_dt":19.43},{"city":"Mount Freedom","state_name":"New Jersey","lat":40.80831,"lng":-74.5727,"zip":"07970","miles_from_dt":19.44},{"city":"Riegelsville","state_name":"Pennsylvania","lat":40.56603,"lng":-75.24115,"zip":"18077","miles_from_dt":19.56},{"city":"Tatamy","state_name":"Pennsylvania","lat":40.74174,"lng":-75.25434,"zip":"18085","miles_from_dt":19.58},{"city":"Ottsville","state_name":"Pennsylvania","lat":40.47167,"lng":-75.16261,"zip":"18942","miles_from_dt":19.59},{"city":"Belle Mead","state_name":"New Jersey","lat":40.44815,"lng":-74.65763,"zip":"08502","miles_from_dt":19.64},{"city":"Hopewell","state_name":"New Jersey","lat":40.39641,"lng":-74.78185,"zip":"08525","miles_from_dt":19.67},{"city":"Bound Brook","state_name":"New Jersey","lat":40.57165,"lng":-74.53783,"zip":"08805","miles_from_dt":19.89},{"city":"Lumberville","state_name":"Pennsylvania","lat":40.40265,"lng":-75.042,"zip":"18933","miles_from_dt":19.91},{"city":"Easton","state_name":"Pennsylvania","lat":40.6919,"lng":-75.27494,"zip":"18045","miles_from_dt":20.07},{"city":"Warren","state_name":"New Jersey","lat":40.63199,"lng":-74.51463,"zip":"07059","miles_from_dt":20.1},{"city":"Millington","state_name":"New Jersey","lat":40.67698,"lng":-74.51143,"zip":"07946","miles_from_dt":20.12},{"city":"Skillman","state_name":"New Jersey","lat":40.41382,"lng":-74.70236,"zip":"08558","miles_from_dt":20.25},{"city":"Pipersville","state_name":"Pennsylvania","lat":40.42677,"lng":-75.1138,"zip":"18947","miles_from_dt":20.28},{"city":"Stockertown","state_name":"Pennsylvania","lat":40.75494,"lng":-75.2637,"zip":"18083","miles_from_dt":20.3},{"city":"Lambertville","state_name":"New Jersey","lat":40.37288,"lng":-74.89747,"zip":"08530","miles_from_dt":20.38},{"city":"Stanhope","state_name":"New Jersey","lat":40.9285,"lng":-74.70994,"zip":"07874","miles_from_dt":20.39},{"city":"Tranquility","state_name":"New Jersey","lat":40.95713,"lng":-74.8072,"zip":"07879","miles_from_dt":20.45},{"city":"Randolph","state_name":"New Jersey","lat":40.84528,"lng":-74.5807,"zip":"07869","miles_from_dt":20.49},{"city":"Landing","state_name":"New Jersey","lat":40.90716,"lng":-74.66158,"zip":"07850","miles_from_dt":20.51},{"city":"Johnsonburg","state_name":"New Jersey","lat":40.96694,"lng":-74.87671,"zip":"07846","miles_from_dt":20.63},{"city":"Kenvil","state_name":"New Jersey","lat":40.8856,"lng":-74.6237,"zip":"07847","miles_from_dt":20.64},{"city":"Portland","state_name":"Pennsylvania","lat":40.92321,"lng":-75.10063,"zip":"18351","miles_from_dt":20.66},{"city":"Solebury","state_name":"Pennsylvania","lat":40.38068,"lng":-75.00825,"zip":"18963","miles_from_dt":20.73},{"city":"South Bound Brook","state_name":"New Jersey","lat":40.55354,"lng":-74.52771,"zip":"08880","miles_from_dt":20.83},{"city":"Blawenburg","state_name":"New Jersey","lat":40.40104,"lng":-74.70474,"zip":"08504","miles_from_dt":20.96},{"city":"Stirling","state_name":"New Jersey","lat":40.6765,"lng":-74.49465,"zip":"07980","miles_from_dt":21},{"city":"Dover","state_name":"New Jersey","lat":40.85424,"lng":-74.57469,"zip":"07802","miles_from_dt":21.11},{"city":"Mine Hill","state_name":"New Jersey","lat":40.87819,"lng":-74.60003,"zip":"07803","miles_from_dt":21.16},{"city":"Columbia","state_name":"New Jersey","lat":40.94755,"lng":-75.06385,"zip":"07832","miles_from_dt":21.23},{"city":"Greendell","state_name":"New Jersey","lat":40.97469,"lng":-74.82071,"zip":"07839","miles_from_dt":21.49},{"city":"Middlesex","state_name":"New Jersey","lat":40.57439,"lng":-74.5011,"zip":"08846","miles_from_dt":21.66},{"city":"Springtown","state_name":"Pennsylvania","lat":40.56236,"lng":-75.28396,"zip":"18081","miles_from_dt":21.76},{"city":"Carversville","state_name":"Pennsylvania","lat":40.37727,"lng":-75.0545,"zip":"18913","miles_from_dt":21.78},{"city":"Andover","state_name":"New Jersey","lat":40.96461,"lng":-74.74807,"zip":"07821","miles_from_dt":21.83},{"city":"Hellertown","state_name":"Pennsylvania","lat":40.58794,"lng":-75.29929,"zip":"18055","miles_from_dt":22.01},{"city":"Blairstown","state_name":"New Jersey","lat":40.98308,"lng":-74.9623,"zip":"07825","miles_from_dt":22.01},{"city":"Mount Arlington","state_name":"New Jersey","lat":40.9189,"lng":-74.6336,"zip":"07856","miles_from_dt":22.04},{"city":"New Vernon","state_name":"New Jersey","lat":40.72747,"lng":-74.47704,"zip":"07976","miles_from_dt":22.28},{"city":"Morristown","state_name":"New Jersey","lat":40.78452,"lng":-74.49813,"zip":"07960","miles_from_dt":22.28},{"city":"Dunellen","state_name":"New Jersey","lat":40.5999,"lng":-74.47979,"zip":"08812","miles_from_dt":22.29},{"city":"Somerset","state_name":"New Jersey","lat":40.49865,"lng":-74.53284,"zip":"08873","miles_from_dt":22.32},{"city":"Hopatcong","state_name":"New Jersey","lat":40.93989,"lng":-74.65928,"zip":"07843","miles_from_dt":22.43},{"city":"Bedminster","state_name":"Pennsylvania","lat":40.42639,"lng":-75.17937,"zip":"18910","miles_from_dt":22.45},{"city":"Gillette","state_name":"New Jersey","lat":40.69198,"lng":-74.46658,"zip":"07933","miles_from_dt":22.52},{"city":"New Hope","state_name":"Pennsylvania","lat":40.35126,"lng":-74.99779,"zip":"18938","miles_from_dt":22.55},{"city":"Pen Argyl","state_name":"Pennsylvania","lat":40.84548,"lng":-75.25842,"zip":"18072","miles_from_dt":22.69},{"city":"Bethlehem","state_name":"Pennsylvania","lat":40.67267,"lng":-75.32692,"zip":"18020","miles_from_dt":22.74},{"city":"Morristown","state_name":"New Jersey","lat":40.8064,"lng":-74.50061,"zip":"07962","miles_from_dt":22.75},{"city":"Rocky Hill","state_name":"New Jersey","lat":40.40011,"lng":-74.64051,"zip":"08553","miles_from_dt":22.82},{"city":"Nazareth","state_name":"Pennsylvania","lat":40.75755,"lng":-75.31927,"zip":"18064","miles_from_dt":23.16},{"city":"Lahaska","state_name":"Pennsylvania","lat":40.34779,"lng":-75.0315,"zip":"18931","miles_from_dt":23.27},{"city":"Franklin Park","state_name":"New Jersey","lat":40.44218,"lng":-74.56318,"zip":"08823","miles_from_dt":23.38},{"city":"Morristown","state_name":"New Jersey","lat":40.79547,"lng":-74.47775,"zip":"07963","miles_from_dt":23.55},{"city":"Plumsteadville","state_name":"Pennsylvania","lat":40.38488,"lng":-75.14631,"zip":"18949","miles_from_dt":23.64},{"city":"Green Village","state_name":"New Jersey","lat":40.7371,"lng":-74.45296,"zip":"07935","miles_from_dt":23.65},{"city":"Pennington","state_name":"New Jersey","lat":40.33026,"lng":-74.79422,"zip":"08534","miles_from_dt":23.91},{"city":"Plainfield","state_name":"New Jersey","lat":40.60524,"lng":-74.44615,"zip":"07063","miles_from_dt":23.95},{"city":"Watchung","state_name":"New Jersey","lat":40.64249,"lng":-74.4396,"zip":"07069","miles_from_dt":23.95},{"city":"Mechanicsville","state_name":"Pennsylvania","lat":40.34663,"lng":-75.07211,"zip":"18934","miles_from_dt":24.09},{"city":"Piscataway","state_name":"New Jersey","lat":40.54648,"lng":-74.46342,"zip":"08854","miles_from_dt":24.16},{"city":"Doylestown","state_name":"Pennsylvania","lat":40.35474,"lng":-75.09855,"zip":"18902","miles_from_dt":24.16},{"city":"Kingston","state_name":"New Jersey","lat":40.38791,"lng":-74.61744,"zip":"08528","miles_from_dt":24.22},{"city":"Holicong","state_name":"Pennsylvania","lat":40.33594,"lng":-75.04855,"zip":"18928","miles_from_dt":24.33},{"city":"Princeton","state_name":"New Jersey","lat":40.36423,"lng":-74.65661,"zip":"08540","miles_from_dt":24.43},{"city":"Titusville","state_name":"New Jersey","lat":40.31453,"lng":-74.85946,"zip":"08560","miles_from_dt":24.48},{"city":"Berkeley Heights","state_name":"New Jersey","lat":40.67525,"lng":-74.42806,"zip":"07922","miles_from_dt":24.49},{"city":"Wharton","state_name":"New Jersey","lat":40.93172,"lng":-74.57688,"zip":"07885","miles_from_dt":24.64},{"city":"Kendall Park","state_name":"New Jersey","lat":40.42058,"lng":-74.5538,"zip":"08824","miles_from_dt":24.76},{"city":"Morris Plains","state_name":"New Jersey","lat":40.84569,"lng":-74.48271,"zip":"07950","miles_from_dt":24.82},{"city":"Princeton","state_name":"New Jersey","lat":40.35452,"lng":-74.66064,"zip":"08542","miles_from_dt":24.9},{"city":"Wind Gap","state_name":"Pennsylvania","lat":40.82656,"lng":-75.32068,"zip":"18091","miles_from_dt":24.91},{"city":"Glasser","state_name":"New Jersey","lat":40.97232,"lng":-74.63688,"zip":"07837","miles_from_dt":24.94},{"city":"Danboro","state_name":"Pennsylvania","lat":40.355,"lng":-75.13268,"zip":"18916","miles_from_dt":25},{"city":"Plainfield","state_name":"New Jersey","lat":40.61606,"lng":-74.42164,"zip":"07060","miles_from_dt":25.1},{"city":"Bethlehem","state_name":"Pennsylvania","lat":40.62507,"lng":-75.3712,"zip":"18025","miles_from_dt":25.25},{"city":"Princeton","state_name":"New Jersey","lat":40.34838,"lng":-74.65902,"zip":"08541","miles_from_dt":25.31},{"city":"Convent Station","state_name":"New Jersey","lat":40.78105,"lng":-74.43517,"zip":"07961","miles_from_dt":25.32},{"city":"Cedar Knolls","state_name":"New Jersey","lat":40.82085,"lng":-74.45479,"zip":"07927","miles_from_dt":25.35},{"city":"Stillwater","state_name":"New Jersey","lat":41.03594,"lng":-74.87994,"zip":"07875","miles_from_dt":25.38},{"city":"Buckingham","state_name":"Pennsylvania","lat":40.32134,"lng":-75.05852,"zip":"18912","miles_from_dt":25.46},{"city":"Princeton","state_name":"New Jersey","lat":40.34641,"lng":-74.65787,"zip":"08544","miles_from_dt":25.46},{"city":"Delaware Water Gap","state_name":"Pennsylvania","lat":40.98341,"lng":-75.14665,"zip":"18327","miles_from_dt":25.46},{"city":"Richlandtown","state_name":"Pennsylvania","lat":40.48469,"lng":-75.3141,"zip":"18955","miles_from_dt":25.47},{"city":"Plainfield","state_name":"New Jersey","lat":40.61505,"lng":-74.41449,"zip":"07061","miles_from_dt":25.48},{"city":"Bethlehem","state_name":"Pennsylvania","lat":40.62236,"lng":-75.37516,"zip":"18016","miles_from_dt":25.48},{"city":"Bethlehem","state_name":"Pennsylvania","lat":40.5887,"lng":-75.36786,"zip":"18015","miles_from_dt":25.5},{"city":"Lake Hopatcong","state_name":"New Jersey","lat":40.96861,"lng":-74.61066,"zip":"07849","miles_from_dt":25.5},{"city":"Chatham","state_name":"New Jersey","lat":40.7262,"lng":-74.41381,"zip":"07928","miles_from_dt":25.54},{"city":"Lehigh Valley","state_name":"Pennsylvania","lat":40.66966,"lng":-75.38022,"zip":"18002","miles_from_dt":25.54},{"city":"Picatinny Arsenal","state_name":"New Jersey","lat":40.93939,"lng":-74.55845,"zip":"07806","miles_from_dt":25.69},{"city":"Madison","state_name":"New Jersey","lat":40.76006,"lng":-74.41889,"zip":"07940","miles_from_dt":25.74},{"city":"Dover","state_name":"New Jersey","lat":40.93167,"lng":-74.54643,"zip":"07801","miles_from_dt":25.74},{"city":"Somerset","state_name":"New Jersey","lat":40.486,"lng":-74.465,"zip":"08875","miles_from_dt":25.84},{"city":"New Providence","state_name":"New Jersey","lat":40.69732,"lng":-74.40321,"zip":"07974","miles_from_dt":25.87},{"city":"Plainfield","state_name":"New Jersey","lat":40.63174,"lng":-74.40391,"zip":"07062","miles_from_dt":25.89},{"city":"Bethlehem","state_name":"Pennsylvania","lat":40.66069,"lng":-75.38739,"zip":"18017","miles_from_dt":25.92},{"city":"Mount Tabor","state_name":"New Jersey","lat":40.87152,"lng":-74.47826,"zip":"07878","miles_from_dt":25.94},{"city":"South Plainfield","state_name":"New Jersey","lat":40.57483,"lng":-74.41542,"zip":"07080","miles_from_dt":25.98},{"city":"New Brunswick","state_name":"New Jersey","lat":40.50987,"lng":-74.44546,"zip":"08903","miles_from_dt":26.01},{"city":"Whippany","state_name":"New Jersey","lat":40.8214,"lng":-74.43954,"zip":"07999","miles_from_dt":26.09},{"city":"Fountainville","state_name":"Pennsylvania","lat":40.3532,"lng":-75.16798,"zip":"18923","miles_from_dt":26.09},{"city":"Perkasie","state_name":"Pennsylvania","lat":40.39252,"lng":-75.23381,"zip":"18944","miles_from_dt":26.11},{"city":"Dublin","state_name":"Pennsylvania","lat":40.37088,"lng":-75.202,"zip":"18917","miles_from_dt":26.15},{"city":"Minisink Hills","state_name":"Pennsylvania","lat":41,"lng":-75.13618,"zip":"18341","miles_from_dt":26.17},{"city":"Denville","state_name":"New Jersey","lat":40.88752,"lng":-74.48689,"zip":"07834","miles_from_dt":26.18},{"city":"Washington Crossing","state_name":"Pennsylvania","lat":40.28655,"lng":-74.87865,"zip":"18977","miles_from_dt":26.35},{"city":"Bethlehem","state_name":"Pennsylvania","lat":40.62766,"lng":-75.39538,"zip":"18018","miles_from_dt":26.49},{"city":"North Brunswick","state_name":"New Jersey","lat":40.44236,"lng":-74.48579,"zip":"08902","miles_from_dt":26.55},{"city":"Shawnee On Delaware","state_name":"Pennsylvania","lat":41.01574,"lng":-75.11192,"zip":"18356","miles_from_dt":26.55},{"city":"Monmouth Junction","state_name":"New Jersey","lat":40.38978,"lng":-74.54461,"zip":"08852","miles_from_dt":26.61},{"city":"Middleville","state_name":"New Jersey","lat":41.05443,"lng":-74.86272,"zip":"07855","miles_from_dt":26.7},{"city":"New Brunswick","state_name":"New Jersey","lat":40.48638,"lng":-74.44521,"zip":"08933","miles_from_dt":26.75},{"city":"Fanwood","state_name":"New Jersey","lat":40.64171,"lng":-74.38575,"zip":"07023","miles_from_dt":26.78},{"city":"New Brunswick","state_name":"New Jersey","lat":40.4843,"lng":-74.44468,"zip":"08906","miles_from_dt":26.84},{"city":"Pineville","state_name":"Pennsylvania","lat":40.28923,"lng":-75.01009,"zip":"18946","miles_from_dt":26.86},{"city":"Forest Grove","state_name":"Pennsylvania","lat":40.29883,"lng":-75.05717,"zip":"18922","miles_from_dt":26.9},{"city":"New Brunswick","state_name":"New Jersey","lat":40.48426,"lng":-74.44275,"zip":"08901","miles_from_dt":26.93},{"city":"Westfield","state_name":"New Jersey","lat":40.6938,"lng":-74.38262,"zip":"07091","miles_from_dt":26.93},{"city":"Whippany","state_name":"New Jersey","lat":40.82375,"lng":-74.42029,"zip":"07981","miles_from_dt":27.08},{"city":"Highland Park","state_name":"New Jersey","lat":40.50057,"lng":-74.42832,"zip":"08904","miles_from_dt":27.1},{"city":"Penns Park","state_name":"Pennsylvania","lat":40.28283,"lng":-74.9954,"zip":"18943","miles_from_dt":27.13},{"city":"New Brunswick","state_name":"New Jersey","lat":40.51942,"lng":-74.41458,"zip":"08989","miles_from_dt":27.24},{"city":"Newton","state_name":"New Jersey","lat":41.0595,"lng":-74.81159,"zip":"07860","miles_from_dt":27.34},{"city":"Florham Park","state_name":"New Jersey","lat":40.77717,"lng":-74.39246,"zip":"07932","miles_from_dt":27.39},{"city":"Scotch Plains","state_name":"New Jersey","lat":40.63308,"lng":-74.37387,"zip":"07076","miles_from_dt":27.45},{"city":"Quakertown","state_name":"Pennsylvania","lat":40.45294,"lng":-75.33833,"zip":"18951","miles_from_dt":27.7},{"city":"Princeton","state_name":"New Jersey","lat":40.31117,"lng":-74.65163,"zip":"08543","miles_from_dt":27.76},{"city":"Blooming Glen","state_name":"Pennsylvania","lat":40.35987,"lng":-75.23369,"zip":"18911","miles_from_dt":27.8},{"city":"Furlong","state_name":"Pennsylvania","lat":40.2851,"lng":-75.05934,"zip":"18925","miles_from_dt":27.84},{"city":"Bath","state_name":"Pennsylvania","lat":40.7654,"lng":-75.40923,"zip":"18014","miles_from_dt":27.86},{"city":"Summit","state_name":"New Jersey","lat":40.71414,"lng":-74.36589,"zip":"07902","miles_from_dt":27.92},{"city":"Summit","state_name":"New Jersey","lat":40.71462,"lng":-74.36604,"zip":"07901","miles_from_dt":27.92},{"city":"Trenton","state_name":"New Jersey","lat":40.26705,"lng":-74.82235,"zip":"08628","miles_from_dt":27.94},{"city":"Lawrence Township","state_name":"New Jersey","lat":40.28488,"lng":-74.72201,"zip":"08648","miles_from_dt":27.97},{"city":"Wycombe","state_name":"Pennsylvania","lat":40.27276,"lng":-75.01105,"zip":"18980","miles_from_dt":27.98},{"city":"Edison","state_name":"New Jersey","lat":40.51879,"lng":-74.39861,"zip":"08899","miles_from_dt":28.03},{"city":"Mountainside","state_name":"New Jersey","lat":40.68106,"lng":-74.36038,"zip":"07092","miles_from_dt":28.06},{"city":"Newtown","state_name":"Pennsylvania","lat":40.26349,"lng":-74.9483,"zip":"18940","miles_from_dt":28.08},{"city":"Hibernia","state_name":"New Jersey","lat":40.94477,"lng":-74.50065,"zip":"07842","miles_from_dt":28.1},{"city":"Edison","state_name":"New Jersey","lat":40.51366,"lng":-74.39799,"zip":"08818","miles_from_dt":28.19},{"city":"Plainsboro","state_name":"New Jersey","lat":40.33392,"lng":-74.58488,"zip":"08536","miles_from_dt":28.24},{"city":"Coopersburg","state_name":"Pennsylvania","lat":40.50925,"lng":-75.38891,"zip":"18036","miles_from_dt":28.24},{"city":"Mountain Lakes","state_name":"New Jersey","lat":40.89067,"lng":-74.44072,"zip":"07046","miles_from_dt":28.3},{"city":"Milltown","state_name":"New Jersey","lat":40.44826,"lng":-74.43994,"zip":"08850","miles_from_dt":28.32},{"city":"Edison","state_name":"New Jersey","lat":40.51559,"lng":-74.3939,"zip":"08817","miles_from_dt":28.34},{"city":"Doylestown","state_name":"Pennsylvania","lat":40.30529,"lng":-75.15026,"zip":"18901","miles_from_dt":28.45},{"city":"Lehigh Valley","state_name":"Pennsylvania","lat":40.64472,"lng":-75.43468,"zip":"18003","miles_from_dt":28.45},{"city":"Piscataway","state_name":"New Jersey","lat":40.50025,"lng":-74.39998,"zip":"08855","miles_from_dt":28.46},{"city":"Edison","state_name":"New Jersey","lat":40.57725,"lng":-74.36599,"zip":"08820","miles_from_dt":28.47},{"city":"Allentown","state_name":"Pennsylvania","lat":40.63673,"lng":-75.44043,"zip":"18109","miles_from_dt":28.79},{"city":"Center Valley","state_name":"Pennsylvania","lat":40.54182,"lng":-75.41654,"zip":"18034","miles_from_dt":28.83},{"city":"Parsippany","state_name":"New Jersey","lat":40.85527,"lng":-74.40239,"zip":"07054","miles_from_dt":28.85},{"city":"Sciota","state_name":"Pennsylvania","lat":40.92561,"lng":-75.32831,"zip":"18354","miles_from_dt":28.87},{"city":"Rushland","state_name":"Pennsylvania","lat":40.26162,"lng":-75.02725,"zip":"18956","miles_from_dt":28.92},{"city":"Westfield","state_name":"New Jersey","lat":40.65172,"lng":-74.34328,"zip":"07090","miles_from_dt":28.97},{"city":"Rockaway","state_name":"New Jersey","lat":40.9531,"lng":-74.48639,"zip":"07866","miles_from_dt":29.04},{"city":"Swartswood","state_name":"New Jersey","lat":41.08723,"lng":-74.829,"zip":"07877","miles_from_dt":29.11},{"city":"Zionhill","state_name":"Pennsylvania","lat":40.48373,"lng":-75.39386,"zip":"18981","miles_from_dt":29.21},{"city":"East Stroudsburg","state_name":"Pennsylvania","lat":41.03141,"lng":-75.18316,"zip":"18301","miles_from_dt":29.28},{"city":"Dayton","state_name":"New Jersey","lat":40.37073,"lng":-74.49641,"zip":"08810","miles_from_dt":29.33},{"city":"Trenton","state_name":"New Jersey","lat":40.25531,"lng":-74.76222,"zip":"08638","miles_from_dt":29.33},{"city":"Stroudsburg","state_name":"Pennsylvania","lat":40.97254,"lng":-75.28562,"zip":"18360","miles_from_dt":29.36},{"city":"Metuchen","state_name":"New Jersey","lat":40.54361,"lng":-74.35856,"zip":"08840","miles_from_dt":29.45},{"city":"Marshalls Creek","state_name":"Pennsylvania","lat":41.06413,"lng":-75.10455,"zip":"18335","miles_from_dt":29.46},{"city":"Trenton","state_name":"New Jersey","lat":40.24878,"lng":-74.78734,"zip":"08618","miles_from_dt":29.49},{"city":"Saylorsburg","state_name":"Pennsylvania","lat":40.89848,"lng":-75.36953,"zip":"18353","miles_from_dt":29.56},{"city":"Sparta","state_name":"New Jersey","lat":41.04666,"lng":-74.62793,"zip":"07871","miles_from_dt":29.6},{"city":"East Hanover","state_name":"New Jersey","lat":40.81918,"lng":-74.36382,"zip":"07936","miles_from_dt":29.72},{"city":"Reeders","state_name":"Pennsylvania","lat":40.9897,"lng":-75.27501,"zip":"18352","miles_from_dt":29.84},{"city":"Silverdale","state_name":"Pennsylvania","lat":40.34462,"lng":-75.27033,"zip":"18962","miles_from_dt":29.85},{"city":"Springfield","state_name":"New Jersey","lat":40.69949,"lng":-74.32542,"zip":"07081","miles_from_dt":29.95}],"targetCityZipCode":"08829","targetCityState":"New Jersey"},"__N_SSG":true}