{"pageProps":{"stateName":"New-jersey","cityName":"newport","nearbyCities":[{"city":"Dividing Creek","state_name":"New Jersey","lat":39.26969,"lng":-75.10486,"zip":"08315","miles_from_dt":2.58},{"city":"Cedarville","state_name":"New Jersey","lat":39.32685,"lng":-75.20804,"zip":"08311","miles_from_dt":4.24},{"city":"Port Norris","state_name":"New Jersey","lat":39.266,"lng":-75.06337,"zip":"08349","miles_from_dt":4.72},{"city":"Fortescue","state_name":"New Jersey","lat":39.21961,"lng":-75.14107,"zip":"08321","miles_from_dt":4.74},{"city":"Fairton","state_name":"New Jersey","lat":39.3851,"lng":-75.16059,"zip":"08320","miles_from_dt":6.73},{"city":"Mauricetown","state_name":"New Jersey","lat":39.2857,"lng":-75.00338,"zip":"08329","miles_from_dt":7.68},{"city":"Millville","state_name":"New Jersey","lat":39.3705,"lng":-75.0293,"zip":"08332","miles_from_dt":8.47},{"city":"Heislerville","state_name":"New Jersey","lat":39.21859,"lng":-74.99999,"zip":"08324","miles_from_dt":9.22},{"city":"Port Elizabeth","state_name":"New Jersey","lat":39.31381,"lng":-74.96594,"zip":"08348","miles_from_dt":9.85},{"city":"Leesburg","state_name":"New Jersey","lat":39.25458,"lng":-74.94657,"zip":"08327","miles_from_dt":10.98},{"city":"Dorchester","state_name":"New Jersey","lat":39.28009,"lng":-74.93186,"zip":"08316","miles_from_dt":11.53},{"city":"Delmont","state_name":"New Jersey","lat":39.21683,"lng":-74.94113,"zip":"08314","miles_from_dt":12.07},{"city":"Bridgeton","state_name":"New Jersey","lat":39.4397,"lng":-75.2616,"zip":"08302","miles_from_dt":12.13},{"city":"Rosenhayn","state_name":"New Jersey","lat":39.47545,"lng":-75.12724,"zip":"08352","miles_from_dt":12.96},{"city":"Greenwich","state_name":"New Jersey","lat":39.39557,"lng":-75.36605,"zip":"08323","miles_from_dt":13.89},{"city":"Shiloh","state_name":"New Jersey","lat":39.45954,"lng":-75.29695,"zip":"08353","miles_from_dt":14.3},{"city":"Norma","state_name":"New Jersey","lat":39.49378,"lng":-75.08778,"zip":"08347","miles_from_dt":14.53},{"city":"Vineland","state_name":"New Jersey","lat":39.46556,"lng":-74.9992,"zip":"08362","miles_from_dt":14.56},{"city":"Vineland","state_name":"New Jersey","lat":39.44843,"lng":-74.95943,"zip":"08361","miles_from_dt":14.93},{"city":"Milmay","state_name":"New Jersey","lat":39.40087,"lng":-74.88407,"zip":"08340","miles_from_dt":16.07},{"city":"Vineland","state_name":"New Jersey","lat":39.49374,"lng":-75.00352,"zip":"08360","miles_from_dt":16.12},{"city":"Deerfield Street","state_name":"New Jersey","lat":39.53065,"lng":-75.23101,"zip":"08313","miles_from_dt":17.33},{"city":"Woodbine","state_name":"New Jersey","lat":39.26437,"lng":-74.80861,"zip":"08270","miles_from_dt":18.2},{"city":"Goshen","state_name":"New Jersey","lat":39.14374,"lng":-74.862,"zip":"08218","miles_from_dt":18.24},{"city":"Estell Manor","state_name":"New Jersey","lat":39.3645,"lng":-74.81753,"zip":"08319","miles_from_dt":18.41},{"city":"Little Creek","state_name":"Delaware","lat":39.16489,"lng":-75.45205,"zip":"19961","miles_from_dt":18.46},{"city":"Dennisville","state_name":"New Jersey","lat":39.19133,"lng":-74.8241,"zip":"08214","miles_from_dt":18.55},{"city":"Elmer","state_name":"New Jersey","lat":39.55657,"lng":-75.17776,"zip":"08318","miles_from_dt":18.59},{"city":"Dorothy","state_name":"New Jersey","lat":39.40398,"lng":-74.82696,"zip":"08317","miles_from_dt":18.9},{"city":"Minotola","state_name":"New Jersey","lat":39.52002,"lng":-74.9524,"zip":"08341","miles_from_dt":19.08},{"city":"South Dennis","state_name":"New Jersey","lat":39.1765,"lng":-74.81902,"zip":"08245","miles_from_dt":19.19},{"city":"Dover","state_name":"Delaware","lat":39.17335,"lng":-75.47758,"zip":"19901","miles_from_dt":19.44},{"city":"Richland","state_name":"New Jersey","lat":39.49134,"lng":-74.87413,"zip":"08350","miles_from_dt":20.23},{"city":"Dover Afb","state_name":"Delaware","lat":39.12765,"lng":-75.46694,"zip":"19902","miles_from_dt":20.45},{"city":"Malaga","state_name":"New Jersey","lat":39.5797,"lng":-75.06015,"zip":"08328","miles_from_dt":20.64},{"city":"Tuckahoe","state_name":"New Jersey","lat":39.29001,"lng":-74.75905,"zip":"08250","miles_from_dt":20.78},{"city":"Landisville","state_name":"New Jersey","lat":39.53847,"lng":-74.92761,"zip":"08326","miles_from_dt":20.87},{"city":"Cape May Court House","state_name":"New Jersey","lat":39.11974,"lng":-74.82248,"zip":"08210","miles_from_dt":20.92},{"city":"Newfield","state_name":"New Jersey","lat":39.56707,"lng":-74.99185,"zip":"08344","miles_from_dt":20.95},{"city":"Buena","state_name":"New Jersey","lat":39.52723,"lng":-74.89769,"zip":"08310","miles_from_dt":21.2},{"city":"Villas","state_name":"New Jersey","lat":39.02766,"lng":-74.92573,"zip":"08251","miles_from_dt":21.53},{"city":"Alloway","state_name":"New Jersey","lat":39.55423,"lng":-75.35683,"zip":"08001","miles_from_dt":21.53},{"city":"Mizpah","state_name":"New Jersey","lat":39.48808,"lng":-74.83431,"zip":"08342","miles_from_dt":21.68},{"city":"Smyrna","state_name":"Delaware","lat":39.29653,"lng":-75.55132,"zip":"19977","miles_from_dt":21.7},{"city":"South Seaville","state_name":"New Jersey","lat":39.18098,"lng":-74.76583,"zip":"08246","miles_from_dt":21.73},{"city":"Green Creek","state_name":"New Jersey","lat":39.03821,"lng":-74.89703,"zip":"08219","miles_from_dt":21.84},{"city":"Dover","state_name":"Delaware","lat":39.15899,"lng":-75.52043,"zip":"19905","miles_from_dt":21.94},{"city":"Hancocks Bridge","state_name":"New Jersey","lat":39.47391,"lng":-75.48852,"zip":"08038","miles_from_dt":22.34},{"city":"Quinton","state_name":"New Jersey","lat":39.54495,"lng":-75.41258,"zip":"08072","miles_from_dt":22.72},{"city":"Whitesboro","state_name":"New Jersey","lat":39.03699,"lng":-74.86342,"zip":"08252","miles_from_dt":23.06},{"city":"Dover","state_name":"Delaware","lat":39.15,"lng":-75.54219,"zip":"19906","miles_from_dt":23.27},{"city":"Salem","state_name":"New Jersey","lat":39.54284,"lng":-75.43184,"zip":"08079","miles_from_dt":23.27},{"city":"Rio Grande","state_name":"New Jersey","lat":39.01786,"lng":-74.88627,"zip":"08242","miles_from_dt":23.31},{"city":"Franklinville","state_name":"New Jersey","lat":39.61463,"lng":-75.03385,"zip":"08322","miles_from_dt":23.32},{"city":"Dover","state_name":"Delaware","lat":39.20946,"lng":-75.57012,"zip":"19903","miles_from_dt":23.35},{"city":"Cheswold","state_name":"Delaware","lat":39.21846,"lng":-75.58498,"zip":"19936","miles_from_dt":23.99},{"city":"Magnolia","state_name":"Delaware","lat":39.07005,"lng":-75.49753,"zip":"19962","miles_from_dt":24.11},{"city":"Frederica","state_name":"Delaware","lat":39.03224,"lng":-75.45297,"zip":"19946","miles_from_dt":24.13},{"city":"Monroeville","state_name":"New Jersey","lat":39.64057,"lng":-75.1699,"zip":"08343","miles_from_dt":24.34},{"city":"Ocean View","state_name":"New Jersey","lat":39.20381,"lng":-74.70342,"zip":"08230","miles_from_dt":24.48},{"city":"Mays Landing","state_name":"New Jersey","lat":39.4566,"lng":-74.73814,"zip":"08330","miles_from_dt":24.77},{"city":"Newtonville","state_name":"New Jersey","lat":39.56926,"lng":-74.85827,"zip":"08346","miles_from_dt":24.78},{"city":"Cape May","state_name":"New Jersey","lat":38.97131,"lng":-74.92054,"zip":"08204","miles_from_dt":25.01},{"city":"Avalon","state_name":"New Jersey","lat":39.09659,"lng":-74.74806,"zip":"08202","miles_from_dt":25.15},{"city":"Stone Harbor","state_name":"New Jersey","lat":39.05279,"lng":-74.78508,"zip":"08247","miles_from_dt":25.31},{"city":"Dover","state_name":"Delaware","lat":39.17289,"lng":-75.59517,"zip":"19904","miles_from_dt":25.34},{"city":"Sea Isle City","state_name":"New Jersey","lat":39.15235,"lng":-74.69758,"zip":"08243","miles_from_dt":25.86},{"city":"Clayton","state_name":"New Jersey","lat":39.66143,"lng":-75.08375,"zip":"08312","miles_from_dt":25.97},{"city":"Wildwood","state_name":"New Jersey","lat":38.99555,"lng":-74.84088,"zip":"08260","miles_from_dt":26.03},{"city":"Cape May Point","state_name":"New Jersey","lat":38.93721,"lng":-74.96509,"zip":"08212","miles_from_dt":26.1},{"city":"Woodstown","state_name":"New Jersey","lat":39.63934,"lng":-75.3316,"zip":"08098","miles_from_dt":26.17},{"city":"Marmora","state_name":"New Jersey","lat":39.27021,"lng":-74.6571,"zip":"08223","miles_from_dt":26.28},{"city":"Strathmere","state_name":"New Jersey","lat":39.1944,"lng":-74.66175,"zip":"08248","miles_from_dt":26.81},{"city":"Williamstown","state_name":"New Jersey","lat":39.65096,"lng":-74.96529,"zip":"08094","miles_from_dt":26.84},{"city":"Woodside","state_name":"Delaware","lat":39.07349,"lng":-75.57008,"zip":"19980","miles_from_dt":27.13},{"city":"Milford","state_name":"Delaware","lat":38.93347,"lng":-75.37799,"zip":"19963","miles_from_dt":27.44},{"city":"Townsend","state_name":"Delaware","lat":39.38377,"lng":-75.65026,"zip":"19734","miles_from_dt":27.77},{"city":"Glassboro","state_name":"New Jersey","lat":39.69336,"lng":-75.11949,"zip":"08028","miles_from_dt":27.99},{"city":"Kenton","state_name":"Delaware","lat":39.22652,"lng":-75.6654,"zip":"19955","miles_from_dt":28.14},{"city":"Ewan","state_name":"New Jersey","lat":39.69757,"lng":-75.18274,"zip":"08025","miles_from_dt":28.31},{"city":"Viola","state_name":"Delaware","lat":39.05041,"lng":-75.57642,"zip":"19979","miles_from_dt":28.31},{"city":"Harrisonville","state_name":"New Jersey","lat":39.68662,"lng":-75.27661,"zip":"08039","miles_from_dt":28.35},{"city":"Port Penn","state_name":"Delaware","lat":39.5102,"lng":-75.59616,"zip":"19731","miles_from_dt":28.52},{"city":"Egg Harbor Township","state_name":"New Jersey","lat":39.38662,"lng":-74.62369,"zip":"08234","miles_from_dt":28.83},{"city":"Winslow","state_name":"New Jersey","lat":39.64514,"lng":-74.85576,"zip":"08095","miles_from_dt":29.13},{"city":"Ocean City","state_name":"New Jersey","lat":39.26812,"lng":-74.60196,"zip":"08226","miles_from_dt":29.24},{"city":"Richwood","state_name":"New Jersey","lat":39.71289,"lng":-75.16379,"zip":"08074","miles_from_dt":29.32},{"city":"Somers Point","state_name":"New Jersey","lat":39.31503,"lng":-74.59808,"zip":"08244","miles_from_dt":29.46},{"city":"Camden Wyoming","state_name":"Delaware","lat":39.08135,"lng":-75.63113,"zip":"19934","miles_from_dt":29.66},{"city":"Clayton","state_name":"Delaware","lat":39.25646,"lng":-75.69884,"zip":"19938","miles_from_dt":29.69},{"city":"Mullica Hill","state_name":"New Jersey","lat":39.71465,"lng":-75.22124,"zip":"08062","miles_from_dt":29.69},{"city":"Odessa","state_name":"Delaware","lat":39.45443,"lng":-75.66077,"zip":"19730","miles_from_dt":29.82}],"targetCityZipCode":"08345","targetCityState":"New Jersey"},"__N_SSG":true}