{"pageProps":{"stateName":"New-jersey","cityName":"swartswood","nearbyCities":[{"city":"Newton","state_name":"New Jersey","lat":41.0595,"lng":-74.81159,"zip":"07860","miles_from_dt":2.12},{"city":"Middleville","state_name":"New Jersey","lat":41.05443,"lng":-74.86272,"zip":"07855","miles_from_dt":2.87},{"city":"Stillwater","state_name":"New Jersey","lat":41.03594,"lng":-74.87994,"zip":"07875","miles_from_dt":4.43},{"city":"Branchville","state_name":"New Jersey","lat":41.14489,"lng":-74.75209,"zip":"07890","miles_from_dt":5.65},{"city":"Wallpack Center","state_name":"New Jersey","lat":41.12213,"lng":-74.93249,"zip":"07881","miles_from_dt":5.91},{"city":"Branchville","state_name":"New Jersey","lat":41.17633,"lng":-74.79042,"zip":"07826","miles_from_dt":6.47},{"city":"Augusta","state_name":"New Jersey","lat":41.1409,"lng":-74.70373,"zip":"07822","miles_from_dt":7.51},{"city":"Lafayette","state_name":"New Jersey","lat":41.10339,"lng":-74.68312,"zip":"07848","miles_from_dt":7.7},{"city":"Greendell","state_name":"New Jersey","lat":40.97469,"lng":-74.82071,"zip":"07839","miles_from_dt":7.78},{"city":"Layton","state_name":"New Jersey","lat":41.19883,"lng":-74.85923,"zip":"07851","miles_from_dt":7.86},{"city":"Johnsonburg","state_name":"New Jersey","lat":40.96694,"lng":-74.87671,"zip":"07846","miles_from_dt":8.67},{"city":"Tranquility","state_name":"New Jersey","lat":40.95713,"lng":-74.8072,"zip":"07879","miles_from_dt":9.05},{"city":"Andover","state_name":"New Jersey","lat":40.96461,"lng":-74.74807,"zip":"07821","miles_from_dt":9.46},{"city":"Bushkill","state_name":"Pennsylvania","lat":41.14712,"lng":-75.0001,"zip":"18324","miles_from_dt":9.84},{"city":"Blairstown","state_name":"New Jersey","lat":40.98308,"lng":-74.9623,"zip":"07825","miles_from_dt":10.01},{"city":"Allamuchy","state_name":"New Jersey","lat":40.93104,"lng":-74.80424,"zip":"07820","miles_from_dt":10.86},{"city":"Sparta","state_name":"New Jersey","lat":41.04666,"lng":-74.62793,"zip":"07871","miles_from_dt":10.87},{"city":"Tamiment","state_name":"Pennsylvania","lat":41.15837,"lng":-75.03658,"zip":"18371","miles_from_dt":11.89},{"city":"Ogdensburg","state_name":"New Jersey","lat":41.0769,"lng":-74.59734,"zip":"07439","miles_from_dt":12.12},{"city":"Stanhope","state_name":"New Jersey","lat":40.9285,"lng":-74.70994,"zip":"07874","miles_from_dt":12.6},{"city":"Franklin","state_name":"New Jersey","lat":41.10892,"lng":-74.58891,"zip":"07416","miles_from_dt":12.62},{"city":"Glasser","state_name":"New Jersey","lat":40.97232,"lng":-74.63688,"zip":"07837","miles_from_dt":12.79},{"city":"Dingmans Ferry","state_name":"Pennsylvania","lat":41.22531,"lng":-75.00633,"zip":"18328","miles_from_dt":13.28},{"city":"Hopatcong","state_name":"New Jersey","lat":40.93989,"lng":-74.65928,"zip":"07843","miles_from_dt":13.49},{"city":"Lake Hopatcong","state_name":"New Jersey","lat":40.96861,"lng":-74.61066,"zip":"07849","miles_from_dt":14.04},{"city":"Hamburg","state_name":"New Jersey","lat":41.15394,"lng":-74.57106,"zip":"07419","miles_from_dt":14.23},{"city":"Great Meadows","state_name":"New Jersey","lat":40.88925,"lng":-74.91042,"zip":"07838","miles_from_dt":14.31},{"city":"Hope","state_name":"New Jersey","lat":40.90861,"lng":-74.96961,"zip":"07844","miles_from_dt":14.35},{"city":"Marshalls Creek","state_name":"Pennsylvania","lat":41.06413,"lng":-75.10455,"zip":"18335","miles_from_dt":14.48},{"city":"Budd Lake","state_name":"New Jersey","lat":40.88559,"lng":-74.75237,"zip":"07828","miles_from_dt":14.48},{"city":"Montague","state_name":"New Jersey","lat":41.28918,"lng":-74.74351,"zip":"07827","miles_from_dt":14.63},{"city":"Netcong","state_name":"New Jersey","lat":40.89733,"lng":-74.69998,"zip":"07857","miles_from_dt":14.74},{"city":"Vienna","state_name":"New Jersey","lat":40.874,"lng":-74.88503,"zip":"07880","miles_from_dt":15},{"city":"East Stroudsburg","state_name":"Pennsylvania","lat":41.09243,"lng":-75.11783,"zip":"18302","miles_from_dt":15.08},{"city":"Landing","state_name":"New Jersey","lat":40.90716,"lng":-74.66158,"zip":"07850","miles_from_dt":15.2},{"city":"Mount Arlington","state_name":"New Jersey","lat":40.9189,"lng":-74.6336,"zip":"07856","miles_from_dt":15.47},{"city":"Shawnee On Delaware","state_name":"Pennsylvania","lat":41.01574,"lng":-75.11192,"zip":"18356","miles_from_dt":15.58},{"city":"Columbia","state_name":"New Jersey","lat":40.94755,"lng":-75.06385,"zip":"07832","miles_from_dt":15.61},{"city":"Hackettstown","state_name":"New Jersey","lat":40.86034,"lng":-74.83192,"zip":"07840","miles_from_dt":15.66},{"city":"Sussex","state_name":"New Jersey","lat":41.24213,"lng":-74.60648,"zip":"07461","miles_from_dt":15.78},{"city":"McAfee","state_name":"New Jersey","lat":41.18538,"lng":-74.55155,"zip":"07428","miles_from_dt":15.98},{"city":"Ledgewood","state_name":"New Jersey","lat":40.88374,"lng":-74.66531,"zip":"07852","miles_from_dt":16.45},{"city":"Oak Ridge","state_name":"New Jersey","lat":41.0287,"lng":-74.52038,"zip":"07438","miles_from_dt":16.62},{"city":"Wharton","state_name":"New Jersey","lat":40.93172,"lng":-74.57688,"zip":"07885","miles_from_dt":17},{"city":"Minisink Hills","state_name":"Pennsylvania","lat":41,"lng":-75.13618,"zip":"18341","miles_from_dt":17.14},{"city":"Milford","state_name":"Pennsylvania","lat":41.33406,"lng":-74.87342,"zip":"18337","miles_from_dt":17.19},{"city":"Picatinny Arsenal","state_name":"New Jersey","lat":40.93939,"lng":-74.55845,"zip":"07806","miles_from_dt":17.44},{"city":"Kenvil","state_name":"New Jersey","lat":40.8856,"lng":-74.6237,"zip":"07847","miles_from_dt":17.57},{"city":"Stockholm","state_name":"New Jersey","lat":41.11341,"lng":-74.49006,"zip":"07460","miles_from_dt":17.78},{"city":"Flanders","state_name":"New Jersey","lat":40.84767,"lng":-74.70163,"zip":"07836","miles_from_dt":17.82},{"city":"Delaware Water Gap","state_name":"Pennsylvania","lat":40.98341,"lng":-75.14665,"zip":"18327","miles_from_dt":18.08},{"city":"Portland","state_name":"Pennsylvania","lat":40.92321,"lng":-75.10063,"zip":"18351","miles_from_dt":18.16},{"city":"Dover","state_name":"New Jersey","lat":40.93167,"lng":-74.54643,"zip":"07801","miles_from_dt":18.26},{"city":"Delaware","state_name":"New Jersey","lat":40.89422,"lng":-75.06979,"zip":"07833","miles_from_dt":18.33},{"city":"Succasunna","state_name":"New Jersey","lat":40.85302,"lng":-74.65627,"zip":"07876","miles_from_dt":18.52},{"city":"Mine Hill","state_name":"New Jersey","lat":40.87819,"lng":-74.60003,"zip":"07803","miles_from_dt":18.75},{"city":"East Stroudsburg","state_name":"Pennsylvania","lat":41.03141,"lng":-75.18316,"zip":"18301","miles_from_dt":18.9},{"city":"Vernon","state_name":"New Jersey","lat":41.19873,"lng":-74.48911,"zip":"07462","miles_from_dt":19.33},{"city":"Schooleys Mountain","state_name":"New Jersey","lat":40.80535,"lng":-74.82303,"zip":"07870","miles_from_dt":19.45},{"city":"Hibernia","state_name":"New Jersey","lat":40.94477,"lng":-74.50065,"zip":"07842","miles_from_dt":19.78},{"city":"Mount Bethel","state_name":"Pennsylvania","lat":40.89043,"lng":-75.1058,"zip":"18343","miles_from_dt":19.85},{"city":"Oxford","state_name":"New Jersey","lat":40.81515,"lng":-74.96562,"zip":"07863","miles_from_dt":20.09},{"city":"Rockaway","state_name":"New Jersey","lat":40.9531,"lng":-74.48639,"zip":"07866","miles_from_dt":20.16},{"city":"Unionville","state_name":"New York","lat":41.30133,"lng":-74.56218,"zip":"10988","miles_from_dt":20.29},{"city":"Newfoundland","state_name":"New Jersey","lat":41.0425,"lng":-74.44159,"zip":"07435","miles_from_dt":20.47},{"city":"Matamoras","state_name":"Pennsylvania","lat":41.37566,"lng":-74.73674,"zip":"18336","miles_from_dt":20.48},{"city":"Analomink","state_name":"Pennsylvania","lat":41.05183,"lng":-75.21989,"zip":"18320","miles_from_dt":20.56},{"city":"Ironia","state_name":"New Jersey","lat":40.83013,"lng":-74.62683,"zip":"07845","miles_from_dt":20.65},{"city":"Glenwood","state_name":"New Jersey","lat":41.2387,"lng":-74.4873,"zip":"07418","miles_from_dt":20.66},{"city":"Long Valley","state_name":"New Jersey","lat":40.78785,"lng":-74.78315,"zip":"07853","miles_from_dt":20.8},{"city":"Dover","state_name":"New Jersey","lat":40.85424,"lng":-74.57469,"zip":"07802","miles_from_dt":20.87},{"city":"Port Murray","state_name":"New Jersey","lat":40.78722,"lng":-74.89845,"zip":"07865","miles_from_dt":21.02},{"city":"Belvidere","state_name":"New Jersey","lat":40.82589,"lng":-75.03781,"zip":"07823","miles_from_dt":21.08},{"city":"Randolph","state_name":"New Jersey","lat":40.84528,"lng":-74.5807,"zip":"07869","miles_from_dt":21.15},{"city":"Highland Lakes","state_name":"New Jersey","lat":41.17984,"lng":-74.44177,"zip":"07422","miles_from_dt":21.19},{"city":"Chester","state_name":"New Jersey","lat":40.78222,"lng":-74.68642,"zip":"07930","miles_from_dt":22.33},{"city":"Port Jervis","state_name":"New York","lat":41.37394,"lng":-74.62429,"zip":"12771","miles_from_dt":22.48},{"city":"Henryville","state_name":"Pennsylvania","lat":41.0922,"lng":-75.25968,"zip":"18332","miles_from_dt":22.49},{"city":"Cresco","state_name":"Pennsylvania","lat":41.15617,"lng":-75.25186,"zip":"18326","miles_from_dt":22.57},{"city":"Denville","state_name":"New Jersey","lat":40.88752,"lng":-74.48689,"zip":"07834","miles_from_dt":22.58},{"city":"Skytop","state_name":"Pennsylvania","lat":41.22956,"lng":-75.2191,"zip":"18357","miles_from_dt":22.59},{"city":"Westtown","state_name":"New York","lat":41.33118,"lng":-74.53989,"zip":"10998","miles_from_dt":22.59},{"city":"Canadensis","state_name":"Pennsylvania","lat":41.22545,"lng":-75.22268,"zip":"18325","miles_from_dt":22.64},{"city":"Pine Island","state_name":"New York","lat":41.292,"lng":-74.48879,"zip":"10969","miles_from_dt":22.68},{"city":"Shohola","state_name":"Pennsylvania","lat":41.40916,"lng":-74.91757,"zip":"18458","miles_from_dt":22.69},{"city":"Millrift","state_name":"Pennsylvania","lat":41.42027,"lng":-74.77503,"zip":"18340","miles_from_dt":23.15},{"city":"Mount Freedom","state_name":"New Jersey","lat":40.80831,"lng":-74.5727,"zip":"07970","miles_from_dt":23.46},{"city":"West Milford","state_name":"New Jersey","lat":41.08713,"lng":-74.3779,"zip":"07480","miles_from_dt":23.55},{"city":"Mount Tabor","state_name":"New Jersey","lat":40.87152,"lng":-74.47826,"zip":"07878","miles_from_dt":23.62},{"city":"New Milford","state_name":"New York","lat":41.23454,"lng":-74.41307,"zip":"10959","miles_from_dt":23.96},{"city":"Bangor","state_name":"Pennsylvania","lat":40.85511,"lng":-75.17114,"zip":"18013","miles_from_dt":24.02},{"city":"Brookside","state_name":"New Jersey","lat":40.80029,"lng":-74.56879,"zip":"07926","miles_from_dt":24.03},{"city":"Boonton","state_name":"New Jersey","lat":40.92738,"lng":-74.41706,"zip":"07005","miles_from_dt":24.19},{"city":"Reeders","state_name":"Pennsylvania","lat":40.9897,"lng":-75.27501,"zip":"18352","miles_from_dt":24.26},{"city":"Buck Hill Falls","state_name":"Pennsylvania","lat":41.19558,"lng":-75.27264,"zip":"18323","miles_from_dt":24.32},{"city":"Butler","state_name":"New Jersey","lat":40.98646,"lng":-74.38302,"zip":"07405","miles_from_dt":24.32},{"city":"Mendham","state_name":"New Jersey","lat":40.78065,"lng":-74.59928,"zip":"07945","miles_from_dt":24.33},{"city":"Mountain Lakes","state_name":"New Jersey","lat":40.89067,"lng":-74.44072,"zip":"07046","miles_from_dt":24.42},{"city":"Bartonsville","state_name":"Pennsylvania","lat":41.01734,"lng":-75.28754,"zip":"18321","miles_from_dt":24.43},{"city":"Morris Plains","state_name":"New Jersey","lat":40.84569,"lng":-74.48271,"zip":"07950","miles_from_dt":24.61},{"city":"Changewater","state_name":"New Jersey","lat":40.73909,"lng":-74.94678,"zip":"07831","miles_from_dt":24.8},{"city":"Pond Eddy","state_name":"New York","lat":41.44681,"lng":-74.85028,"zip":"12770","miles_from_dt":24.84},{"city":"Washington","state_name":"New Jersey","lat":40.75327,"lng":-75.00748,"zip":"07882","miles_from_dt":24.87},{"city":"Stroudsburg","state_name":"Pennsylvania","lat":40.97254,"lng":-75.28562,"zip":"18360","miles_from_dt":25.14},{"city":"Greeley","state_name":"Pennsylvania","lat":41.42263,"lng":-75.02206,"zip":"18425","miles_from_dt":25.23},{"city":"Hewitt","state_name":"New Jersey","lat":41.1624,"lng":-74.35586,"zip":"07421","miles_from_dt":25.23},{"city":"Califon","state_name":"New Jersey","lat":40.72099,"lng":-74.80033,"zip":"07830","miles_from_dt":25.32},{"city":"Sparrow Bush","state_name":"New York","lat":41.44514,"lng":-74.71989,"zip":"12780","miles_from_dt":25.34},{"city":"Johnson","state_name":"New York","lat":41.36527,"lng":-74.51106,"zip":"10933","miles_from_dt":25.35},{"city":"Mountainhome","state_name":"Pennsylvania","lat":41.17045,"lng":-75.30485,"zip":"18342","miles_from_dt":25.48},{"city":"Glen Gardner","state_name":"New Jersey","lat":40.71912,"lng":-74.90527,"zip":"08826","miles_from_dt":25.71},{"city":"Morristown","state_name":"New Jersey","lat":40.8064,"lng":-74.50061,"zip":"07962","miles_from_dt":25.9},{"city":"Tannersville","state_name":"Pennsylvania","lat":41.04777,"lng":-75.32512,"zip":"18372","miles_from_dt":26.05},{"city":"Bloomingdale","state_name":"New Jersey","lat":41.02059,"lng":-74.33239,"zip":"07403","miles_from_dt":26.35},{"city":"Pottersville","state_name":"New Jersey","lat":40.71225,"lng":-74.72581,"zip":"07979","miles_from_dt":26.43},{"city":"Gladstone","state_name":"New Jersey","lat":40.72044,"lng":-74.68159,"zip":"07934","miles_from_dt":26.46},{"city":"Swiftwater","state_name":"Pennsylvania","lat":41.08926,"lng":-75.33771,"zip":"18370","miles_from_dt":26.56},{"city":"Huguenot","state_name":"New York","lat":41.44929,"lng":-74.65582,"zip":"12746","miles_from_dt":26.56},{"city":"Cedar Knolls","state_name":"New Jersey","lat":40.82085,"lng":-74.45479,"zip":"07927","miles_from_dt":26.85},{"city":"Greentown","state_name":"Pennsylvania","lat":41.32774,"lng":-75.23577,"zip":"18426","miles_from_dt":26.92},{"city":"Mount Pocono","state_name":"Pennsylvania","lat":41.11735,"lng":-75.34442,"zip":"18344","miles_from_dt":26.98},{"city":"Warwick","state_name":"New York","lat":41.2651,"lng":-74.3663,"zip":"10990","miles_from_dt":27.07},{"city":"Morristown","state_name":"New Jersey","lat":40.78452,"lng":-74.49813,"zip":"07960","miles_from_dt":27.13},{"city":"Montville","state_name":"New Jersey","lat":40.90736,"lng":-74.3671,"zip":"07045","miles_from_dt":27.15},{"city":"Morristown","state_name":"New Jersey","lat":40.79547,"lng":-74.47775,"zip":"07963","miles_from_dt":27.26},{"city":"Whippany","state_name":"New Jersey","lat":40.8214,"lng":-74.43954,"zip":"07999","miles_from_dt":27.42},{"city":"Sterling Forest","state_name":"New York","lat":41.18237,"lng":-74.31877,"zip":"10979","miles_from_dt":27.42},{"city":"Parsippany","state_name":"New Jersey","lat":40.85527,"lng":-74.40239,"zip":"07054","miles_from_dt":27.46},{"city":"Broadway","state_name":"New Jersey","lat":40.72559,"lng":-75.04837,"zip":"08808","miles_from_dt":27.47},{"city":"Scotrun","state_name":"Pennsylvania","lat":41.07301,"lng":-75.35553,"zip":"18355","miles_from_dt":27.51},{"city":"Lake Hiawatha","state_name":"New Jersey","lat":40.87953,"lng":-74.37965,"zip":"07034","miles_from_dt":27.52},{"city":"Slate Hill","state_name":"New York","lat":41.38442,"lng":-74.47566,"zip":"10973","miles_from_dt":27.56},{"city":"Towaco","state_name":"New Jersey","lat":40.92643,"lng":-74.34524,"zip":"07082","miles_from_dt":27.62},{"city":"Far Hills","state_name":"New Jersey","lat":40.70791,"lng":-74.65732,"zip":"07931","miles_from_dt":27.68},{"city":"Barryville","state_name":"New York","lat":41.48431,"lng":-74.90543,"zip":"12719","miles_from_dt":27.69},{"city":"Peapack","state_name":"New Jersey","lat":40.70969,"lng":-74.64786,"zip":"07977","miles_from_dt":27.72},{"city":"Riverdale","state_name":"New Jersey","lat":40.99212,"lng":-74.3125,"zip":"07457","miles_from_dt":27.77},{"city":"Haskell","state_name":"New Jersey","lat":41.02926,"lng":-74.30281,"zip":"07420","miles_from_dt":27.77},{"city":"Wanaque","state_name":"New Jersey","lat":41.05015,"lng":-74.29849,"zip":"07465","miles_from_dt":27.82},{"city":"Bernardsville","state_name":"New Jersey","lat":40.727,"lng":-74.58941,"zip":"07924","miles_from_dt":27.84},{"city":"Pen Argyl","state_name":"Pennsylvania","lat":40.84548,"lng":-75.25842,"zip":"18072","miles_from_dt":27.98},{"city":"Martins Creek","state_name":"Pennsylvania","lat":40.78229,"lng":-75.18164,"zip":"18063","miles_from_dt":27.99},{"city":"Whippany","state_name":"New Jersey","lat":40.82375,"lng":-74.42029,"zip":"07981","miles_from_dt":28.07},{"city":"Pocono Manor","state_name":"Pennsylvania","lat":41.0995,"lng":-75.3682,"zip":"18349","miles_from_dt":28.16},{"city":"Hawley","state_name":"Pennsylvania","lat":41.42946,"lng":-75.1253,"zip":"18428","miles_from_dt":28.21},{"city":"Tafton","state_name":"Pennsylvania","lat":41.40181,"lng":-75.17824,"zip":"18464","miles_from_dt":28.32},{"city":"Sciota","state_name":"Pennsylvania","lat":40.92561,"lng":-75.32831,"zip":"18354","miles_from_dt":28.38},{"city":"Pompton Plains","state_name":"New Jersey","lat":40.96782,"lng":-74.30724,"zip":"07444","miles_from_dt":28.48},{"city":"Oldwick","state_name":"New Jersey","lat":40.67903,"lng":-74.73748,"zip":"08858","miles_from_dt":28.57},{"city":"Rowland","state_name":"Pennsylvania","lat":41.4696,"lng":-75.05084,"zip":"18457","miles_from_dt":28.8},{"city":"New Hampton","state_name":"New York","lat":41.3764,"lng":-74.42881,"zip":"10958","miles_from_dt":28.86},{"city":"Glen Spey","state_name":"New York","lat":41.50529,"lng":-74.79941,"zip":"12737","miles_from_dt":28.89},{"city":"Greenwood Lake","state_name":"New York","lat":41.20076,"lng":-74.29535,"zip":"10925","miles_from_dt":28.92},{"city":"Ringwood","state_name":"New Jersey","lat":41.10647,"lng":-74.27487,"zip":"07456","miles_from_dt":28.96},{"city":"Pompton Lakes","state_name":"New Jersey","lat":41.0024,"lng":-74.28589,"zip":"07442","miles_from_dt":28.97},{"city":"High Bridge","state_name":"New Jersey","lat":40.66828,"lng":-74.89414,"zip":"08829","miles_from_dt":29.11},{"city":"Florida","state_name":"New York","lat":41.3292,"lng":-74.3651,"zip":"10921","miles_from_dt":29.38},{"city":"Lackawaxen","state_name":"Pennsylvania","lat":41.49221,"lng":-75.00661,"zip":"18435","miles_from_dt":29.44},{"city":"Convent Station","state_name":"New Jersey","lat":40.78105,"lng":-74.43517,"zip":"07961","miles_from_dt":29.52},{"city":"Bellvale","state_name":"New York","lat":41.24733,"lng":-74.30386,"zip":"10912","miles_from_dt":29.53},{"city":"Pequannock","state_name":"New Jersey","lat":40.94668,"lng":-74.29421,"zip":"07440","miles_from_dt":29.59},{"city":"Lincoln Park","state_name":"New Jersey","lat":40.925,"lng":-74.30462,"zip":"07035","miles_from_dt":29.61},{"city":"Paupack","state_name":"Pennsylvania","lat":41.39849,"lng":-75.22023,"zip":"18451","miles_from_dt":29.61},{"city":"Tobyhanna","state_name":"Pennsylvania","lat":41.19709,"lng":-75.37796,"zip":"18466","miles_from_dt":29.62},{"city":"Pine Brook","state_name":"New Jersey","lat":40.86701,"lng":-74.34283,"zip":"07058","miles_from_dt":29.62},{"city":"South Sterling","state_name":"Pennsylvania","lat":41.26719,"lng":-75.34744,"zip":"18460","miles_from_dt":29.75},{"city":"Hampton","state_name":"New Jersey","lat":40.66775,"lng":-74.97351,"zip":"08827","miles_from_dt":29.92}],"targetCityZipCode":"07877","targetCityState":"New Jersey"},"__N_SSG":true}