{"pageProps":{"stateName":"Virginia","cityName":"duffield","nearbyCities":[{"city":"Dryden","state_name":"Virginia","lat":36.78174,"lng":-82.92083,"zip":"24243","miles_from_dt":8.4},{"city":"Big Stone Gap","state_name":"Virginia","lat":36.84831,"lng":-82.74645,"zip":"24219","miles_from_dt":9.9},{"city":"East Stone Gap","state_name":"Virginia","lat":36.86609,"lng":-82.74395,"zip":"24246","miles_from_dt":11.12},{"city":"Gate City","state_name":"Virginia","lat":36.65807,"lng":-82.60582,"zip":"24251","miles_from_dt":11.27},{"city":"Keokee","state_name":"Virginia","lat":36.83811,"lng":-82.93904,"zip":"24265","miles_from_dt":11.77},{"city":"Blackwater","state_name":"Virginia","lat":36.63398,"lng":-82.9943,"zip":"24221","miles_from_dt":12.13},{"city":"Fort Blackmore","state_name":"Virginia","lat":36.75752,"lng":-82.58705,"zip":"24250","miles_from_dt":12.14},{"city":"Mount Carmel","state_name":"Tennessee","lat":36.56275,"lng":-82.66243,"zip":"37645","miles_from_dt":12.68},{"city":"Church Hill","state_name":"Tennessee","lat":36.53261,"lng":-82.7267,"zip":"37642","miles_from_dt":12.9},{"city":"Surgoinsville","state_name":"Tennessee","lat":36.52446,"lng":-82.84754,"zip":"37873","miles_from_dt":13.14},{"city":"Pennington Gap","state_name":"Virginia","lat":36.74948,"lng":-83.03037,"zip":"24277","miles_from_dt":13.18},{"city":"Ben Hur","state_name":"Virginia","lat":36.75338,"lng":-83.03614,"zip":"24218","miles_from_dt":13.55},{"city":"Holmes Mill","state_name":"Kentucky","lat":36.88826,"lng":-82.93666,"zip":"40843","miles_from_dt":14.46},{"city":"Weber City","state_name":"Virginia","lat":36.61186,"lng":-82.56688,"zip":"24290","miles_from_dt":14.53},{"city":"Kingsport","state_name":"Tennessee","lat":36.57951,"lng":-82.57304,"zip":"37665","miles_from_dt":15.43},{"city":"Appalachia","state_name":"Virginia","lat":36.94237,"lng":-82.79571,"zip":"24216","miles_from_dt":15.97},{"city":"Saint Charles","state_name":"Virginia","lat":36.82159,"lng":-83.05533,"zip":"24282","miles_from_dt":16.2},{"city":"Eidson","state_name":"Tennessee","lat":36.54383,"lng":-83.00873,"zip":"37731","miles_from_dt":16.43},{"city":"Kingsport","state_name":"Tennessee","lat":36.54645,"lng":-82.56383,"zip":"37662","miles_from_dt":17.25},{"city":"Lynch","state_name":"Kentucky","lat":36.94931,"lng":-82.89836,"zip":"40855","miles_from_dt":17.37},{"city":"Kyles Ford","state_name":"Tennessee","lat":36.57219,"lng":-83.06534,"zip":"37765","miles_from_dt":17.67},{"city":"Kingsport","state_name":"Tennessee","lat":36.52938,"lng":-82.57339,"zip":"37660","miles_from_dt":17.67},{"city":"Dungannon","state_name":"Virginia","lat":36.84045,"lng":-82.51598,"zip":"24245","miles_from_dt":18.01},{"city":"Closplint","state_name":"Kentucky","lat":36.89081,"lng":-83.03445,"zip":"40927","miles_from_dt":18.06},{"city":"Kingsport","state_name":"Tennessee","lat":36.52912,"lng":-82.55612,"zip":"37669","miles_from_dt":18.37},{"city":"Norton","state_name":"Virginia","lat":36.96142,"lng":-82.65632,"zip":"24273","miles_from_dt":18.98},{"city":"Benham","state_name":"Kentucky","lat":36.9647,"lng":-82.95578,"zip":"40807","miles_from_dt":19.58},{"city":"Jonesville","state_name":"Virginia","lat":36.67164,"lng":-83.15079,"zip":"24263","miles_from_dt":19.78},{"city":"Cumberland","state_name":"Kentucky","lat":36.95664,"lng":-82.98864,"zip":"40823","miles_from_dt":19.98},{"city":"Cranks","state_name":"Kentucky","lat":36.77552,"lng":-83.16515,"zip":"40820","miles_from_dt":20.87},{"city":"Kingsport","state_name":"Tennessee","lat":36.51163,"lng":-82.50729,"zip":"37664","miles_from_dt":21.2},{"city":"Nickelsville","state_name":"Virginia","lat":36.74712,"lng":-82.41714,"zip":"24271","miles_from_dt":21.28},{"city":"Partridge","state_name":"Kentucky","lat":37.01418,"lng":-82.87096,"zip":"40862","miles_from_dt":21.31},{"city":"Rogersville","state_name":"Tennessee","lat":36.42145,"lng":-82.94269,"zip":"37857","miles_from_dt":21.51},{"city":"Hiltons","state_name":"Virginia","lat":36.6517,"lng":-82.41199,"zip":"24258","miles_from_dt":21.81},{"city":"Kenvir","state_name":"Kentucky","lat":36.85281,"lng":-83.15798,"zip":"40847","miles_from_dt":22.25},{"city":"Evarts","state_name":"Kentucky","lat":36.87107,"lng":-83.14868,"zip":"40828","miles_from_dt":22.38},{"city":"Lejunior","state_name":"Kentucky","lat":36.89941,"lng":-83.13469,"zip":"40849","miles_from_dt":22.76},{"city":"Fall Branch","state_name":"Tennessee","lat":36.39997,"lng":-82.63075,"zip":"37656","miles_from_dt":23.36},{"city":"Eolia","state_name":"Kentucky","lat":37.05637,"lng":-82.7783,"zip":"40826","miles_from_dt":23.86},{"city":"Linefork","state_name":"Kentucky","lat":37.02919,"lng":-82.97323,"zip":"41833","miles_from_dt":24.01},{"city":"Wise","state_name":"Virginia","lat":37.00559,"lng":-82.56458,"zip":"24293","miles_from_dt":24.09},{"city":"Kingsport","state_name":"Tennessee","lat":36.46466,"lng":-82.48525,"zip":"37663","miles_from_dt":24.29},{"city":"Andover","state_name":"Virginia","lat":36.99383,"lng":-82.53593,"zip":"24215","miles_from_dt":24.33},{"city":"Cawood","state_name":"Kentucky","lat":36.7876,"lng":-83.22876,"zip":"40815","miles_from_dt":24.49},{"city":"Totz","state_name":"Kentucky","lat":36.93211,"lng":-83.14858,"zip":"40870","miles_from_dt":24.72},{"city":"Gordon","state_name":"Kentucky","lat":36.99191,"lng":-83.07788,"zip":"41819","miles_from_dt":24.83},{"city":"Coalgood","state_name":"Kentucky","lat":36.82003,"lng":-83.2442,"zip":"40818","miles_from_dt":25.88},{"city":"Coeburn","state_name":"Virginia","lat":36.96928,"lng":-82.45449,"zip":"24230","miles_from_dt":26.08},{"city":"Blountville","state_name":"Tennessee","lat":36.53155,"lng":-82.37248,"zip":"37617","miles_from_dt":26.68},{"city":"Delphia","state_name":"Kentucky","lat":37.01793,"lng":-83.09963,"zip":"41735","miles_from_dt":26.99},{"city":"Putney","state_name":"Kentucky","lat":36.91637,"lng":-83.21804,"zip":"40865","miles_from_dt":27.27},{"city":"Ages Brookside","state_name":"Kentucky","lat":36.85692,"lng":-83.25493,"zip":"40801","miles_from_dt":27.28},{"city":"Hallie","state_name":"Kentucky","lat":37.07563,"lng":-83.00711,"zip":"41821","miles_from_dt":27.7},{"city":"Sneedville","state_name":"Tennessee","lat":36.51555,"lng":-83.24579,"zip":"37869","miles_from_dt":28.31},{"city":"Grays Knob","state_name":"Kentucky","lat":36.798,"lng":-83.29655,"zip":"40829","miles_from_dt":28.32},{"city":"Mayking","state_name":"Kentucky","lat":37.1215,"lng":-82.75231,"zip":"41837","miles_from_dt":28.44},{"city":"Pound","state_name":"Virginia","lat":37.10383,"lng":-82.61909,"zip":"24279","miles_from_dt":28.86},{"city":"Johnson City","state_name":"Tennessee","lat":36.39771,"lng":-82.45246,"zip":"37615","miles_from_dt":28.9},{"city":"Roxana","state_name":"Kentucky","lat":37.11491,"lng":-82.94384,"zip":"41848","miles_from_dt":29.02},{"city":"Saint Paul","state_name":"Virginia","lat":36.94155,"lng":-82.34554,"zip":"24283","miles_from_dt":29.7},{"city":"Slemp","state_name":"Kentucky","lat":37.05439,"lng":-83.12157,"zip":"41763","miles_from_dt":29.72},{"city":"Baxter","state_name":"Kentucky","lat":36.88595,"lng":-83.2881,"zip":"40806","miles_from_dt":29.75},{"city":"Rose Hill","state_name":"Virginia","lat":36.65051,"lng":-83.3295,"zip":"24281","miles_from_dt":29.82},{"city":"Greeneville","state_name":"Tennessee","lat":36.2784,"lng":-82.82631,"zip":"37745","miles_from_dt":29.85},{"city":"Gulston","state_name":"Kentucky","lat":36.77644,"lng":-83.33114,"zip":"40830","miles_from_dt":29.94}],"targetCityZipCode":"24244","targetCityState":"Virginia"},"__N_SSG":true}