{"pageProps":{"stateName":"Virginia","cityName":"freeman","nearbyCities":[{"city":"Dolphin","state_name":"Virginia","lat":36.84988,"lng":-77.8109,"zip":"23843","miles_from_dt":7.38},{"city":"Lawrenceville","state_name":"Virginia","lat":36.70991,"lng":-77.8038,"zip":"23868","miles_from_dt":7.74},{"city":"Warfield","state_name":"Virginia","lat":36.8972,"lng":-77.74395,"zip":"23889","miles_from_dt":7.91},{"city":"Jarratt","state_name":"Virginia","lat":36.75241,"lng":-77.50016,"zip":"23870","miles_from_dt":11.5},{"city":"Emporia","state_name":"Virginia","lat":36.668,"lng":-77.54972,"zip":"23847","miles_from_dt":11.83},{"city":"Jarratt","state_name":"Virginia","lat":36.82063,"lng":-77.4878,"zip":"23867","miles_from_dt":12.15},{"city":"Alberta","state_name":"Virginia","lat":36.876,"lng":-77.91794,"zip":"23821","miles_from_dt":13.4},{"city":"McKenney","state_name":"Virginia","lat":36.98351,"lng":-77.72629,"zip":"23872","miles_from_dt":13.59},{"city":"Rawlings","state_name":"Virginia","lat":36.95635,"lng":-77.83343,"zip":"23876","miles_from_dt":13.71},{"city":"Meredithville","state_name":"Virginia","lat":36.80534,"lng":-77.9571,"zip":"23873","miles_from_dt":14.15},{"city":"Skippers","state_name":"Virginia","lat":36.59224,"lng":-77.59547,"zip":"23879","miles_from_dt":14.72},{"city":"Brodnax","state_name":"Virginia","lat":36.72452,"lng":-77.97266,"zip":"23920","miles_from_dt":15.58},{"city":"Valentines","state_name":"Virginia","lat":36.56762,"lng":-77.81658,"zip":"23887","miles_from_dt":16.41},{"city":"White Plains","state_name":"Virginia","lat":36.6244,"lng":-77.93658,"zip":"23893","miles_from_dt":17.16},{"city":"Gasburg","state_name":"Virginia","lat":36.58389,"lng":-77.88588,"zip":"23857","miles_from_dt":17.32},{"city":"Stony Creek","state_name":"Virginia","lat":36.92591,"lng":-77.41543,"zip":"23882","miles_from_dt":18.58},{"city":"Dundas","state_name":"Virginia","lat":36.90541,"lng":-78.00464,"zip":"23938","miles_from_dt":18.6},{"city":"Dewitt","state_name":"Virginia","lat":37.05638,"lng":-77.67076,"zip":"23840","miles_from_dt":18.64},{"city":"Gaston","state_name":"North Carolina","lat":36.51262,"lng":-77.72178,"zip":"27832","miles_from_dt":18.97},{"city":"Henrico","state_name":"North Carolina","lat":36.52458,"lng":-77.85593,"zip":"27842","miles_from_dt":20.01},{"city":"Dinwiddie","state_name":"Virginia","lat":37.05421,"lng":-77.55305,"zip":"23841","miles_from_dt":20.19},{"city":"Pleasant Hill","state_name":"North Carolina","lat":36.51832,"lng":-77.51577,"zip":"27866","miles_from_dt":21.27},{"city":"Drewryville","state_name":"Virginia","lat":36.67032,"lng":-77.3358,"zip":"23844","miles_from_dt":21.92},{"city":"Ebony","state_name":"Virginia","lat":36.57048,"lng":-77.99322,"zip":"23845","miles_from_dt":21.99},{"city":"La Crosse","state_name":"Virginia","lat":36.66005,"lng":-78.07699,"zip":"23950","miles_from_dt":22.54},{"city":"Carson","state_name":"Virginia","lat":37.02098,"lng":-77.39771,"zip":"23830","miles_from_dt":23.35},{"city":"Yale","state_name":"Virginia","lat":36.83399,"lng":-77.28234,"zip":"23897","miles_from_dt":23.54},{"city":"Garysburg","state_name":"North Carolina","lat":36.45614,"lng":-77.56574,"zip":"27831","miles_from_dt":24.08},{"city":"Roanoke Rapids","state_name":"North Carolina","lat":36.43053,"lng":-77.71828,"zip":"27870","miles_from_dt":24.62},{"city":"Blackstone","state_name":"Virginia","lat":37.08767,"lng":-77.95749,"zip":"23824","miles_from_dt":25.05},{"city":"Sussex","state_name":"Virginia","lat":36.91733,"lng":-77.28011,"zip":"23884","miles_from_dt":25.09},{"city":"Wilsons","state_name":"Virginia","lat":37.13867,"lng":-77.82404,"zip":"23894","miles_from_dt":25.14},{"city":"Kenbridge","state_name":"Virginia","lat":36.9056,"lng":-78.13319,"zip":"23944","miles_from_dt":25.2},{"city":"Ford","state_name":"Virginia","lat":37.16276,"lng":-77.7434,"zip":"23850","miles_from_dt":25.98},{"city":"Weldon","state_name":"North Carolina","lat":36.41505,"lng":-77.59194,"zip":"27890","miles_from_dt":26.4},{"city":"Ammon","state_name":"Virginia","lat":37.16145,"lng":-77.58517,"zip":"23822","miles_from_dt":26.61},{"city":"Capron","state_name":"Virginia","lat":36.73393,"lng":-77.22525,"zip":"23829","miles_from_dt":26.76},{"city":"South Hill","state_name":"Virginia","lat":36.74818,"lng":-78.18637,"zip":"23970","miles_from_dt":26.96},{"city":"Branchville","state_name":"Virginia","lat":36.58693,"lng":-77.28557,"zip":"23828","miles_from_dt":26.98},{"city":"Seaboard","state_name":"North Carolina","lat":36.48015,"lng":-77.40065,"zip":"27876","miles_from_dt":27.03},{"city":"Bracey","state_name":"Virginia","lat":36.59103,"lng":-78.13305,"zip":"23919","miles_from_dt":27.46},{"city":"Sutherland","state_name":"Virginia","lat":37.18521,"lng":-77.57834,"zip":"23885","miles_from_dt":28.29},{"city":"Littleton","state_name":"North Carolina","lat":36.40202,"lng":-77.88141,"zip":"27850","miles_from_dt":28.36},{"city":"Margarettsville","state_name":"North Carolina","lat":36.51716,"lng":-77.30488,"zip":"27853","miles_from_dt":28.92},{"city":"Petersburg","state_name":"Virginia","lat":37.12922,"lng":-77.3953,"zip":"23805","miles_from_dt":29.08},{"city":"Church Road","state_name":"Virginia","lat":37.21094,"lng":-77.66947,"zip":"23833","miles_from_dt":29.27},{"city":"Nottoway","state_name":"Virginia","lat":37.10816,"lng":-78.06556,"zip":"23955","miles_from_dt":29.87},{"city":"Boykins","state_name":"Virginia","lat":36.61491,"lng":-77.20724,"zip":"23827","miles_from_dt":29.98},{"city":"Vaughan","state_name":"North Carolina","lat":36.42679,"lng":-78.00429,"zip":"27586","miles_from_dt":29.98}],"targetCityZipCode":"23856","targetCityState":"Virginia"},"__N_SSG":true}