{"pageProps":{"stateName":"Indiana","cityName":"arlington","nearbyCities":[{"city":"Gwynneville","state_name":"Indiana","lat":39.66586,"lng":-85.64706,"zip":"46144","miles_from_dt":2.78},{"city":"Morristown","state_name":"Indiana","lat":39.66959,"lng":-85.69395,"zip":"46161","miles_from_dt":5.29},{"city":"Carthage","state_name":"Indiana","lat":39.7375,"lng":-85.56623,"zip":"46115","miles_from_dt":5.54},{"city":"Homer","state_name":"Indiana","lat":39.57968,"lng":-85.56972,"zip":"46146","miles_from_dt":5.74},{"city":"Manilla","state_name":"Indiana","lat":39.54695,"lng":-85.60232,"zip":"46150","miles_from_dt":7.84},{"city":"Rushville","state_name":"Indiana","lat":39.60294,"lng":-85.42677,"zip":"46173","miles_from_dt":9.83},{"city":"Mays","state_name":"Indiana","lat":39.74355,"lng":-85.42966,"zip":"46155","miles_from_dt":10.53},{"city":"Charlottesville","state_name":"Indiana","lat":39.81507,"lng":-85.61763,"zip":"46117","miles_from_dt":10.74},{"city":"Knightstown","state_name":"Indiana","lat":39.80906,"lng":-85.51296,"zip":"46148","miles_from_dt":11.16},{"city":"Finly","state_name":"Indiana","lat":39.70578,"lng":-85.82339,"zip":"46129","miles_from_dt":12.55},{"city":"Fountaintown","state_name":"Indiana","lat":39.67464,"lng":-85.83571,"zip":"46130","miles_from_dt":12.85},{"city":"Dunreith","state_name":"Indiana","lat":39.80286,"lng":-85.43736,"zip":"47337","miles_from_dt":12.94},{"city":"Shelbyville","state_name":"Indiana","lat":39.52684,"lng":-85.77297,"zip":"46176","miles_from_dt":13.22},{"city":"Greenfield","state_name":"Indiana","lat":39.80358,"lng":-85.77049,"zip":"46140","miles_from_dt":13.58},{"city":"Milroy","state_name":"Indiana","lat":39.48451,"lng":-85.4806,"zip":"46156","miles_from_dt":13.6},{"city":"Spiceland","state_name":"Indiana","lat":39.83194,"lng":-85.44825,"zip":"47385","miles_from_dt":14.2},{"city":"Waldron","state_name":"Indiana","lat":39.46157,"lng":-85.67005,"zip":"46182","miles_from_dt":14.28},{"city":"Falmouth","state_name":"Indiana","lat":39.71766,"lng":-85.3158,"zip":"46127","miles_from_dt":15.42},{"city":"Lewisville","state_name":"Indiana","lat":39.79597,"lng":-85.3637,"zip":"47352","miles_from_dt":15.49},{"city":"Fairland","state_name":"Indiana","lat":39.62053,"lng":-85.88694,"zip":"46126","miles_from_dt":15.79},{"city":"Wilkinson","state_name":"Indiana","lat":39.89126,"lng":-85.64264,"zip":"46186","miles_from_dt":16.12},{"city":"Maxwell","state_name":"Indiana","lat":39.85639,"lng":-85.77038,"zip":"46154","miles_from_dt":16.42},{"city":"Glenwood","state_name":"Indiana","lat":39.58945,"lng":-85.30044,"zip":"46133","miles_from_dt":16.48},{"city":"Greensboro","state_name":"Indiana","lat":39.87857,"lng":-85.464,"zip":"47344","miles_from_dt":16.6},{"city":"Saint Paul","state_name":"Indiana","lat":39.41519,"lng":-85.61942,"zip":"47272","miles_from_dt":16.97},{"city":"New Palestine","state_name":"Indiana","lat":39.7287,"lng":-85.90435,"zip":"46163","miles_from_dt":17.12},{"city":"Kennard","state_name":"Indiana","lat":39.90442,"lng":-85.52001,"zip":"47351","miles_from_dt":17.31},{"city":"Shirley","state_name":"Indiana","lat":39.91365,"lng":-85.55352,"zip":"47384","miles_from_dt":17.61},{"city":"Boggstown","state_name":"Indiana","lat":39.56021,"lng":-85.91333,"zip":"46110","miles_from_dt":18.32},{"city":"Bentonville","state_name":"Indiana","lat":39.74849,"lng":-85.2418,"zip":"47322","miles_from_dt":19.8},{"city":"Straughn","state_name":"Indiana","lat":39.83677,"lng":-85.2945,"zip":"47387","miles_from_dt":20.12},{"city":"Clarksburg","state_name":"Indiana","lat":39.43554,"lng":-85.34424,"zip":"47225","miles_from_dt":20.51},{"city":"Needham","state_name":"Indiana","lat":39.55021,"lng":-85.95242,"zip":"46162","miles_from_dt":20.51},{"city":"Indianapolis","state_name":"Indiana","lat":39.65078,"lng":-85.98692,"zip":"46259","miles_from_dt":20.89},{"city":"Markleville","state_name":"Indiana","lat":39.97351,"lng":-85.6105,"zip":"46056","miles_from_dt":21.62},{"city":"Flat Rock","state_name":"Indiana","lat":39.37611,"lng":-85.76837,"zip":"47234","miles_from_dt":21.68},{"city":"Indianapolis","state_name":"Indiana","lat":39.72311,"lng":-86.0004,"zip":"46239","miles_from_dt":22.01},{"city":"Indianapolis","state_name":"Indiana","lat":39.78852,"lng":-85.978,"zip":"46229","miles_from_dt":22.21},{"city":"New Castle","state_name":"Indiana","lat":39.93186,"lng":-85.36998,"zip":"47362","miles_from_dt":22.24},{"city":"Fortville","state_name":"Indiana","lat":39.92773,"lng":-85.83424,"zip":"46040","miles_from_dt":22.4},{"city":"New Lisbon","state_name":"Indiana","lat":39.86127,"lng":-85.26068,"zip":"47366","miles_from_dt":22.58},{"city":"Mccordsville","state_name":"Indiana","lat":39.88627,"lng":-85.90404,"zip":"46055","miles_from_dt":22.64},{"city":"Connersville","state_name":"Indiana","lat":39.63086,"lng":-85.16313,"zip":"47331","miles_from_dt":23.15},{"city":"Dublin","state_name":"Indiana","lat":39.81171,"lng":-85.20675,"zip":"47335","miles_from_dt":23.19},{"city":"Ingalls","state_name":"Indiana","lat":39.9543,"lng":-85.80755,"zip":"46048","miles_from_dt":23.21},{"city":"Indianapolis","state_name":"Indiana","lat":39.83784,"lng":-85.97651,"zip":"46235","miles_from_dt":23.7},{"city":"Pendleton","state_name":"Indiana","lat":39.98473,"lng":-85.74701,"zip":"46064","miles_from_dt":23.78},{"city":"Greensburg","state_name":"Indiana","lat":39.32394,"lng":-85.48028,"zip":"47240","miles_from_dt":24.01},{"city":"Laurel","state_name":"Indiana","lat":39.47611,"lng":-85.19724,"zip":"47024","miles_from_dt":24.77},{"city":"Milton","state_name":"Indiana","lat":39.75773,"lng":-85.14795,"zip":"47357","miles_from_dt":24.77},{"city":"Sulphur Springs","state_name":"Indiana","lat":40.0056,"lng":-85.44352,"zip":"47388","miles_from_dt":25.15},{"city":"Indianapolis","state_name":"Indiana","lat":39.78314,"lng":-86.04444,"zip":"46219","miles_from_dt":25.37},{"city":"Cambridge City","state_name":"Indiana","lat":39.8318,"lng":-85.17314,"zip":"47327","miles_from_dt":25.41},{"city":"Indianapolis","state_name":"Indiana","lat":39.89132,"lng":-85.96766,"zip":"46236","miles_from_dt":25.42},{"city":"Indianapolis","state_name":"Indiana","lat":39.67247,"lng":-86.0759,"zip":"46237","miles_from_dt":25.63},{"city":"Indianapolis","state_name":"Indiana","lat":39.862,"lng":-86.00204,"zip":"46249","miles_from_dt":25.73},{"city":"Middletown","state_name":"Indiana","lat":40.03079,"lng":-85.50415,"zip":"47356","miles_from_dt":26.01},{"city":"Indianapolis","state_name":"Indiana","lat":39.86593,"lng":-86.00929,"zip":"46216","miles_from_dt":26.2},{"city":"Mount Summit","state_name":"Indiana","lat":40.00415,"lng":-85.38492,"zip":"47361","miles_from_dt":26.23},{"city":"Whiteland","state_name":"Indiana","lat":39.55967,"lng":-86.07361,"zip":"46184","miles_from_dt":26.45},{"city":"Pershing","state_name":"Indiana","lat":39.81281,"lng":-85.13779,"zip":"47370","miles_from_dt":26.55},{"city":"Hope","state_name":"Indiana","lat":39.29804,"lng":-85.76606,"zip":"47246","miles_from_dt":26.61},{"city":"Beech Grove","state_name":"Indiana","lat":39.71661,"lng":-86.09161,"zip":"46107","miles_from_dt":26.73},{"city":"Oldenburg","state_name":"Indiana","lat":39.38563,"lng":-85.23972,"zip":"47036","miles_from_dt":26.84},{"city":"Franklin","state_name":"Indiana","lat":39.47196,"lng":-86.04233,"zip":"46131","miles_from_dt":27.17},{"city":"Indianapolis","state_name":"Indiana","lat":39.7368,"lng":-86.09586,"zip":"46203","miles_from_dt":27.18},{"city":"Indianapolis","state_name":"Indiana","lat":39.83968,"lng":-86.05117,"zip":"46226","miles_from_dt":27.24},{"city":"Anderson","state_name":"Indiana","lat":40.05021,"lng":-85.67829,"zip":"46013","miles_from_dt":27.25},{"city":"Edinburgh","state_name":"Indiana","lat":39.36914,"lng":-85.94551,"zip":"46124","miles_from_dt":27.45},{"city":"Fishers","state_name":"Indiana","lat":39.96077,"lng":-85.94446,"zip":"46037","miles_from_dt":27.83},{"city":"Indianapolis","state_name":"Indiana","lat":39.90682,"lng":-86.01152,"zip":"46256","miles_from_dt":27.92},{"city":"Greenwood","state_name":"Indiana","lat":39.59484,"lng":-86.11323,"zip":"46143","miles_from_dt":27.99},{"city":"New Point","state_name":"Indiana","lat":39.30864,"lng":-85.32832,"zip":"47263","miles_from_dt":28.16},{"city":"Indianapolis","state_name":"Indiana","lat":39.77369,"lng":-86.10949,"zip":"46201","miles_from_dt":28.48},{"city":"Indianapolis","state_name":"Indiana","lat":39.67554,"lng":-86.12938,"zip":"46247","miles_from_dt":28.49},{"city":"Anderson","state_name":"Indiana","lat":40.07358,"lng":-85.60687,"zip":"46017","miles_from_dt":28.51},{"city":"Indianapolis","state_name":"Indiana","lat":39.67607,"lng":-86.13145,"zip":"46227","miles_from_dt":28.6},{"city":"Indianapolis","state_name":"Indiana","lat":39.77728,"lng":-86.11179,"zip":"46283","miles_from_dt":28.67},{"city":"Indianapolis","state_name":"Indiana","lat":39.80713,"lng":-86.09958,"zip":"46218","miles_from_dt":28.7},{"city":"Springport","state_name":"Indiana","lat":40.05277,"lng":-85.38305,"zip":"47386","miles_from_dt":29.33},{"city":"Metamora","state_name":"Indiana","lat":39.42686,"lng":-85.13319,"zip":"47030","miles_from_dt":29.48},{"city":"Anderson","state_name":"Indiana","lat":40.08703,"lng":-85.67633,"zip":"46014","miles_from_dt":29.75},{"city":"Hagerstown","state_name":"Indiana","lat":39.93442,"lng":-85.16306,"zip":"47346","miles_from_dt":29.78},{"city":"Clifford","state_name":"Indiana","lat":39.28266,"lng":-85.86907,"zip":"47226","miles_from_dt":29.89}],"targetCityZipCode":"46104","targetCityState":"Indiana"},"__N_SSG":true}