{"pageProps":{"stateName":"Indiana","cityName":"liberty-mills","nearbyCities":[{"city":"North Manchester","state_name":"Indiana","lat":40.98774,"lng":-85.76675,"zip":"46962","miles_from_dt":4.04},{"city":"Servia","state_name":"Indiana","lat":40.95598,"lng":-85.74155,"zip":"46980","miles_from_dt":5.78},{"city":"South Whitley","state_name":"Indiana","lat":41.06598,"lng":-85.62085,"zip":"46787","miles_from_dt":6},{"city":"Laketon","state_name":"Indiana","lat":40.9735,"lng":-85.84038,"zip":"46943","miles_from_dt":7.34},{"city":"Silver Lake","state_name":"Indiana","lat":41.05717,"lng":-85.8882,"zip":"46982","miles_from_dt":8.35},{"city":"Bippus","state_name":"Indiana","lat":40.94341,"lng":-85.61975,"zip":"46713","miles_from_dt":8.78},{"city":"Claypool","state_name":"Indiana","lat":41.12068,"lng":-85.874,"zip":"46510","miles_from_dt":9.38},{"city":"Urbana","state_name":"Indiana","lat":40.89851,"lng":-85.73161,"zip":"46990","miles_from_dt":9.72},{"city":"Pierceton","state_name":"Indiana","lat":41.20947,"lng":-85.69757,"zip":"46562","miles_from_dt":11.86},{"city":"Roann","state_name":"Indiana","lat":40.94839,"lng":-85.93041,"zip":"46974","miles_from_dt":12.2},{"city":"Winona Lake","state_name":"Indiana","lat":41.21612,"lng":-85.80862,"zip":"46590","miles_from_dt":12.87},{"city":"Larwill","state_name":"Indiana","lat":41.2176,"lng":-85.62376,"zip":"46764","miles_from_dt":13.5},{"city":"Warsaw","state_name":"Indiana","lat":41.20884,"lng":-85.87212,"zip":"46580","miles_from_dt":13.85},{"city":"Lagro","state_name":"Indiana","lat":40.82833,"lng":-85.69723,"zip":"46941","miles_from_dt":14.66},{"city":"Burket","state_name":"Indiana","lat":41.15499,"lng":-85.96904,"zip":"46508","miles_from_dt":14.8},{"city":"Warsaw","state_name":"Indiana","lat":41.23711,"lng":-85.85823,"zip":"46581","miles_from_dt":15.2},{"city":"Columbia City","state_name":"Indiana","lat":41.1518,"lng":-85.47655,"zip":"46725","miles_from_dt":15.35},{"city":"Andrews","state_name":"Indiana","lat":40.82681,"lng":-85.61732,"zip":"46702","miles_from_dt":15.81},{"city":"Akron","state_name":"Indiana","lat":41.04537,"lng":-86.04151,"zip":"46910","miles_from_dt":16.27},{"city":"Huntington","state_name":"Indiana","lat":40.87677,"lng":-85.49674,"zip":"46750","miles_from_dt":16.58},{"city":"Mentone","state_name":"Indiana","lat":41.16579,"lng":-86.02545,"zip":"46539","miles_from_dt":17.71},{"city":"Warsaw","state_name":"Indiana","lat":41.28323,"lng":-85.85235,"zip":"46582","miles_from_dt":18},{"city":"Wabash","state_name":"Indiana","lat":40.78509,"lng":-85.82961,"zip":"46992","miles_from_dt":18.3},{"city":"Denver","state_name":"Indiana","lat":40.88283,"lng":-86.04945,"zip":"46926","miles_from_dt":19.89},{"city":"Atwood","state_name":"Indiana","lat":41.26099,"lng":-85.97699,"zip":"46502","miles_from_dt":19.99},{"city":"North Webster","state_name":"Indiana","lat":41.32858,"lng":-85.68833,"zip":"46555","miles_from_dt":20.08},{"city":"Roanoke","state_name":"Indiana","lat":40.97399,"lng":-85.35578,"zip":"46783","miles_from_dt":20.08},{"city":"Leesburg","state_name":"Indiana","lat":41.32829,"lng":-85.82703,"zip":"46538","miles_from_dt":20.57},{"city":"Macy","state_name":"Indiana","lat":40.94616,"lng":-86.10528,"zip":"46951","miles_from_dt":20.64},{"city":"Athens","state_name":"Indiana","lat":41.05506,"lng":-86.1254,"zip":"46912","miles_from_dt":20.68},{"city":"Deedsville","state_name":"Indiana","lat":40.91011,"lng":-86.1018,"zip":"46921","miles_from_dt":21.38},{"city":"Fort Wayne","state_name":"Indiana","lat":41.04616,"lng":-85.30805,"zip":"46814","miles_from_dt":22.06},{"city":"Kimmell","state_name":"Indiana","lat":41.34441,"lng":-85.55654,"zip":"46760","miles_from_dt":22.92},{"city":"Arcola","state_name":"Indiana","lat":41.10371,"lng":-85.29242,"zip":"46704","miles_from_dt":23.29},{"city":"Etna Green","state_name":"Indiana","lat":41.2979,"lng":-86.02143,"zip":"46524","miles_from_dt":23.43},{"city":"Tippecanoe","state_name":"Indiana","lat":41.20766,"lng":-86.1207,"zip":"46570","miles_from_dt":23.46},{"city":"Wolflake","state_name":"Indiana","lat":41.3367,"lng":-85.49583,"zip":"46796","miles_from_dt":23.88},{"city":"Cromwell","state_name":"Indiana","lat":41.37697,"lng":-85.62169,"zip":"46732","miles_from_dt":23.98},{"city":"La Fontaine","state_name":"Indiana","lat":40.6882,"lng":-85.69857,"zip":"46940","miles_from_dt":24.29},{"city":"Fort Wayne","state_name":"Indiana","lat":41.19754,"lng":-85.3053,"zip":"46898","miles_from_dt":24.72},{"city":"Zanesville","state_name":"Indiana","lat":40.91592,"lng":-85.27923,"zip":"46799","miles_from_dt":25.07},{"city":"Churubusco","state_name":"Indiana","lat":41.23828,"lng":-85.32441,"zip":"46723","miles_from_dt":25.23},{"city":"Mexico","state_name":"Indiana","lat":40.81817,"lng":-86.12107,"zip":"46958","miles_from_dt":25.52},{"city":"Milford","state_name":"Indiana","lat":41.39303,"lng":-85.87448,"zip":"46542","miles_from_dt":25.54},{"city":"Fort Wayne","state_name":"Indiana","lat":41.05421,"lng":-85.23913,"zip":"46804","miles_from_dt":25.67},{"city":"Syracuse","state_name":"Indiana","lat":41.41473,"lng":-85.73044,"zip":"46567","miles_from_dt":25.91},{"city":"Markle","state_name":"Indiana","lat":40.8298,"lng":-85.31873,"zip":"46770","miles_from_dt":25.94},{"city":"Peru","state_name":"Indiana","lat":40.75827,"lng":-86.0614,"zip":"46970","miles_from_dt":26.02},{"city":"Fort Wayne","state_name":"Indiana","lat":40.99862,"lng":-85.23438,"zip":"46899","miles_from_dt":26.06},{"city":"Fort Wayne","state_name":"Indiana","lat":41.14698,"lng":-85.25111,"zip":"46818","miles_from_dt":26.09},{"city":"Somerset","state_name":"Indiana","lat":40.66777,"lng":-85.82975,"zip":"46984","miles_from_dt":26.16},{"city":"Bourbon","state_name":"Indiana","lat":41.30057,"lng":-86.11204,"zip":"46504","miles_from_dt":26.86},{"city":"Albion","state_name":"Indiana","lat":41.35846,"lng":-85.43034,"zip":"46701","miles_from_dt":27.01},{"city":"Fort Wayne","state_name":"Indiana","lat":41.00088,"lng":-85.2102,"zip":"46809","miles_from_dt":27.31},{"city":"Rochester","state_name":"Indiana","lat":41.0718,"lng":-86.25177,"zip":"46975","miles_from_dt":27.34},{"city":"Yoder","state_name":"Indiana","lat":40.94256,"lng":-85.22113,"zip":"46798","miles_from_dt":27.44},{"city":"Twelve Mile","state_name":"Indiana","lat":40.8802,"lng":-86.23451,"zip":"46988","miles_from_dt":28.58},{"city":"Fulton","state_name":"Indiana","lat":40.94693,"lng":-86.26456,"zip":"46931","miles_from_dt":28.66},{"city":"Warren","state_name":"Indiana","lat":40.68472,"lng":-85.43798,"zip":"46792","miles_from_dt":28.86},{"city":"Uniondale","state_name":"Indiana","lat":40.83699,"lng":-85.24325,"zip":"46791","miles_from_dt":29.05},{"city":"Fort Wayne","state_name":"Indiana","lat":41.09887,"lng":-85.17619,"zip":"46808","miles_from_dt":29.22},{"city":"Fort Wayne","state_name":"Indiana","lat":41.06848,"lng":-85.16935,"zip":"46869","miles_from_dt":29.37},{"city":"Fort Wayne","state_name":"Indiana","lat":41.06924,"lng":-85.16896,"zip":"46852","miles_from_dt":29.39},{"city":"Fort Wayne","state_name":"Indiana","lat":41.06646,"lng":-85.1688,"zip":"46850","miles_from_dt":29.39},{"city":"Fort Wayne","state_name":"Indiana","lat":41.06897,"lng":-85.16786,"zip":"46862","miles_from_dt":29.45},{"city":"Fort Wayne","state_name":"Indiana","lat":41.06789,"lng":-85.16768,"zip":"46801","miles_from_dt":29.45},{"city":"Fort Wayne","state_name":"Indiana","lat":41.06853,"lng":-85.1674,"zip":"46855","miles_from_dt":29.47},{"city":"Fort Wayne","state_name":"Indiana","lat":41.06924,"lng":-85.16703,"zip":"46863","miles_from_dt":29.49},{"city":"Fort Wayne","state_name":"Indiana","lat":41.06561,"lng":-85.16653,"zip":"46865","miles_from_dt":29.5},{"city":"Fort Wayne","state_name":"Indiana","lat":41.06987,"lng":-85.16665,"zip":"46868","miles_from_dt":29.51},{"city":"Fort Wayne","state_name":"Indiana","lat":41.06769,"lng":-85.16637,"zip":"46864","miles_from_dt":29.52},{"city":"Fort Wayne","state_name":"Indiana","lat":41.068,"lng":-85.16637,"zip":"46858","miles_from_dt":29.52},{"city":"Fort Wayne","state_name":"Indiana","lat":41.07291,"lng":-85.16652,"zip":"46857","miles_from_dt":29.53},{"city":"Fort Wayne","state_name":"Indiana","lat":41.06772,"lng":-85.16591,"zip":"46851","miles_from_dt":29.54},{"city":"Fort Wayne","state_name":"Indiana","lat":41.06907,"lng":-85.16586,"zip":"46867","miles_from_dt":29.55},{"city":"Fort Wayne","state_name":"Indiana","lat":41.0674,"lng":-85.16558,"zip":"46853","miles_from_dt":29.56},{"city":"Fort Wayne","state_name":"Indiana","lat":41.06602,"lng":-85.16517,"zip":"46856","miles_from_dt":29.57},{"city":"Fort Wayne","state_name":"Indiana","lat":41.07089,"lng":-85.16484,"zip":"46859","miles_from_dt":29.61},{"city":"Fort Wayne","state_name":"Indiana","lat":41.07095,"lng":-85.16382,"zip":"46866","miles_from_dt":29.67},{"city":"Fort Wayne","state_name":"Indiana","lat":41.06925,"lng":-85.16335,"zip":"46861","miles_from_dt":29.68},{"city":"Fort Wayne","state_name":"Indiana","lat":41.06787,"lng":-85.16299,"zip":"46802","miles_from_dt":29.69},{"city":"Fort Wayne","state_name":"Indiana","lat":41.07114,"lng":-85.16254,"zip":"46860","miles_from_dt":29.73},{"city":"Fort Wayne","state_name":"Indiana","lat":41.06922,"lng":-85.16147,"zip":"46897","miles_from_dt":29.78},{"city":"Argos","state_name":"Indiana","lat":41.22327,"lng":-86.24868,"zip":"46501","miles_from_dt":29.88}],"targetCityZipCode":"46946","targetCityState":"Indiana"},"__N_SSG":true}