{"pageProps":{"stateName":"Indiana","cityName":"montgomery","nearbyCities":[{"city":"Cannelburg","state_name":"Indiana","lat":38.5976,"lng":-86.98793,"zip":"47519","miles_from_dt":4.53},{"city":"Washington","state_name":"Indiana","lat":38.66139,"lng":-87.17479,"zip":"47501","miles_from_dt":7.07},{"city":"Loogootee","state_name":"Indiana","lat":38.65398,"lng":-86.91108,"zip":"47553","miles_from_dt":7.31},{"city":"Plainville","state_name":"Indiana","lat":38.79121,"lng":-87.13654,"zip":"47568","miles_from_dt":11.21},{"city":"Otwell","state_name":"Indiana","lat":38.48166,"lng":-87.09566,"zip":"47564","miles_from_dt":11.59},{"city":"Odon","state_name":"Indiana","lat":38.83493,"lng":-86.98268,"zip":"47562","miles_from_dt":13.53},{"city":"Wheatland","state_name":"Indiana","lat":38.64745,"lng":-87.29802,"zip":"47597","miles_from_dt":13.65},{"city":"Shoals","state_name":"Indiana","lat":38.65972,"lng":-86.76908,"zip":"47581","miles_from_dt":15},{"city":"Elnora","state_name":"Indiana","lat":38.86386,"lng":-87.07804,"zip":"47529","miles_from_dt":15.19},{"city":"Jasper","state_name":"Indiana","lat":38.42053,"lng":-86.9632,"zip":"47547","miles_from_dt":16.12},{"city":"Ragsdale","state_name":"Indiana","lat":38.74418,"lng":-87.322,"zip":"47573","miles_from_dt":16.42},{"city":"Jasper","state_name":"Indiana","lat":38.42071,"lng":-86.93469,"zip":"47546","miles_from_dt":16.6},{"city":"Monroe City","state_name":"Indiana","lat":38.57005,"lng":-87.34132,"zip":"47557","miles_from_dt":16.81},{"city":"Bicknell","state_name":"Indiana","lat":38.779,"lng":-87.31809,"zip":"47512","miles_from_dt":17.38},{"city":"Jasper","state_name":"Indiana","lat":38.39225,"lng":-86.95538,"zip":"47549","miles_from_dt":18.11},{"city":"Westphalia","state_name":"Indiana","lat":38.86318,"lng":-87.23382,"zip":"47596","miles_from_dt":18.15},{"city":"Edwardsport","state_name":"Indiana","lat":38.84447,"lng":-87.26806,"zip":"47528","miles_from_dt":18.26},{"city":"Petersburg","state_name":"Indiana","lat":38.46954,"lng":-87.30554,"zip":"47567","miles_from_dt":18.56},{"city":"Dubois","state_name":"Indiana","lat":38.47232,"lng":-86.77772,"zip":"47527","miles_from_dt":18.78},{"city":"Sandborn","state_name":"Indiana","lat":38.89288,"lng":-87.19055,"zip":"47578","miles_from_dt":18.8},{"city":"Newberry","state_name":"Indiana","lat":38.92672,"lng":-86.9894,"zip":"47449","miles_from_dt":19.67},{"city":"Winslow","state_name":"Indiana","lat":38.3875,"lng":-87.20711,"zip":"47598","miles_from_dt":19.8},{"city":"Scotland","state_name":"Indiana","lat":38.91183,"lng":-86.9047,"zip":"47457","miles_from_dt":19.92},{"city":"Velpen","state_name":"Indiana","lat":38.35314,"lng":-87.10113,"zip":"47590","miles_from_dt":20.36},{"city":"Huron","state_name":"Indiana","lat":38.7135,"lng":-86.6769,"zip":"47437","miles_from_dt":20.5},{"city":"Freelandville","state_name":"Indiana","lat":38.86265,"lng":-87.31285,"zip":"47535","miles_from_dt":20.82},{"city":"Crane","state_name":"Indiana","lat":38.88545,"lng":-86.80543,"zip":"47522","miles_from_dt":21.06},{"city":"Bruceville","state_name":"Indiana","lat":38.7645,"lng":-87.41857,"zip":"47516","miles_from_dt":21.77},{"city":"Lyons","state_name":"Indiana","lat":38.96651,"lng":-87.09059,"zip":"47443","miles_from_dt":22.3},{"city":"West Baden Springs","state_name":"Indiana","lat":38.61892,"lng":-86.61172,"zip":"47469","miles_from_dt":23.55},{"city":"Huntingburg","state_name":"Indiana","lat":38.29928,"lng":-86.96712,"zip":"47542","miles_from_dt":24.23},{"city":"French Lick","state_name":"Indiana","lat":38.49268,"lng":-86.63942,"zip":"47432","miles_from_dt":24.39},{"city":"Celestine","state_name":"Indiana","lat":38.39238,"lng":-86.72941,"zip":"47521","miles_from_dt":24.45},{"city":"Williams","state_name":"Indiana","lat":38.81623,"lng":-86.64799,"zip":"47470","miles_from_dt":24.52},{"city":"Ireland","state_name":"Indiana","lat":38.29126,"lng":-86.96086,"zip":"47545","miles_from_dt":24.83},{"city":"Vincennes","state_name":"Indiana","lat":38.62136,"lng":-87.50594,"zip":"47591","miles_from_dt":24.95},{"city":"Owensburg","state_name":"Indiana","lat":38.93472,"lng":-86.76773,"zip":"47453","miles_from_dt":24.99},{"city":"Schnellville","state_name":"Indiana","lat":38.35355,"lng":-86.77008,"zip":"47580","miles_from_dt":25.05},{"city":"Saint Anthony","state_name":"Indiana","lat":38.32314,"lng":-86.81128,"zip":"47575","miles_from_dt":25.59},{"city":"Oaktown","state_name":"Indiana","lat":38.85705,"lng":-87.43611,"zip":"47561","miles_from_dt":25.66},{"city":"Stendal","state_name":"Indiana","lat":38.26787,"lng":-87.16617,"zip":"47585","miles_from_dt":26.82},{"city":"Hazleton","state_name":"Indiana","lat":38.47708,"lng":-87.49301,"zip":"47640","miles_from_dt":26.85},{"city":"Bloomfield","state_name":"Indiana","lat":39.01918,"lng":-86.86998,"zip":"47424","miles_from_dt":27.49},{"city":"Carlisle","state_name":"Indiana","lat":38.95679,"lng":-87.37812,"zip":"47838","miles_from_dt":28},{"city":"Holland","state_name":"Indiana","lat":38.23777,"lng":-87.04673,"zip":"47541","miles_from_dt":28.09},{"city":"Linton","state_name":"Indiana","lat":39.03976,"lng":-87.1743,"zip":"47441","miles_from_dt":28.1},{"city":"Switz City","state_name":"Indiana","lat":39.05474,"lng":-87.04338,"zip":"47465","miles_from_dt":28.26},{"city":"Oakland City","state_name":"Indiana","lat":38.29712,"lng":-87.33191,"zip":"47660","miles_from_dt":28.58},{"city":"Mitchell","state_name":"Indiana","lat":38.73818,"lng":-86.52031,"zip":"47446","miles_from_dt":29.12},{"city":"Spurgeon","state_name":"Indiana","lat":38.25111,"lng":-87.25797,"zip":"47584","miles_from_dt":29.51},{"city":"Dugger","state_name":"Indiana","lat":39.04159,"lng":-87.26108,"zip":"47848","miles_from_dt":29.72},{"city":"Francisco","state_name":"Indiana","lat":38.35154,"lng":-87.44786,"zip":"47649","miles_from_dt":29.75}],"targetCityZipCode":"47558","targetCityState":"Indiana"},"__N_SSG":true}