{"pageProps":{"stateName":"Indiana","cityName":"tunnelton","nearbyCities":[{"city":"Bedford","state_name":"Indiana","lat":38.86415,"lng":-86.45122,"zip":"47421","miles_from_dt":8.79},{"city":"Medora","state_name":"Indiana","lat":38.83596,"lng":-86.19909,"zip":"47260","miles_from_dt":9.16},{"city":"Orleans","state_name":"Indiana","lat":38.6422,"lng":-86.41901,"zip":"47452","miles_from_dt":9.55},{"city":"Campbellsburg","state_name":"Indiana","lat":38.6455,"lng":-86.25725,"zip":"47108","miles_from_dt":9.67},{"city":"Mitchell","state_name":"Indiana","lat":38.73818,"lng":-86.52031,"zip":"47446","miles_from_dt":9.71},{"city":"Oolitic","state_name":"Indiana","lat":38.89176,"lng":-86.52536,"zip":"47451","miles_from_dt":12.97},{"city":"Vallonia","state_name":"Indiana","lat":38.78563,"lng":-86.10324,"zip":"47281","miles_from_dt":13.09},{"city":"Heltonville","state_name":"Indiana","lat":38.9598,"lng":-86.38358,"zip":"47436","miles_from_dt":13.41},{"city":"Norman","state_name":"Indiana","lat":38.96434,"lng":-86.26313,"zip":"47264","miles_from_dt":14.25},{"city":"Kurtz","state_name":"Indiana","lat":38.95637,"lng":-86.20423,"zip":"47249","miles_from_dt":15.05},{"city":"Avoca","state_name":"Indiana","lat":38.91903,"lng":-86.54933,"zip":"47420","miles_from_dt":15.19},{"city":"Williams","state_name":"Indiana","lat":38.81623,"lng":-86.64799,"zip":"47470","miles_from_dt":16.71},{"city":"Brownstown","state_name":"Indiana","lat":38.87786,"lng":-86.05471,"zip":"47220","miles_from_dt":17.39},{"city":"Salem","state_name":"Indiana","lat":38.6077,"lng":-86.09047,"zip":"47167","miles_from_dt":17.63},{"city":"West Baden Springs","state_name":"Indiana","lat":38.61892,"lng":-86.61172,"zip":"47469","miles_from_dt":17.72},{"city":"Huron","state_name":"Indiana","lat":38.7135,"lng":-86.6769,"zip":"47437","miles_from_dt":18.34},{"city":"Paoli","state_name":"Indiana","lat":38.51596,"lng":-86.45989,"zip":"47454","miles_from_dt":18.45},{"city":"Harrodsburg","state_name":"Indiana","lat":39.01277,"lng":-86.54569,"zip":"47434","miles_from_dt":20.08},{"city":"Freetown","state_name":"Indiana","lat":39.01385,"lng":-86.14046,"zip":"47235","miles_from_dt":20.23},{"city":"Springville","state_name":"Indiana","lat":38.95755,"lng":-86.64815,"zip":"47462","miles_from_dt":20.96},{"city":"Hardinsburg","state_name":"Indiana","lat":38.46341,"lng":-86.30825,"zip":"47125","miles_from_dt":21.09},{"city":"Smithville","state_name":"Indiana","lat":39.07044,"lng":-86.50712,"zip":"47458","miles_from_dt":22.64},{"city":"Bloomington","state_name":"Indiana","lat":39.08613,"lng":-86.45138,"zip":"47401","miles_from_dt":22.7},{"city":"Fredericksburg","state_name":"Indiana","lat":38.45568,"lng":-86.19075,"zip":"47120","miles_from_dt":23.08},{"city":"Clear Creek","state_name":"Indiana","lat":39.09473,"lng":-86.46233,"zip":"47426","miles_from_dt":23.43},{"city":"Bloomington","state_name":"Indiana","lat":39.09555,"lng":-86.47274,"zip":"47402","miles_from_dt":23.64},{"city":"Cortland","state_name":"Indiana","lat":38.98594,"lng":-86.00395,"zip":"47228","miles_from_dt":23.75},{"city":"Shoals","state_name":"Indiana","lat":38.65972,"lng":-86.76908,"zip":"47581","miles_from_dt":24.12},{"city":"French Lick","state_name":"Indiana","lat":38.49268,"lng":-86.63942,"zip":"47432","miles_from_dt":24.79},{"city":"Owensburg","state_name":"Indiana","lat":38.93472,"lng":-86.76773,"zip":"47453","miles_from_dt":25.56},{"city":"Crothersville","state_name":"Indiana","lat":38.80289,"lng":-85.86688,"zip":"47229","miles_from_dt":25.91},{"city":"Pekin","state_name":"Indiana","lat":38.50152,"lng":-86.00508,"zip":"47165","miles_from_dt":25.98},{"city":"Seymour","state_name":"Indiana","lat":38.96261,"lng":-85.92877,"zip":"47274","miles_from_dt":26.15},{"city":"Crane","state_name":"Indiana","lat":38.88545,"lng":-86.80543,"zip":"47522","miles_from_dt":26.16},{"city":"Bloomington","state_name":"Indiana","lat":39.08635,"lng":-86.61082,"zip":"47403","miles_from_dt":26.24},{"city":"Marengo","state_name":"Indiana","lat":38.38063,"lng":-86.36892,"zip":"47140","miles_from_dt":26.74},{"city":"Scottsburg","state_name":"Indiana","lat":38.68734,"lng":-85.84667,"zip":"47170","miles_from_dt":27.47},{"city":"Stanford","state_name":"Indiana","lat":39.09524,"lng":-86.66408,"zip":"47463","miles_from_dt":28.4},{"city":"Palmyra","state_name":"Indiana","lat":38.40462,"lng":-86.09079,"zip":"47164","miles_from_dt":28.57},{"city":"Nashville","state_name":"Indiana","lat":39.17531,"lng":-86.24481,"zip":"47448","miles_from_dt":28.62},{"city":"Bloomington","state_name":"Indiana","lat":39.17004,"lng":-86.49501,"zip":"47407","miles_from_dt":28.91},{"city":"Bloomington","state_name":"Indiana","lat":39.16761,"lng":-86.5211,"zip":"47405","miles_from_dt":29.17},{"city":"Bloomington","state_name":"Indiana","lat":39.17501,"lng":-86.51516,"zip":"47406","miles_from_dt":29.56},{"city":"Austin","state_name":"Indiana","lat":38.75745,"lng":-85.7951,"zip":"47102","miles_from_dt":29.69},{"city":"Milltown","state_name":"Indiana","lat":38.33454,"lng":-86.30115,"zip":"47145","miles_from_dt":29.97},{"city":"Depauw","state_name":"Indiana","lat":38.34465,"lng":-86.21655,"zip":"47115","miles_from_dt":30}],"targetCityZipCode":"47467","targetCityState":"Indiana"},"__N_SSG":true}