{"pageProps":{"stateName":"Utah","cityName":"sevier","nearbyCities":[{"city":"Joseph","state_name":"Utah","lat":38.64204,"lng":-112.22299,"zip":"84739","miles_from_dt":6.82},{"city":"Elsinore","state_name":"Utah","lat":38.67417,"lng":-112.15015,"zip":"84724","miles_from_dt":11.34},{"city":"Monroe","state_name":"Utah","lat":38.60521,"lng":-112.11747,"zip":"84754","miles_from_dt":11.82},{"city":"Kanosh","state_name":"Utah","lat":38.72183,"lng":-112.48706,"zip":"84637","miles_from_dt":11.85},{"city":"Marysvale","state_name":"Utah","lat":38.44205,"lng":-112.1947,"zip":"84750","miles_from_dt":13.17},{"city":"Annabella","state_name":"Utah","lat":38.71294,"lng":-112.0606,"zip":"84711","miles_from_dt":16.87},{"city":"Meadow","state_name":"Utah","lat":38.87008,"lng":-112.37511,"zip":"84644","miles_from_dt":18.91},{"city":"Glenwood","state_name":"Utah","lat":38.74504,"lng":-112.00084,"zip":"84730","miles_from_dt":20.77},{"city":"Beaver","state_name":"Utah","lat":38.3292,"lng":-112.54441,"zip":"84713","miles_from_dt":21.7},{"city":"Koosharem","state_name":"Utah","lat":38.64207,"lng":-111.93627,"zip":"84744","miles_from_dt":21.83},{"city":"Junction","state_name":"Utah","lat":38.27504,"lng":-112.26689,"zip":"84740","miles_from_dt":22.56},{"city":"Richfield","state_name":"Utah","lat":38.69586,"lng":-111.90474,"zip":"84701","miles_from_dt":24.28},{"city":"Greenwich","state_name":"Utah","lat":38.4453,"lng":-111.90408,"zip":"84732","miles_from_dt":25.64},{"city":"Sigurd","state_name":"Utah","lat":38.81817,"lng":-111.94022,"zip":"84657","miles_from_dt":26.23},{"city":"Fillmore","state_name":"Utah","lat":38.99771,"lng":-112.39675,"zip":"84631","miles_from_dt":27.79},{"city":"Kingston","state_name":"Utah","lat":38.20827,"lng":-112.18572,"zip":"84743","miles_from_dt":28.06},{"city":"Circleville","state_name":"Utah","lat":38.17611,"lng":-112.2519,"zip":"84723","miles_from_dt":29.43}],"targetCityZipCode":"84766","targetCityState":"Utah"},"__N_SSG":true}