{"pageProps":{"stateName":"Nebraska","cityName":"alvo","nearbyCities":[{"city":"Elmwood","state_name":"Nebraska","lat":40.82962,"lng":-96.30028,"zip":"68349","miles_from_dt":6.18},{"city":"Eagle","state_name":"Nebraska","lat":40.80347,"lng":-96.42274,"zip":"68347","miles_from_dt":6.23},{"city":"Murdock","state_name":"Nebraska","lat":40.921,"lng":-96.26263,"zip":"68407","miles_from_dt":6.9},{"city":"Greenwood","state_name":"Nebraska","lat":40.98215,"lng":-96.44222,"zip":"68366","miles_from_dt":6.99},{"city":"Lincoln","state_name":"Nebraska","lat":40.84573,"lng":-96.51753,"zip":"68527","miles_from_dt":7.44},{"city":"Waverly","state_name":"Nebraska","lat":40.94804,"lng":-96.52806,"zip":"68462","miles_from_dt":8.37},{"city":"Lincoln","state_name":"Nebraska","lat":40.79827,"lng":-96.55313,"zip":"68520","miles_from_dt":10.72},{"city":"Walton","state_name":"Nebraska","lat":40.76682,"lng":-96.51419,"zip":"68461","miles_from_dt":10.76},{"city":"South Bend","state_name":"Nebraska","lat":41.00842,"lng":-96.2483,"zip":"68058","miles_from_dt":10.97},{"city":"Manley","state_name":"Nebraska","lat":40.92045,"lng":-96.16707,"zip":"68403","miles_from_dt":11.75},{"city":"Lincoln","state_name":"Nebraska","lat":40.93341,"lng":-96.60487,"zip":"68517","miles_from_dt":11.76},{"city":"Lincoln","state_name":"Nebraska","lat":40.85954,"lng":-96.61172,"zip":"68507","miles_from_dt":11.91},{"city":"Lincoln","state_name":"Nebraska","lat":40.8529,"lng":-96.61311,"zip":"68529","miles_from_dt":12.07},{"city":"Ashland","state_name":"Nebraska","lat":41.07161,"lng":-96.38013,"zip":"68003","miles_from_dt":12.56},{"city":"Lincoln","state_name":"Nebraska","lat":40.82446,"lng":-96.61562,"zip":"68505","miles_from_dt":12.76},{"city":"Weeping Water","state_name":"Nebraska","lat":40.8759,"lng":-96.13518,"zip":"68463","miles_from_dt":13.26},{"city":"Palmyra","state_name":"Nebraska","lat":40.69568,"lng":-96.38435,"zip":"68418","miles_from_dt":13.39},{"city":"Lincoln","state_name":"Nebraska","lat":40.93408,"lng":-96.65076,"zip":"68514","miles_from_dt":14.1},{"city":"Memphis","state_name":"Nebraska","lat":41.09426,"lng":-96.43683,"zip":"68042","miles_from_dt":14.35},{"city":"Lincoln","state_name":"Nebraska","lat":40.85451,"lng":-96.66104,"zip":"68504","miles_from_dt":14.52},{"city":"Unadilla","state_name":"Nebraska","lat":40.69275,"lng":-96.28686,"zip":"68454","miles_from_dt":14.59},{"city":"Avoca","state_name":"Nebraska","lat":40.78769,"lng":-96.14054,"zip":"68307","miles_from_dt":14.75},{"city":"Lincoln","state_name":"Nebraska","lat":40.80654,"lng":-96.64835,"zip":"68510","miles_from_dt":14.81},{"city":"Lincoln","state_name":"Nebraska","lat":40.7324,"lng":-96.58269,"zip":"68526","miles_from_dt":14.91},{"city":"Lincoln","state_name":"Nebraska","lat":40.8284,"lng":-96.66302,"zip":"68583","miles_from_dt":15.03},{"city":"Lincoln","state_name":"Nebraska","lat":40.78422,"lng":-96.63959,"zip":"68506","miles_from_dt":15.07},{"city":"Louisville","state_name":"Nebraska","lat":40.9844,"lng":-96.12673,"zip":"68037","miles_from_dt":15.14},{"city":"Lincoln","state_name":"Nebraska","lat":40.82447,"lng":-96.67387,"zip":"68503","miles_from_dt":15.65},{"city":"Bennet","state_name":"Nebraska","lat":40.67325,"lng":-96.50451,"zip":"68317","miles_from_dt":16.14},{"city":"Gretna","state_name":"Nebraska","lat":41.10513,"lng":-96.26098,"zip":"68028","miles_from_dt":16.28},{"city":"Davey","state_name":"Nebraska","lat":40.9615,"lng":-96.68405,"zip":"68336","miles_from_dt":16.28},{"city":"Lincoln","state_name":"Nebraska","lat":40.82482,"lng":-96.69644,"zip":"68588","miles_from_dt":16.78},{"city":"Springfield","state_name":"Nebraska","lat":41.06673,"lng":-96.1595,"zip":"68059","miles_from_dt":17.08},{"city":"Lincoln","state_name":"Nebraska","lat":40.90211,"lng":-96.71415,"zip":"68531","miles_from_dt":17.11},{"city":"Lincoln","state_name":"Nebraska","lat":40.73493,"lng":-96.6428,"zip":"68516","miles_from_dt":17.11},{"city":"Lincoln","state_name":"Nebraska","lat":40.8618,"lng":-96.71519,"zip":"68521","miles_from_dt":17.26},{"city":"Lincoln","state_name":"Nebraska","lat":40.81831,"lng":-96.70621,"zip":"68508","miles_from_dt":17.39},{"city":"Cedar Creek","state_name":"Nebraska","lat":41.02518,"lng":-96.1063,"zip":"68016","miles_from_dt":17.44},{"city":"Lincoln","state_name":"Nebraska","lat":40.8136,"lng":-96.70726,"zip":"68544","miles_from_dt":17.54},{"city":"Lincoln","state_name":"Nebraska","lat":40.8167,"lng":-96.70917,"zip":"68509","miles_from_dt":17.58},{"city":"Lincoln","state_name":"Nebraska","lat":40.7873,"lng":-96.70053,"zip":"68542","miles_from_dt":17.85},{"city":"Lincoln","state_name":"Nebraska","lat":40.78361,"lng":-96.70083,"zip":"68502","miles_from_dt":17.96},{"city":"Ithaca","state_name":"Nebraska","lat":41.12933,"lng":-96.52425,"zip":"68033","miles_from_dt":18.01},{"city":"Ceresco","state_name":"Nebraska","lat":41.05938,"lng":-96.66179,"zip":"68017","miles_from_dt":18.5},{"city":"Otoe","state_name":"Nebraska","lat":40.7359,"lng":-96.09199,"zip":"68417","miles_from_dt":18.79},{"city":"Lincoln","state_name":"Nebraska","lat":40.73746,"lng":-96.70567,"zip":"68512","miles_from_dt":19.7},{"city":"Syracuse","state_name":"Nebraska","lat":40.65002,"lng":-96.17535,"zip":"68446","miles_from_dt":19.94},{"city":"Nehawka","state_name":"Nebraska","lat":40.83775,"lng":-96.01053,"zip":"68413","miles_from_dt":20.09},{"city":"Lincoln","state_name":"Nebraska","lat":40.82379,"lng":-96.77509,"zip":"68501","miles_from_dt":20.79},{"city":"Lincoln","state_name":"Nebraska","lat":40.78941,"lng":-96.76214,"zip":"68522","miles_from_dt":20.8},{"city":"Panama","state_name":"Nebraska","lat":40.60297,"lng":-96.51129,"zip":"68419","miles_from_dt":20.82},{"city":"Roca","state_name":"Nebraska","lat":40.66599,"lng":-96.66012,"zip":"68430","miles_from_dt":21.03},{"city":"Lincoln","state_name":"Nebraska","lat":40.87145,"lng":-96.80264,"zip":"68524","miles_from_dt":21.76},{"city":"Omaha","state_name":"Nebraska","lat":41.16932,"lng":-96.18783,"zip":"68136","miles_from_dt":21.94},{"city":"Douglas","state_name":"Nebraska","lat":40.57159,"lng":-96.39544,"zip":"68344","miles_from_dt":21.95},{"city":"Lincoln","state_name":"Nebraska","lat":40.73555,"lng":-96.75708,"zip":"68523","miles_from_dt":22.09},{"city":"Raymond","state_name":"Nebraska","lat":40.97244,"lng":-96.79624,"zip":"68428","miles_from_dt":22.12},{"city":"Omaha","state_name":"Nebraska","lat":41.15661,"lng":-96.13891,"zip":"68138","miles_from_dt":22.55},{"city":"Hickman","state_name":"Nebraska","lat":40.60498,"lng":-96.60539,"zip":"68372","miles_from_dt":22.72},{"city":"Murray","state_name":"Nebraska","lat":40.90906,"lng":-95.95074,"zip":"68409","miles_from_dt":22.92},{"city":"Lincoln","state_name":"Nebraska","lat":40.82244,"lng":-96.81762,"zip":"68528","miles_from_dt":22.99},{"city":"Papillion","state_name":"Nebraska","lat":41.12206,"lng":-96.06138,"zip":"68046","miles_from_dt":23.41},{"city":"Wahoo","state_name":"Nebraska","lat":41.18451,"lng":-96.61996,"zip":"68066","miles_from_dt":23.68},{"city":"Burr","state_name":"Nebraska","lat":40.55407,"lng":-96.29014,"zip":"68324","miles_from_dt":23.72},{"city":"Omaha","state_name":"Nebraska","lat":41.2052,"lng":-96.19576,"zip":"68135","miles_from_dt":23.97},{"city":"Yutan","state_name":"Nebraska","lat":41.23931,"lng":-96.40931,"zip":"68073","miles_from_dt":24.15},{"city":"Dunbar","state_name":"Nebraska","lat":40.66195,"lng":-96.03066,"zip":"68346","miles_from_dt":24.45},{"city":"Mead","state_name":"Nebraska","lat":41.23633,"lng":-96.48793,"zip":"68041","miles_from_dt":24.48},{"city":"Plattsmouth","state_name":"Nebraska","lat":40.98304,"lng":-95.9345,"zip":"68048","miles_from_dt":24.58},{"city":"Waterloo","state_name":"Nebraska","lat":41.24166,"lng":-96.31542,"zip":"68069","miles_from_dt":24.58},{"city":"Malcolm","state_name":"Nebraska","lat":40.90829,"lng":-96.8571,"zip":"68402","miles_from_dt":24.6},{"city":"Lincoln","state_name":"Nebraska","lat":40.79544,"lng":-96.84332,"zip":"68532","miles_from_dt":24.74},{"city":"Papillion","state_name":"Nebraska","lat":41.11754,"lng":-96.00292,"zip":"68133","miles_from_dt":25.53},{"city":"Omaha","state_name":"Nebraska","lat":41.23394,"lng":-96.19613,"zip":"68130","miles_from_dt":25.78},{"city":"Union","state_name":"Nebraska","lat":40.82286,"lng":-95.90123,"zip":"68455","miles_from_dt":25.91},{"city":"Omaha","state_name":"Nebraska","lat":41.20595,"lng":-96.11924,"zip":"68137","miles_from_dt":25.94},{"city":"La Vista","state_name":"Nebraska","lat":41.17972,"lng":-96.07081,"zip":"68128","miles_from_dt":25.98},{"city":"Sprague","state_name":"Nebraska","lat":40.62656,"lng":-96.74463,"zip":"68438","miles_from_dt":26.08},{"city":"Omaha","state_name":"Nebraska","lat":41.22151,"lng":-96.12024,"zip":"68139","miles_from_dt":26.83},{"city":"Martell","state_name":"Nebraska","lat":40.619,"lng":-96.75566,"zip":"68404","miles_from_dt":26.86},{"city":"Firth","state_name":"Nebraska","lat":40.53321,"lng":-96.60973,"zip":"68358","miles_from_dt":27.22},{"city":"Bellevue","state_name":"Nebraska","lat":41.10108,"lng":-95.94774,"zip":"68123","miles_from_dt":27.24},{"city":"Valparaiso","state_name":"Nebraska","lat":41.0766,"lng":-96.84854,"zip":"68065","miles_from_dt":27.33},{"city":"Denton","state_name":"Nebraska","lat":40.73214,"lng":-96.86696,"zip":"68339","miles_from_dt":27.37},{"city":"Omaha","state_name":"Nebraska","lat":41.23473,"lng":-96.11909,"zip":"68144","miles_from_dt":27.64},{"city":"Lorton","state_name":"Nebraska","lat":40.59724,"lng":-96.02425,"zip":"68382","miles_from_dt":27.77},{"city":"Elkhorn","state_name":"Nebraska","lat":41.27744,"lng":-96.24558,"zip":"68022","miles_from_dt":27.77},{"city":"Omaha","state_name":"Nebraska","lat":41.2061,"lng":-96.05245,"zip":"68127","miles_from_dt":27.99},{"city":"Omaha","state_name":"Nebraska","lat":41.263,"lng":-96.1772,"zip":"68118","miles_from_dt":28.01},{"city":"Boys Town","state_name":"Nebraska","lat":41.25616,"lng":-96.13352,"zip":"68010","miles_from_dt":28.56},{"city":"Omaha","state_name":"Nebraska","lat":41.17902,"lng":-95.99536,"zip":"68157","miles_from_dt":28.62},{"city":"Cook","state_name":"Nebraska","lat":40.50089,"lng":-96.16772,"zip":"68329","miles_from_dt":29.21},{"city":"Omaha","state_name":"Nebraska","lat":41.23322,"lng":-96.053,"zip":"68180","miles_from_dt":29.46},{"city":"Omaha","state_name":"Nebraska","lat":41.26408,"lng":-96.11665,"zip":"68154","miles_from_dt":29.46},{"city":"Offutt Afb","state_name":"Nebraska","lat":41.11745,"lng":-95.90889,"zip":"68113","miles_from_dt":29.56},{"city":"Omaha","state_name":"Nebraska","lat":41.23515,"lng":-96.0522,"zip":"68124","miles_from_dt":29.59},{"city":"Omaha","state_name":"Nebraska","lat":41.2062,"lng":-96.00138,"zip":"68117","miles_from_dt":29.74},{"city":"Adams","state_name":"Nebraska","lat":40.46847,"lng":-96.52244,"zip":"68301","miles_from_dt":29.91},{"city":"Sterling","state_name":"Nebraska","lat":40.45627,"lng":-96.36758,"zip":"68443","miles_from_dt":29.93},{"city":"Bellevue","state_name":"Nebraska","lat":41.17655,"lng":-95.95678,"zip":"68147","miles_from_dt":29.98},{"city":"Weston","state_name":"Nebraska","lat":41.1924,"lng":-96.79973,"zip":"68070","miles_from_dt":29.99}],"targetCityZipCode":"68304","targetCityState":"Nebraska"},"__N_SSG":true}