{"pageProps":{"stateName":"Nebraska","cityName":"concord","nearbyCities":[{"city":"Allen","state_name":"Nebraska","lat":42.439,"lng":-96.84784,"zip":"68710","miles_from_dt":6.05},{"city":"Dixon","state_name":"Nebraska","lat":42.48176,"lng":-96.97387,"zip":"68732","miles_from_dt":7.22},{"city":"Wakefield","state_name":"Nebraska","lat":42.25763,"lng":-96.88657,"zip":"68784","miles_from_dt":8.88},{"city":"Laurel","state_name":"Nebraska","lat":42.44662,"lng":-97.08781,"zip":"68745","miles_from_dt":8.98},{"city":"Waterbury","state_name":"Nebraska","lat":42.42796,"lng":-96.7224,"zip":"68785","miles_from_dt":11.42},{"city":"Wayne","state_name":"Nebraska","lat":42.21372,"lng":-97.03351,"zip":"68787","miles_from_dt":12.56},{"city":"Emerson","state_name":"Nebraska","lat":42.28278,"lng":-96.72245,"zip":"68733","miles_from_dt":12.88},{"city":"Belden","state_name":"Nebraska","lat":42.38962,"lng":-97.2192,"zip":"68717","miles_from_dt":14.48},{"city":"Ponca","state_name":"Nebraska","lat":42.56287,"lng":-96.76898,"zip":"68770","miles_from_dt":15.2},{"city":"Carroll","state_name":"Nebraska","lat":42.28759,"lng":-97.21456,"zip":"68723","miles_from_dt":15.63},{"city":"Coleridge","state_name":"Nebraska","lat":42.5116,"lng":-97.20596,"zip":"68727","miles_from_dt":16.47},{"city":"Jackson","state_name":"Nebraska","lat":42.47271,"lng":-96.62586,"zip":"68743","miles_from_dt":17.1},{"city":"Hubbard","state_name":"Nebraska","lat":42.35711,"lng":-96.59375,"zip":"68741","miles_from_dt":17.61},{"city":"Thurston","state_name":"Nebraska","lat":42.19538,"lng":-96.6743,"zip":"68062","miles_from_dt":18.56},{"city":"Newcastle","state_name":"Nebraska","lat":42.65247,"lng":-96.92554,"zip":"68757","miles_from_dt":18.76},{"city":"Winside","state_name":"Nebraska","lat":42.17384,"lng":-97.18616,"zip":"68790","miles_from_dt":19.18},{"city":"Maskell","state_name":"Nebraska","lat":42.69035,"lng":-96.98138,"zip":"68751","miles_from_dt":21.49},{"city":"Randolph","state_name":"Nebraska","lat":42.38419,"lng":-97.35706,"zip":"68771","miles_from_dt":21.53},{"city":"Pender","state_name":"Nebraska","lat":42.10592,"lng":-96.7325,"zip":"68047","miles_from_dt":21.67},{"city":"Jefferson","state_name":"South Dakota","lat":42.57924,"lng":-96.57957,"zip":"57038","miles_from_dt":22.8},{"city":"Dakota City","state_name":"Nebraska","lat":42.40993,"lng":-96.48341,"zip":"68731","miles_from_dt":23.26},{"city":"Hartington","state_name":"Nebraska","lat":42.6284,"lng":-97.26265,"zip":"68739","miles_from_dt":23.87},{"city":"North Sioux City","state_name":"South Dakota","lat":42.52486,"lng":-96.50732,"zip":"57049","miles_from_dt":24.08},{"city":"Hoskins","state_name":"Nebraska","lat":42.14561,"lng":-97.29245,"zip":"68740","miles_from_dt":24.43},{"city":"Homer","state_name":"Nebraska","lat":42.3184,"lng":-96.45057,"zip":"68030","miles_from_dt":25.24},{"city":"Winnebago","state_name":"Nebraska","lat":42.23605,"lng":-96.47446,"zip":"68071","miles_from_dt":25.69},{"city":"South Sioux City","state_name":"Nebraska","lat":42.4601,"lng":-96.44424,"zip":"68776","miles_from_dt":25.76},{"city":"Wynot","state_name":"Nebraska","lat":42.73323,"lng":-97.11427,"zip":"68792","miles_from_dt":25.96},{"city":"Elk Point","state_name":"South Dakota","lat":42.71718,"lng":-96.68894,"zip":"57025","miles_from_dt":26.43},{"city":"Sioux City","state_name":"Iowa","lat":42.52173,"lng":-96.44642,"zip":"51103","miles_from_dt":26.87},{"city":"Wisner","state_name":"Nebraska","lat":41.99103,"lng":-96.93245,"zip":"68791","miles_from_dt":26.91},{"city":"Pilger","state_name":"Nebraska","lat":41.99871,"lng":-97.06871,"zip":"68768","miles_from_dt":27.24},{"city":"Sioux City","state_name":"Iowa","lat":42.59873,"lng":-96.47804,"zip":"51109","miles_from_dt":27.83},{"city":"Walthill","state_name":"Nebraska","lat":42.1519,"lng":-96.48603,"zip":"68067","miles_from_dt":27.98},{"city":"Magnet","state_name":"Nebraska","lat":42.46032,"lng":-97.47531,"zip":"68749","miles_from_dt":28.1},{"city":"Sioux City","state_name":"Iowa","lat":42.41129,"lng":-96.38606,"zip":"51111","miles_from_dt":28.23},{"city":"Mclean","state_name":"Nebraska","lat":42.39398,"lng":-97.48873,"zip":"68747","miles_from_dt":28.28},{"city":"Sioux City","state_name":"Iowa","lat":42.49413,"lng":-96.39361,"zip":"51101","miles_from_dt":28.83},{"city":"Sioux City","state_name":"Iowa","lat":42.53518,"lng":-96.40389,"zip":"51104","miles_from_dt":29.23}],"targetCityZipCode":"68728","targetCityState":"Nebraska"},"__N_SSG":true}