{"pageProps":{"stateName":"Nebraska","cityName":"grafton","nearbyCities":[{"city":"Sutton","state_name":"Nebraska","lat":40.59717,"lng":-97.85319,"zip":"68979","miles_from_dt":6.57},{"city":"Fairmont","state_name":"Nebraska","lat":40.63935,"lng":-97.58032,"zip":"68354","miles_from_dt":8.07},{"city":"Geneva","state_name":"Nebraska","lat":40.50756,"lng":-97.60146,"zip":"68361","miles_from_dt":10.09},{"city":"Henderson","state_name":"Nebraska","lat":40.77304,"lng":-97.78417,"zip":"68371","miles_from_dt":11.22},{"city":"McCool Junction","state_name":"Nebraska","lat":40.74233,"lng":-97.58569,"zip":"68401","miles_from_dt":11.59},{"city":"Saronville","state_name":"Nebraska","lat":40.61705,"lng":-97.95483,"zip":"68975","miles_from_dt":11.79},{"city":"Shickley","state_name":"Nebraska","lat":40.43357,"lng":-97.74427,"zip":"68436","miles_from_dt":12.58},{"city":"Exeter","state_name":"Nebraska","lat":40.65393,"lng":-97.43015,"zip":"68351","miles_from_dt":16.02},{"city":"Strang","state_name":"Nebraska","lat":40.41117,"lng":-97.5847,"zip":"68444","miles_from_dt":16.07},{"city":"Ong","state_name":"Nebraska","lat":40.39755,"lng":-97.85036,"zip":"68452","miles_from_dt":16.32},{"city":"Clay Center","state_name":"Nebraska","lat":40.51786,"lng":-98.04211,"zip":"68933","miles_from_dt":17.72},{"city":"York","state_name":"Nebraska","lat":40.86528,"lng":-97.59778,"zip":"68467","miles_from_dt":18.58},{"city":"Harvard","state_name":"Nebraska","lat":40.63741,"lng":-98.0949,"zip":"68944","miles_from_dt":19.21},{"city":"Ohiowa","state_name":"Nebraska","lat":40.41093,"lng":-97.46185,"zip":"68416","miles_from_dt":20},{"city":"Milligan","state_name":"Nebraska","lat":40.50566,"lng":-97.37874,"zip":"68406","miles_from_dt":20.01},{"city":"Edgar","state_name":"Nebraska","lat":40.38058,"lng":-97.95859,"zip":"68935","miles_from_dt":20.18},{"city":"Aurora","state_name":"Nebraska","lat":40.82211,"lng":-98.01036,"zip":"68818","miles_from_dt":20.46},{"city":"Hampton","state_name":"Nebraska","lat":40.90334,"lng":-97.88018,"zip":"68843","miles_from_dt":21.35},{"city":"Cordova","state_name":"Nebraska","lat":40.70651,"lng":-97.34041,"zip":"68330","miles_from_dt":21.44},{"city":"Bruning","state_name":"Nebraska","lat":40.3346,"lng":-97.55356,"zip":"68322","miles_from_dt":21.52},{"city":"Bradshaw","state_name":"Nebraska","lat":40.93656,"lng":-97.75817,"zip":"68319","miles_from_dt":22.19},{"city":"Carleton","state_name":"Nebraska","lat":40.28569,"lng":-97.68243,"zip":"68326","miles_from_dt":22.91},{"city":"Davenport","state_name":"Nebraska","lat":40.28243,"lng":-97.803,"zip":"68335","miles_from_dt":23.31},{"city":"Friend","state_name":"Nebraska","lat":40.63059,"lng":-97.28333,"zip":"68359","miles_from_dt":23.54},{"city":"Fairfield","state_name":"Nebraska","lat":40.42093,"lng":-98.12344,"zip":"68938","miles_from_dt":24.66},{"city":"Waco","state_name":"Nebraska","lat":40.89596,"lng":-97.43169,"zip":"68460","miles_from_dt":24.9},{"city":"Giltner","state_name":"Nebraska","lat":40.76316,"lng":-98.16677,"zip":"68841","miles_from_dt":25.07},{"city":"Tobias","state_name":"Nebraska","lat":40.40774,"lng":-97.33455,"zip":"68453","miles_from_dt":25.32},{"city":"Inland","state_name":"Nebraska","lat":40.61215,"lng":-98.23512,"zip":"68954","miles_from_dt":26.53},{"city":"Beaver Crossing","state_name":"Nebraska","lat":40.78142,"lng":-97.27193,"zip":"68313","miles_from_dt":26.67},{"city":"Belvidere","state_name":"Nebraska","lat":40.24605,"lng":-97.53841,"zip":"68315","miles_from_dt":27.44},{"city":"Oak","state_name":"Nebraska","lat":40.23541,"lng":-97.90207,"zip":"68964","miles_from_dt":27.75},{"city":"Trumbull","state_name":"Nebraska","lat":40.68213,"lng":-98.25814,"zip":"68980","miles_from_dt":28.1},{"city":"Benedict","state_name":"Nebraska","lat":41.01688,"lng":-97.61577,"zip":"68316","miles_from_dt":28.33},{"city":"Deweese","state_name":"Nebraska","lat":40.33831,"lng":-98.15962,"zip":"68934","miles_from_dt":29.62},{"city":"Alexandria","state_name":"Nebraska","lat":40.25753,"lng":-97.41033,"zip":"68303","miles_from_dt":29.93}],"targetCityZipCode":"68365","targetCityState":"Nebraska"},"__N_SSG":true}