{"pageProps":{"stateName":"Nebraska","cityName":"ithaca","nearbyCities":[{"city":"Memphis","state_name":"Nebraska","lat":41.09426,"lng":-96.43683,"zip":"68042","miles_from_dt":5.16},{"city":"Wahoo","state_name":"Nebraska","lat":41.18451,"lng":-96.61996,"zip":"68066","miles_from_dt":6.28},{"city":"Mead","state_name":"Nebraska","lat":41.23633,"lng":-96.48793,"zip":"68041","miles_from_dt":7.62},{"city":"Ashland","state_name":"Nebraska","lat":41.07161,"lng":-96.38013,"zip":"68003","miles_from_dt":8.51},{"city":"Ceresco","state_name":"Nebraska","lat":41.05938,"lng":-96.66179,"zip":"68017","miles_from_dt":8.65},{"city":"Yutan","state_name":"Nebraska","lat":41.23931,"lng":-96.40931,"zip":"68073","miles_from_dt":9.67},{"city":"Greenwood","state_name":"Nebraska","lat":40.98215,"lng":-96.44222,"zip":"68366","miles_from_dt":11.02},{"city":"Waverly","state_name":"Nebraska","lat":40.94804,"lng":-96.52806,"zip":"68462","miles_from_dt":12.51},{"city":"Colon","state_name":"Nebraska","lat":41.30207,"lng":-96.61573,"zip":"68018","miles_from_dt":12.84},{"city":"Waterloo","state_name":"Nebraska","lat":41.24166,"lng":-96.31542,"zip":"68069","miles_from_dt":13.36},{"city":"Gretna","state_name":"Nebraska","lat":41.10513,"lng":-96.26098,"zip":"68028","miles_from_dt":13.84},{"city":"Lincoln","state_name":"Nebraska","lat":40.93341,"lng":-96.60487,"zip":"68517","miles_from_dt":14.16},{"city":"Davey","state_name":"Nebraska","lat":40.9615,"lng":-96.68405,"zip":"68336","miles_from_dt":14.28},{"city":"Weston","state_name":"Nebraska","lat":41.1924,"lng":-96.79973,"zip":"68070","miles_from_dt":15.01},{"city":"Lincoln","state_name":"Nebraska","lat":40.93408,"lng":-96.65076,"zip":"68514","miles_from_dt":15.01},{"city":"Malmo","state_name":"Nebraska","lat":41.28555,"lng":-96.73815,"zip":"68040","miles_from_dt":15.51},{"city":"South Bend","state_name":"Nebraska","lat":41.00842,"lng":-96.2483,"zip":"68058","miles_from_dt":16.65},{"city":"Valparaiso","state_name":"Nebraska","lat":41.0766,"lng":-96.84854,"zip":"68065","miles_from_dt":17.31},{"city":"Valley","state_name":"Nebraska","lat":41.34925,"lng":-96.35545,"zip":"68064","miles_from_dt":17.54},{"city":"Elkhorn","state_name":"Nebraska","lat":41.27744,"lng":-96.24558,"zip":"68022","miles_from_dt":17.76},{"city":"Omaha","state_name":"Nebraska","lat":41.16932,"lng":-96.18783,"zip":"68136","miles_from_dt":17.76},{"city":"Raymond","state_name":"Nebraska","lat":40.97244,"lng":-96.79624,"zip":"68428","miles_from_dt":17.86},{"city":"Omaha","state_name":"Nebraska","lat":41.2052,"lng":-96.19576,"zip":"68135","miles_from_dt":17.91},{"city":"Alvo","state_name":"Nebraska","lat":40.88971,"lng":-96.38781,"zip":"68304","miles_from_dt":18.01},{"city":"Lincoln","state_name":"Nebraska","lat":40.90211,"lng":-96.71415,"zip":"68531","miles_from_dt":18.56},{"city":"Omaha","state_name":"Nebraska","lat":41.23394,"lng":-96.19613,"zip":"68130","miles_from_dt":18.57},{"city":"Cedar Bluffs","state_name":"Nebraska","lat":41.38351,"lng":-96.64737,"zip":"68015","miles_from_dt":18.68},{"city":"Lincoln","state_name":"Nebraska","lat":40.85954,"lng":-96.61172,"zip":"68507","miles_from_dt":19.17},{"city":"Springfield","state_name":"Nebraska","lat":41.06673,"lng":-96.1595,"zip":"68059","miles_from_dt":19.52},{"city":"Lincoln","state_name":"Nebraska","lat":40.84573,"lng":-96.51753,"zip":"68527","miles_from_dt":19.57},{"city":"Lincoln","state_name":"Nebraska","lat":40.8529,"lng":-96.61311,"zip":"68529","miles_from_dt":19.63},{"city":"Murdock","state_name":"Nebraska","lat":40.921,"lng":-96.26263,"zip":"68407","miles_from_dt":19.84},{"city":"Omaha","state_name":"Nebraska","lat":41.15661,"lng":-96.13891,"zip":"68138","miles_from_dt":20.19},{"city":"Lincoln","state_name":"Nebraska","lat":40.85451,"lng":-96.66104,"zip":"68504","miles_from_dt":20.27},{"city":"Omaha","state_name":"Nebraska","lat":41.263,"lng":-96.1772,"zip":"68118","miles_from_dt":20.31},{"city":"Prague","state_name":"Nebraska","lat":41.30593,"lng":-96.84303,"zip":"68050","miles_from_dt":20.6},{"city":"Lincoln","state_name":"Nebraska","lat":40.8618,"lng":-96.71519,"zip":"68521","miles_from_dt":20.99},{"city":"Fremont","state_name":"Nebraska","lat":41.43749,"lng":-96.49158,"zip":"68025","miles_from_dt":21.33},{"city":"Fremont","state_name":"Nebraska","lat":41.44032,"lng":-96.48975,"zip":"68026","miles_from_dt":21.54},{"city":"Lincoln","state_name":"Nebraska","lat":40.82446,"lng":-96.61562,"zip":"68505","miles_from_dt":21.57},{"city":"Omaha","state_name":"Nebraska","lat":41.20595,"lng":-96.11924,"zip":"68137","miles_from_dt":21.77},{"city":"Omaha","state_name":"Nebraska","lat":41.22151,"lng":-96.12024,"zip":"68139","miles_from_dt":22},{"city":"Omaha","state_name":"Nebraska","lat":41.29842,"lng":-96.16629,"zip":"68116","miles_from_dt":22},{"city":"Lincoln","state_name":"Nebraska","lat":40.8284,"lng":-96.66302,"zip":"68583","miles_from_dt":22},{"city":"Boys Town","state_name":"Nebraska","lat":41.25616,"lng":-96.13352,"zip":"68010","miles_from_dt":22.17},{"city":"Omaha","state_name":"Nebraska","lat":41.23473,"lng":-96.11909,"zip":"68144","miles_from_dt":22.34},{"city":"Lincoln","state_name":"Nebraska","lat":40.82447,"lng":-96.67387,"zip":"68503","miles_from_dt":22.45},{"city":"Lincoln","state_name":"Nebraska","lat":40.82482,"lng":-96.69644,"zip":"68588","miles_from_dt":22.86},{"city":"Lincoln","state_name":"Nebraska","lat":40.79827,"lng":-96.55313,"zip":"68520","miles_from_dt":22.89},{"city":"Cedar Creek","state_name":"Nebraska","lat":41.02518,"lng":-96.1063,"zip":"68016","miles_from_dt":22.98},{"city":"Lincoln","state_name":"Nebraska","lat":40.87145,"lng":-96.80264,"zip":"68524","miles_from_dt":22.99},{"city":"Louisville","state_name":"Nebraska","lat":40.9844,"lng":-96.12673,"zip":"68037","miles_from_dt":23.05},{"city":"Eagle","state_name":"Nebraska","lat":40.80347,"lng":-96.42274,"zip":"68347","miles_from_dt":23.1},{"city":"Malcolm","state_name":"Nebraska","lat":40.90829,"lng":-96.8571,"zip":"68402","miles_from_dt":23.14},{"city":"Omaha","state_name":"Nebraska","lat":41.26408,"lng":-96.11665,"zip":"68154","miles_from_dt":23.19},{"city":"Lincoln","state_name":"Nebraska","lat":40.80654,"lng":-96.64835,"zip":"68510","miles_from_dt":23.2},{"city":"Lincoln","state_name":"Nebraska","lat":40.81831,"lng":-96.70621,"zip":"68508","miles_from_dt":23.48},{"city":"Morse Bluff","state_name":"Nebraska","lat":41.40482,"lng":-96.78949,"zip":"68648","miles_from_dt":23.5},{"city":"Manley","state_name":"Nebraska","lat":40.92045,"lng":-96.16707,"zip":"68403","miles_from_dt":23.58},{"city":"Lincoln","state_name":"Nebraska","lat":40.8167,"lng":-96.70917,"zip":"68509","miles_from_dt":23.64},{"city":"Elmwood","state_name":"Nebraska","lat":40.82962,"lng":-96.30028,"zip":"68349","miles_from_dt":23.77},{"city":"Lincoln","state_name":"Nebraska","lat":40.8136,"lng":-96.70726,"zip":"68544","miles_from_dt":23.8},{"city":"La Vista","state_name":"Nebraska","lat":41.17972,"lng":-96.07081,"zip":"68128","miles_from_dt":23.9},{"city":"Bennington","state_name":"Nebraska","lat":41.37184,"lng":-96.19524,"zip":"68007","miles_from_dt":23.95},{"city":"Papillion","state_name":"Nebraska","lat":41.12206,"lng":-96.06138,"zip":"68046","miles_from_dt":24.16},{"city":"Brainard","state_name":"Nebraska","lat":41.16821,"lng":-96.9921,"zip":"68626","miles_from_dt":24.55},{"city":"Lincoln","state_name":"Nebraska","lat":40.78422,"lng":-96.63959,"zip":"68506","miles_from_dt":24.57},{"city":"Omaha","state_name":"Nebraska","lat":41.29886,"lng":-96.10949,"zip":"68164","miles_from_dt":24.58},{"city":"Washington","state_name":"Nebraska","lat":41.39759,"lng":-96.20741,"zip":"68068","miles_from_dt":24.8},{"city":"Lincoln","state_name":"Nebraska","lat":40.82379,"lng":-96.77509,"zip":"68501","miles_from_dt":24.83},{"city":"Walton","state_name":"Nebraska","lat":40.76682,"lng":-96.51419,"zip":"68461","miles_from_dt":25.02},{"city":"Omaha","state_name":"Nebraska","lat":41.2061,"lng":-96.05245,"zip":"68127","miles_from_dt":25.17},{"city":"Bruno","state_name":"Nebraska","lat":41.28219,"lng":-96.96458,"zip":"68014","miles_from_dt":25.26},{"city":"Lincoln","state_name":"Nebraska","lat":40.7873,"lng":-96.70053,"zip":"68542","miles_from_dt":25.34},{"city":"Ames","state_name":"Nebraska","lat":41.48963,"lng":-96.63911,"zip":"68621","miles_from_dt":25.57},{"city":"Lincoln","state_name":"Nebraska","lat":40.78361,"lng":-96.70083,"zip":"68502","miles_from_dt":25.58},{"city":"Omaha","state_name":"Nebraska","lat":41.23322,"lng":-96.053,"zip":"68180","miles_from_dt":25.59},{"city":"Omaha","state_name":"Nebraska","lat":41.23515,"lng":-96.0522,"zip":"68124","miles_from_dt":25.67},{"city":"Garland","state_name":"Nebraska","lat":40.94613,"lng":-96.95661,"zip":"68360","miles_from_dt":25.89},{"city":"Lincoln","state_name":"Nebraska","lat":40.82244,"lng":-96.81762,"zip":"68528","miles_from_dt":26.15},{"city":"Dwight","state_name":"Nebraska","lat":41.08544,"lng":-97.02298,"zip":"68635","miles_from_dt":26.21},{"city":"Omaha","state_name":"Nebraska","lat":41.26318,"lng":-96.05208,"zip":"68114","miles_from_dt":26.29},{"city":"Abie","state_name":"Nebraska","lat":41.33369,"lng":-96.95489,"zip":"68001","miles_from_dt":26.5},{"city":"Lincoln","state_name":"Nebraska","lat":40.78941,"lng":-96.76214,"zip":"68522","miles_from_dt":26.55},{"city":"Weeping Water","state_name":"Nebraska","lat":40.8759,"lng":-96.13518,"zip":"68463","miles_from_dt":26.82},{"city":"Papillion","state_name":"Nebraska","lat":41.11754,"lng":-96.00292,"zip":"68133","miles_from_dt":27.22},{"city":"Bee","state_name":"Nebraska","lat":41.01643,"lng":-97.0248,"zip":"68314","miles_from_dt":27.28},{"city":"Omaha","state_name":"Nebraska","lat":41.29776,"lng":-96.0503,"zip":"68134","miles_from_dt":27.3},{"city":"Arlington","state_name":"Nebraska","lat":41.50163,"lng":-96.33975,"zip":"68002","miles_from_dt":27.43},{"city":"Kennard","state_name":"Nebraska","lat":41.45558,"lng":-96.2203,"zip":"68034","miles_from_dt":27.52},{"city":"Omaha","state_name":"Nebraska","lat":41.37012,"lng":-96.10276,"zip":"68142","miles_from_dt":27.53},{"city":"Lincoln","state_name":"Nebraska","lat":40.7324,"lng":-96.58269,"zip":"68526","miles_from_dt":27.56},{"city":"Omaha","state_name":"Nebraska","lat":41.2062,"lng":-96.00138,"zip":"68117","miles_from_dt":27.78},{"city":"Omaha","state_name":"Nebraska","lat":41.17902,"lng":-95.99536,"zip":"68157","miles_from_dt":27.8},{"city":"Lincoln","state_name":"Nebraska","lat":40.73493,"lng":-96.6428,"zip":"68516","miles_from_dt":27.91},{"city":"Omaha","state_name":"Nebraska","lat":41.25775,"lng":-96.01072,"zip":"68182","miles_from_dt":28.2},{"city":"Omaha","state_name":"Nebraska","lat":41.23885,"lng":-96.00244,"zip":"68106","miles_from_dt":28.23},{"city":"Omaha","state_name":"Nebraska","lat":41.266,"lng":-96.01003,"zip":"68198","miles_from_dt":28.41},{"city":"Lincoln","state_name":"Nebraska","lat":40.79544,"lng":-96.84332,"zip":"68532","miles_from_dt":28.45},{"city":"Linwood","state_name":"Nebraska","lat":41.39031,"lng":-96.95086,"zip":"68036","miles_from_dt":28.6},{"city":"Lincoln","state_name":"Nebraska","lat":40.73746,"lng":-96.70567,"zip":"68512","miles_from_dt":28.66},{"city":"Omaha","state_name":"Nebraska","lat":41.26506,"lng":-96.00153,"zip":"68132","miles_from_dt":28.81},{"city":"Nickerson","state_name":"Nebraska","lat":41.54798,"lng":-96.44871,"zip":"68044","miles_from_dt":29.16},{"city":"North Bend","state_name":"Nebraska","lat":41.50784,"lng":-96.78896,"zip":"68649","miles_from_dt":29.53},{"city":"Omaha","state_name":"Nebraska","lat":41.36451,"lng":-96.05036,"zip":"68122","miles_from_dt":29.54},{"city":"Omaha","state_name":"Nebraska","lat":41.29525,"lng":-96.00104,"zip":"68104","miles_from_dt":29.57},{"city":"Bellevue","state_name":"Nebraska","lat":41.17655,"lng":-95.95678,"zip":"68147","miles_from_dt":29.78},{"city":"Lincoln","state_name":"Nebraska","lat":40.73555,"lng":-96.75708,"zip":"68523","miles_from_dt":29.78}],"targetCityZipCode":"68033","targetCityState":"Nebraska"},"__N_SSG":true}