{"pageProps":{"stateName":"Nebraska","cityName":"nickerson","nearbyCities":[{"city":"Winslow","state_name":"Nebraska","lat":41.61016,"lng":-96.50473,"zip":"68072","miles_from_dt":5.18},{"city":"Arlington","state_name":"Nebraska","lat":41.50163,"lng":-96.33975,"zip":"68002","miles_from_dt":6.49},{"city":"Hooper","state_name":"Nebraska","lat":41.64041,"lng":-96.53046,"zip":"68031","miles_from_dt":7.66},{"city":"Fremont","state_name":"Nebraska","lat":41.44032,"lng":-96.48975,"zip":"68026","miles_from_dt":7.73},{"city":"Fremont","state_name":"Nebraska","lat":41.43749,"lng":-96.49158,"zip":"68025","miles_from_dt":7.94},{"city":"Ames","state_name":"Nebraska","lat":41.48963,"lng":-96.63911,"zip":"68621","miles_from_dt":10.66},{"city":"Herman","state_name":"Nebraska","lat":41.65873,"lng":-96.27394,"zip":"68029","miles_from_dt":11.85},{"city":"Uehling","state_name":"Nebraska","lat":41.72124,"lng":-96.49345,"zip":"68063","miles_from_dt":12.18},{"city":"Kennard","state_name":"Nebraska","lat":41.45558,"lng":-96.2203,"zip":"68034","miles_from_dt":13.46},{"city":"Blair","state_name":"Nebraska","lat":41.54573,"lng":-96.17421,"zip":"68008","miles_from_dt":14.23},{"city":"Valley","state_name":"Nebraska","lat":41.34925,"lng":-96.35545,"zip":"68064","miles_from_dt":14.54},{"city":"Cedar Bluffs","state_name":"Nebraska","lat":41.38351,"lng":-96.64737,"zip":"68015","miles_from_dt":15.34},{"city":"Scribner","state_name":"Nebraska","lat":41.65888,"lng":-96.71893,"zip":"68057","miles_from_dt":15.95},{"city":"Washington","state_name":"Nebraska","lat":41.39759,"lng":-96.20741,"zip":"68068","miles_from_dt":16.27},{"city":"Craig","state_name":"Nebraska","lat":41.77965,"lng":-96.37323,"zip":"68019","miles_from_dt":16.46},{"city":"North Bend","state_name":"Nebraska","lat":41.50784,"lng":-96.78896,"zip":"68649","miles_from_dt":17.86},{"city":"Bennington","state_name":"Nebraska","lat":41.37184,"lng":-96.19524,"zip":"68007","miles_from_dt":17.91},{"city":"Colon","state_name":"Nebraska","lat":41.30207,"lng":-96.61573,"zip":"68018","miles_from_dt":19.06},{"city":"Oakland","state_name":"Nebraska","lat":41.8273,"lng":-96.49523,"zip":"68045","miles_from_dt":19.43},{"city":"Morse Bluff","state_name":"Nebraska","lat":41.40482,"lng":-96.78949,"zip":"68648","miles_from_dt":20.26},{"city":"Snyder","state_name":"Nebraska","lat":41.70453,"lng":-96.78694,"zip":"68664","miles_from_dt":20.58},{"city":"Tekamah","state_name":"Nebraska","lat":41.80078,"lng":-96.21165,"zip":"68061","miles_from_dt":21.33},{"city":"Yutan","state_name":"Nebraska","lat":41.23931,"lng":-96.40931,"zip":"68073","miles_from_dt":21.4},{"city":"Elkhorn","state_name":"Nebraska","lat":41.27744,"lng":-96.24558,"zip":"68022","miles_from_dt":21.45},{"city":"Mead","state_name":"Nebraska","lat":41.23633,"lng":-96.48793,"zip":"68041","miles_from_dt":21.6},{"city":"Omaha","state_name":"Nebraska","lat":41.37012,"lng":-96.10276,"zip":"68142","miles_from_dt":21.75},{"city":"Modale","state_name":"Iowa","lat":41.63548,"lng":-96.04198,"zip":"51556","miles_from_dt":21.92},{"city":"Waterloo","state_name":"Nebraska","lat":41.24166,"lng":-96.31542,"zip":"68069","miles_from_dt":22.25},{"city":"Omaha","state_name":"Nebraska","lat":41.29842,"lng":-96.16629,"zip":"68116","miles_from_dt":22.62},{"city":"Fort Calhoun","state_name":"Nebraska","lat":41.46191,"lng":-96.02226,"zip":"68023","miles_from_dt":22.91},{"city":"Malmo","state_name":"Nebraska","lat":41.28555,"lng":-96.73815,"zip":"68040","miles_from_dt":23.54},{"city":"Omaha","state_name":"Nebraska","lat":41.263,"lng":-96.1772,"zip":"68118","miles_from_dt":24.2},{"city":"Omaha","state_name":"Nebraska","lat":41.36451,"lng":-96.05036,"zip":"68122","miles_from_dt":24.25},{"city":"Omaha","state_name":"Nebraska","lat":41.29886,"lng":-96.10949,"zip":"68164","miles_from_dt":24.62},{"city":"West Point","state_name":"Nebraska","lat":41.8387,"lng":-96.72571,"zip":"68788","miles_from_dt":24.65},{"city":"Omaha","state_name":"Nebraska","lat":41.23394,"lng":-96.19613,"zip":"68130","miles_from_dt":25.34},{"city":"Dodge","state_name":"Nebraska","lat":41.70585,"lng":-96.89668,"zip":"68633","miles_from_dt":25.63},{"city":"Rogers","state_name":"Nebraska","lat":41.54388,"lng":-96.94438,"zip":"68659","miles_from_dt":25.7},{"city":"Boys Town","state_name":"Nebraska","lat":41.25616,"lng":-96.13352,"zip":"68010","miles_from_dt":25.96},{"city":"Omaha","state_name":"Nebraska","lat":41.26408,"lng":-96.11665,"zip":"68154","miles_from_dt":26.11},{"city":"Mondamin","state_name":"Iowa","lat":41.72903,"lng":-96.00233,"zip":"51557","miles_from_dt":26.27},{"city":"Prague","state_name":"Nebraska","lat":41.30593,"lng":-96.84303,"zip":"68050","miles_from_dt":26.43},{"city":"Omaha","state_name":"Nebraska","lat":41.36282,"lng":-95.99995,"zip":"68152","miles_from_dt":26.57},{"city":"Wahoo","state_name":"Nebraska","lat":41.18451,"lng":-96.61996,"zip":"68066","miles_from_dt":26.62},{"city":"Omaha","state_name":"Nebraska","lat":41.29776,"lng":-96.0503,"zip":"68134","miles_from_dt":26.95},{"city":"Omaha","state_name":"Nebraska","lat":41.2052,"lng":-96.19576,"zip":"68135","miles_from_dt":27.06},{"city":"Omaha","state_name":"Nebraska","lat":41.23473,"lng":-96.11909,"zip":"68144","miles_from_dt":27.58},{"city":"Missouri Valley","state_name":"Iowa","lat":41.55937,"lng":-95.91398,"zip":"51555","miles_from_dt":27.73},{"city":"Omaha","state_name":"Nebraska","lat":41.38183,"lng":-95.95804,"zip":"68112","miles_from_dt":27.93},{"city":"Lyons","state_name":"Nebraska","lat":41.95458,"lng":-96.4432,"zip":"68038","miles_from_dt":28.06},{"city":"Linwood","state_name":"Nebraska","lat":41.39031,"lng":-96.95086,"zip":"68036","miles_from_dt":28.24},{"city":"Omaha","state_name":"Nebraska","lat":41.22151,"lng":-96.12024,"zip":"68139","miles_from_dt":28.27},{"city":"Omaha","state_name":"Nebraska","lat":41.26318,"lng":-96.05208,"zip":"68114","miles_from_dt":28.48},{"city":"Omaha","state_name":"Nebraska","lat":41.29525,"lng":-96.00104,"zip":"68104","miles_from_dt":29.07},{"city":"Ithaca","state_name":"Nebraska","lat":41.12933,"lng":-96.52425,"zip":"68033","miles_from_dt":29.16},{"city":"Omaha","state_name":"Nebraska","lat":41.20595,"lng":-96.11924,"zip":"68137","miles_from_dt":29.16},{"city":"Omaha","state_name":"Nebraska","lat":41.16932,"lng":-96.18783,"zip":"68136","miles_from_dt":29.44},{"city":"Omaha","state_name":"Nebraska","lat":41.23515,"lng":-96.0522,"zip":"68124","miles_from_dt":29.84},{"city":"Little Sioux","state_name":"Iowa","lat":41.83897,"lng":-96.02072,"zip":"51545","miles_from_dt":29.89},{"city":"Omaha","state_name":"Nebraska","lat":41.23322,"lng":-96.053,"zip":"68180","miles_from_dt":29.91},{"city":"Omaha","state_name":"Nebraska","lat":41.266,"lng":-96.01003,"zip":"68198","miles_from_dt":29.97}],"targetCityZipCode":"68044","targetCityState":"Nebraska"},"__N_SSG":true}