{"pageProps":{"stateName":"Nebraska","cityName":"trenton","nearbyCities":[{"city":"Stratton","state_name":"Nebraska","lat":40.13493,"lng":-101.23754,"zip":"69043","miles_from_dt":11.08},{"city":"Culbertson","state_name":"Nebraska","lat":40.23918,"lng":-100.856,"zip":"69024","miles_from_dt":11.76},{"city":"Palisade","state_name":"Nebraska","lat":40.35565,"lng":-101.12027,"zip":"69040","miles_from_dt":16.2},{"city":"Ludell","state_name":"Kansas","lat":39.85952,"lng":-100.94095,"zip":"67744","miles_from_dt":19.34},{"city":"Max","state_name":"Nebraska","lat":40.17759,"lng":-101.40394,"zip":"69037","miles_from_dt":20.13},{"city":"Herndon","state_name":"Kansas","lat":39.8848,"lng":-100.80581,"zip":"67739","miles_from_dt":20.73},{"city":"McCook","state_name":"Nebraska","lat":40.25232,"lng":-100.65782,"zip":"69001","miles_from_dt":21.3},{"city":"Atwood","state_name":"Kansas","lat":39.80366,"lng":-101.11624,"zip":"67730","miles_from_dt":23.11},{"city":"Benkelman","state_name":"Nebraska","lat":40.13945,"lng":-101.53594,"zip":"69021","miles_from_dt":26.88},{"city":"McDonald","state_name":"Kansas","lat":39.8147,"lng":-101.34795,"zip":"67745","miles_from_dt":27.68},{"city":"Wauneta","state_name":"Nebraska","lat":40.44582,"lng":-101.36639,"zip":"69045","miles_from_dt":28.08}],"targetCityZipCode":"69044","targetCityState":"Nebraska"},"__N_SSG":true}