{"pageProps":{"stateName":"Nebraska","cityName":"weeping-water","nearbyCities":[{"city":"Manley","state_name":"Nebraska","lat":40.92045,"lng":-96.16707,"zip":"68403","miles_from_dt":3.5},{"city":"Avoca","state_name":"Nebraska","lat":40.78769,"lng":-96.14054,"zip":"68307","miles_from_dt":6.09},{"city":"Nehawka","state_name":"Nebraska","lat":40.83775,"lng":-96.01053,"zip":"68413","miles_from_dt":7.04},{"city":"Murdock","state_name":"Nebraska","lat":40.921,"lng":-96.26263,"zip":"68407","miles_from_dt":7.36},{"city":"Louisville","state_name":"Nebraska","lat":40.9844,"lng":-96.12673,"zip":"68037","miles_from_dt":7.5},{"city":"Elmwood","state_name":"Nebraska","lat":40.82962,"lng":-96.30028,"zip":"68349","miles_from_dt":9.22},{"city":"Otoe","state_name":"Nebraska","lat":40.7359,"lng":-96.09199,"zip":"68417","miles_from_dt":9.92},{"city":"Murray","state_name":"Nebraska","lat":40.90906,"lng":-95.95074,"zip":"68409","miles_from_dt":9.93},{"city":"Cedar Creek","state_name":"Nebraska","lat":41.02518,"lng":-96.1063,"zip":"68016","miles_from_dt":10.41},{"city":"South Bend","state_name":"Nebraska","lat":41.00842,"lng":-96.2483,"zip":"68058","miles_from_dt":10.89},{"city":"Union","state_name":"Nebraska","lat":40.82286,"lng":-95.90123,"zip":"68455","miles_from_dt":12.79},{"city":"Plattsmouth","state_name":"Nebraska","lat":40.98304,"lng":-95.9345,"zip":"68048","miles_from_dt":12.84},{"city":"Springfield","state_name":"Nebraska","lat":41.06673,"lng":-96.1595,"zip":"68059","miles_from_dt":13.23},{"city":"Alvo","state_name":"Nebraska","lat":40.88971,"lng":-96.38781,"zip":"68304","miles_from_dt":13.26},{"city":"Unadilla","state_name":"Nebraska","lat":40.69275,"lng":-96.28686,"zip":"68454","miles_from_dt":14.93},{"city":"Syracuse","state_name":"Nebraska","lat":40.65002,"lng":-96.17535,"zip":"68446","miles_from_dt":15.73},{"city":"Dunbar","state_name":"Nebraska","lat":40.66195,"lng":-96.03066,"zip":"68346","miles_from_dt":15.75},{"city":"Eagle","state_name":"Nebraska","lat":40.80347,"lng":-96.42274,"zip":"68347","miles_from_dt":15.88},{"city":"Gretna","state_name":"Nebraska","lat":41.10513,"lng":-96.26098,"zip":"68028","miles_from_dt":17.13},{"city":"Papillion","state_name":"Nebraska","lat":41.12206,"lng":-96.06138,"zip":"68046","miles_from_dt":17.42},{"city":"Greenwood","state_name":"Nebraska","lat":40.98215,"lng":-96.44222,"zip":"68366","miles_from_dt":17.66},{"city":"Palmyra","state_name":"Nebraska","lat":40.69568,"lng":-96.38435,"zip":"68418","miles_from_dt":18.04},{"city":"Papillion","state_name":"Nebraska","lat":41.11754,"lng":-96.00292,"zip":"68133","miles_from_dt":18.05},{"city":"Bellevue","state_name":"Nebraska","lat":41.10108,"lng":-95.94774,"zip":"68123","miles_from_dt":18.37},{"city":"Ashland","state_name":"Nebraska","lat":41.07161,"lng":-96.38013,"zip":"68003","miles_from_dt":18.61},{"city":"Pacific Junction","state_name":"Iowa","lat":41.00571,"lng":-95.80992,"zip":"51561","miles_from_dt":19.23},{"city":"Omaha","state_name":"Nebraska","lat":41.15661,"lng":-96.13891,"zip":"68138","miles_from_dt":19.37},{"city":"Percival","state_name":"Iowa","lat":40.74215,"lng":-95.80325,"zip":"51648","miles_from_dt":19.7},{"city":"Thurman","state_name":"Iowa","lat":40.831,"lng":-95.76038,"zip":"51654","miles_from_dt":19.88},{"city":"Lorton","state_name":"Nebraska","lat":40.59724,"lng":-96.02425,"zip":"68382","miles_from_dt":20.09},{"city":"Lincoln","state_name":"Nebraska","lat":40.84573,"lng":-96.51753,"zip":"68527","miles_from_dt":20.14},{"city":"Omaha","state_name":"Nebraska","lat":41.16932,"lng":-96.18783,"zip":"68136","miles_from_dt":20.43},{"city":"Offutt Afb","state_name":"Nebraska","lat":41.11745,"lng":-95.90889,"zip":"68113","miles_from_dt":20.44},{"city":"Nebraska City","state_name":"Nebraska","lat":40.63729,"lng":-95.88584,"zip":"68410","miles_from_dt":21.03},{"city":"Waverly","state_name":"Nebraska","lat":40.94804,"lng":-96.52806,"zip":"68462","miles_from_dt":21.16},{"city":"La Vista","state_name":"Nebraska","lat":41.17972,"lng":-96.07081,"zip":"68128","miles_from_dt":21.23},{"city":"Walton","state_name":"Nebraska","lat":40.76682,"lng":-96.51419,"zip":"68461","miles_from_dt":21.25},{"city":"Memphis","state_name":"Nebraska","lat":41.09426,"lng":-96.43683,"zip":"68042","miles_from_dt":21.81},{"city":"St Columbans","state_name":"Nebraska","lat":41.14123,"lng":-95.90438,"zip":"68056","miles_from_dt":21.93},{"city":"Omaha","state_name":"Nebraska","lat":41.17902,"lng":-95.99536,"zip":"68157","miles_from_dt":22.16},{"city":"Bellevue","state_name":"Nebraska","lat":41.14161,"lng":-95.89394,"zip":"68005","miles_from_dt":22.25},{"city":"Lincoln","state_name":"Nebraska","lat":40.79827,"lng":-96.55313,"zip":"68520","miles_from_dt":22.55},{"city":"Bellevue","state_name":"Nebraska","lat":41.17655,"lng":-95.95678,"zip":"68147","miles_from_dt":22.75},{"city":"Omaha","state_name":"Nebraska","lat":41.20595,"lng":-96.11924,"zip":"68137","miles_from_dt":22.79},{"city":"Omaha","state_name":"Nebraska","lat":41.2052,"lng":-96.19576,"zip":"68135","miles_from_dt":22.94},{"city":"Omaha","state_name":"Nebraska","lat":41.2061,"lng":-96.05245,"zip":"68127","miles_from_dt":23.19},{"city":"Talmage","state_name":"Nebraska","lat":40.54429,"lng":-96.035,"zip":"68448","miles_from_dt":23.48},{"city":"Burr","state_name":"Nebraska","lat":40.55407,"lng":-96.29014,"zip":"68324","miles_from_dt":23.65},{"city":"Omaha","state_name":"Nebraska","lat":41.2062,"lng":-96.00138,"zip":"68117","miles_from_dt":23.84},{"city":"Omaha","state_name":"Nebraska","lat":41.22151,"lng":-96.12024,"zip":"68139","miles_from_dt":23.86},{"city":"Bennet","state_name":"Nebraska","lat":40.67325,"lng":-96.50451,"zip":"68317","miles_from_dt":23.89},{"city":"Tabor","state_name":"Iowa","lat":40.88444,"lng":-95.67179,"zip":"51653","miles_from_dt":24.28},{"city":"Glenwood","state_name":"Iowa","lat":41.04092,"lng":-95.71853,"zip":"51534","miles_from_dt":24.59},{"city":"Omaha","state_name":"Nebraska","lat":41.23473,"lng":-96.11909,"zip":"68144","miles_from_dt":24.78},{"city":"Omaha","state_name":"Nebraska","lat":41.23394,"lng":-96.19613,"zip":"68130","miles_from_dt":24.91},{"city":"Omaha","state_name":"Nebraska","lat":41.20888,"lng":-95.95126,"zip":"68107","miles_from_dt":24.91},{"city":"Lincoln","state_name":"Nebraska","lat":40.93341,"lng":-96.60487,"zip":"68517","miles_from_dt":24.91},{"city":"Lincoln","state_name":"Nebraska","lat":40.85954,"lng":-96.61172,"zip":"68507","miles_from_dt":24.99},{"city":"Omaha","state_name":"Nebraska","lat":41.23322,"lng":-96.053,"zip":"68180","miles_from_dt":25.03},{"city":"Douglas","state_name":"Nebraska","lat":40.57159,"lng":-96.39544,"zip":"68344","miles_from_dt":25.05},{"city":"Lincoln","state_name":"Nebraska","lat":40.8529,"lng":-96.61311,"zip":"68529","miles_from_dt":25.09},{"city":"Omaha","state_name":"Nebraska","lat":41.23515,"lng":-96.0522,"zip":"68124","miles_from_dt":25.17},{"city":"Lincoln","state_name":"Nebraska","lat":40.82446,"lng":-96.61562,"zip":"68505","miles_from_dt":25.42},{"city":"Lincoln","state_name":"Nebraska","lat":40.7324,"lng":-96.58269,"zip":"68526","miles_from_dt":25.47},{"city":"Cook","state_name":"Nebraska","lat":40.50089,"lng":-96.16772,"zip":"68329","miles_from_dt":25.93},{"city":"Omaha","state_name":"Nebraska","lat":41.23885,"lng":-96.00244,"zip":"68106","miles_from_dt":25.99},{"city":"Boys Town","state_name":"Nebraska","lat":41.25616,"lng":-96.13352,"zip":"68010","miles_from_dt":26.24},{"city":"Omaha","state_name":"Nebraska","lat":41.2406,"lng":-95.96429,"zip":"68105","miles_from_dt":26.7},{"city":"Omaha","state_name":"Nebraska","lat":41.26408,"lng":-96.11665,"zip":"68154","miles_from_dt":26.8},{"city":"Omaha","state_name":"Nebraska","lat":41.263,"lng":-96.1772,"zip":"68118","miles_from_dt":26.8},{"city":"Ithaca","state_name":"Nebraska","lat":41.12933,"lng":-96.52425,"zip":"68033","miles_from_dt":26.82},{"city":"Waterloo","state_name":"Nebraska","lat":41.24166,"lng":-96.31542,"zip":"68069","miles_from_dt":26.94},{"city":"Omaha","state_name":"Nebraska","lat":41.26318,"lng":-96.05208,"zip":"68114","miles_from_dt":27.07},{"city":"Omaha","state_name":"Nebraska","lat":41.23753,"lng":-95.93118,"zip":"68108","miles_from_dt":27.13},{"city":"Omaha","state_name":"Nebraska","lat":41.25775,"lng":-96.01072,"zip":"68182","miles_from_dt":27.14},{"city":"Lincoln","state_name":"Nebraska","lat":40.78422,"lng":-96.63959,"zip":"68506","miles_from_dt":27.18},{"city":"Omaha","state_name":"Nebraska","lat":41.23759,"lng":-95.92759,"zip":"68109","miles_from_dt":27.21},{"city":"Panama","state_name":"Nebraska","lat":40.60297,"lng":-96.51129,"zip":"68419","miles_from_dt":27.28},{"city":"Lincoln","state_name":"Nebraska","lat":40.93408,"lng":-96.65076,"zip":"68514","miles_from_dt":27.29},{"city":"Lincoln","state_name":"Nebraska","lat":40.80654,"lng":-96.64835,"zip":"68510","miles_from_dt":27.31},{"city":"Sidney","state_name":"Iowa","lat":40.77032,"lng":-95.62815,"zip":"51652","miles_from_dt":27.56},{"city":"Lincoln","state_name":"Nebraska","lat":40.85451,"lng":-96.66104,"zip":"68504","miles_from_dt":27.59},{"city":"Julian","state_name":"Nebraska","lat":40.52908,"lng":-95.86979,"zip":"68379","miles_from_dt":27.69},{"city":"Omaha","state_name":"Nebraska","lat":41.266,"lng":-96.01003,"zip":"68198","miles_from_dt":27.7},{"city":"Omaha","state_name":"Nebraska","lat":41.26506,"lng":-96.00153,"zip":"68132","miles_from_dt":27.75},{"city":"Council Bluffs","state_name":"Iowa","lat":41.22828,"lng":-95.87889,"zip":"51501","miles_from_dt":27.76},{"city":"Lincoln","state_name":"Nebraska","lat":40.8284,"lng":-96.66302,"zip":"68583","miles_from_dt":27.85},{"city":"Omaha","state_name":"Nebraska","lat":41.25711,"lng":-95.945,"zip":"68103","miles_from_dt":28.12},{"city":"Omaha","state_name":"Nebraska","lat":41.25709,"lng":-95.93977,"zip":"68183","miles_from_dt":28.21},{"city":"Omaha","state_name":"Nebraska","lat":41.26435,"lng":-95.96479,"zip":"68131","miles_from_dt":28.24},{"city":"Elkhorn","state_name":"Nebraska","lat":41.27744,"lng":-96.24558,"zip":"68022","miles_from_dt":28.3},{"city":"Omaha","state_name":"Nebraska","lat":41.25762,"lng":-95.93666,"zip":"68145","miles_from_dt":28.31},{"city":"Lincoln","state_name":"Nebraska","lat":40.73493,"lng":-96.6428,"zip":"68516","miles_from_dt":28.34},{"city":"Omaha","state_name":"Nebraska","lat":41.26626,"lng":-95.96434,"zip":"68175","miles_from_dt":28.38},{"city":"Omaha","state_name":"Nebraska","lat":41.26069,"lng":-95.94059,"zip":"68172","miles_from_dt":28.43},{"city":"Omaha","state_name":"Nebraska","lat":41.26069,"lng":-95.94059,"zip":"68176","miles_from_dt":28.43},{"city":"Lincoln","state_name":"Nebraska","lat":40.82447,"lng":-96.67387,"zip":"68503","miles_from_dt":28.45},{"city":"Omaha","state_name":"Nebraska","lat":41.26144,"lng":-95.93865,"zip":"68197","miles_from_dt":28.52},{"city":"Omaha","state_name":"Nebraska","lat":41.26535,"lng":-95.94535,"zip":"68178","miles_from_dt":28.64},{"city":"Omaha","state_name":"Nebraska","lat":41.26277,"lng":-95.93439,"zip":"68179","miles_from_dt":28.68},{"city":"Omaha","state_name":"Nebraska","lat":41.26231,"lng":-95.93224,"zip":"68102","miles_from_dt":28.69},{"city":"Omaha","state_name":"Nebraska","lat":41.26219,"lng":-95.93133,"zip":"68101","miles_from_dt":28.7},{"city":"Brock","state_name":"Nebraska","lat":40.48148,"lng":-95.9533,"zip":"68320","miles_from_dt":28.84},{"city":"Yutan","state_name":"Nebraska","lat":41.23931,"lng":-96.40931,"zip":"68073","miles_from_dt":28.88},{"city":"Omaha","state_name":"Nebraska","lat":41.29842,"lng":-96.16629,"zip":"68116","miles_from_dt":29.2},{"city":"Omaha","state_name":"Nebraska","lat":41.29886,"lng":-96.10949,"zip":"68164","miles_from_dt":29.22},{"city":"Davey","state_name":"Nebraska","lat":40.9615,"lng":-96.68405,"zip":"68336","miles_from_dt":29.33},{"city":"Omaha","state_name":"Nebraska","lat":41.29776,"lng":-96.0503,"zip":"68134","miles_from_dt":29.45},{"city":"Lincoln","state_name":"Nebraska","lat":40.82482,"lng":-96.69644,"zip":"68588","miles_from_dt":29.62},{"city":"Malvern","state_name":"Iowa","lat":40.99129,"lng":-95.58907,"zip":"51551","miles_from_dt":29.67},{"city":"Omaha","state_name":"Nebraska","lat":41.29525,"lng":-96.00104,"zip":"68104","miles_from_dt":29.77}],"targetCityZipCode":"68463","targetCityState":"Nebraska"},"__N_SSG":true}