{"pageProps":{"stateName":"Nebraska","cityName":"winside","nearbyCities":[{"city":"Hoskins","state_name":"Nebraska","lat":42.14561,"lng":-97.29245,"zip":"68740","miles_from_dt":5.8},{"city":"Carroll","state_name":"Nebraska","lat":42.28759,"lng":-97.21456,"zip":"68723","miles_from_dt":7.99},{"city":"Wayne","state_name":"Nebraska","lat":42.21372,"lng":-97.03351,"zip":"68787","miles_from_dt":8.3},{"city":"Pilger","state_name":"Nebraska","lat":41.99871,"lng":-97.06871,"zip":"68768","miles_from_dt":13.51},{"city":"Hadar","state_name":"Nebraska","lat":42.10699,"lng":-97.44953,"zip":"68738","miles_from_dt":14.29},{"city":"Belden","state_name":"Nebraska","lat":42.38962,"lng":-97.2192,"zip":"68717","miles_from_dt":14.99},{"city":"Stanton","state_name":"Nebraska","lat":41.9516,"lng":-97.21175,"zip":"68779","miles_from_dt":15.4},{"city":"Norfolk","state_name":"Nebraska","lat":42.02621,"lng":-97.41956,"zip":"68702","miles_from_dt":15.74},{"city":"Wakefield","state_name":"Nebraska","lat":42.25763,"lng":-96.88657,"zip":"68784","miles_from_dt":16.42},{"city":"Norfolk","state_name":"Nebraska","lat":42.02024,"lng":-97.44099,"zip":"68701","miles_from_dt":16.85},{"city":"Randolph","state_name":"Nebraska","lat":42.38419,"lng":-97.35706,"zip":"68771","miles_from_dt":16.96},{"city":"Pierce","state_name":"Nebraska","lat":42.1969,"lng":-97.53622,"zip":"68767","miles_from_dt":18.04},{"city":"Wisner","state_name":"Nebraska","lat":41.99103,"lng":-96.93245,"zip":"68791","miles_from_dt":18.15},{"city":"Concord","state_name":"Nebraska","lat":42.38085,"lng":-96.93641,"zip":"68728","miles_from_dt":19.18},{"city":"Laurel","state_name":"Nebraska","lat":42.44662,"lng":-97.08781,"zip":"68745","miles_from_dt":19.49},{"city":"Mclean","state_name":"Nebraska","lat":42.39398,"lng":-97.48873,"zip":"68747","miles_from_dt":21.71},{"city":"Coleridge","state_name":"Nebraska","lat":42.5116,"lng":-97.20596,"zip":"68727","miles_from_dt":23.33},{"city":"Pender","state_name":"Nebraska","lat":42.10592,"lng":-96.7325,"zip":"68047","miles_from_dt":23.77},{"city":"Dixon","state_name":"Nebraska","lat":42.48176,"lng":-96.97387,"zip":"68732","miles_from_dt":23.87},{"city":"Magnet","state_name":"Nebraska","lat":42.46032,"lng":-97.47531,"zip":"68749","miles_from_dt":24.71},{"city":"Emerson","state_name":"Nebraska","lat":42.28278,"lng":-96.72245,"zip":"68733","miles_from_dt":24.95},{"city":"Osmond","state_name":"Nebraska","lat":42.33397,"lng":-97.6232,"zip":"68765","miles_from_dt":24.99},{"city":"Beemer","state_name":"Nebraska","lat":41.9314,"lng":-96.82337,"zip":"68716","miles_from_dt":25.06},{"city":"Allen","state_name":"Nebraska","lat":42.439,"lng":-96.84784,"zip":"68710","miles_from_dt":25.21},{"city":"Battle Creek","state_name":"Nebraska","lat":41.97003,"lng":-97.60883,"zip":"68715","miles_from_dt":25.89},{"city":"Thurston","state_name":"Nebraska","lat":42.19538,"lng":-96.6743,"zip":"68062","miles_from_dt":26.32},{"city":"Madison","state_name":"Nebraska","lat":41.83883,"lng":-97.47638,"zip":"68748","miles_from_dt":27.53},{"city":"Meadow Grove","state_name":"Nebraska","lat":42.02269,"lng":-97.7154,"zip":"68752","miles_from_dt":29.14},{"city":"Waterbury","state_name":"Nebraska","lat":42.42796,"lng":-96.7224,"zip":"68785","miles_from_dt":29.53},{"city":"Wausa","state_name":"Nebraska","lat":42.50351,"lng":-97.55855,"zip":"68786","miles_from_dt":29.69}],"targetCityZipCode":"68790","targetCityState":"Nebraska"},"__N_SSG":true}