{"pageProps":{"stateName":"Kansas","cityName":"dennis","nearbyCities":[{"city":"Cherryvale","state_name":"Kansas","lat":37.28005,"lng":-95.53381,"zip":"67335","miles_from_dt":7.24},{"city":"Galesburg","state_name":"Kansas","lat":37.4621,"lng":-95.36641,"zip":"66740","miles_from_dt":8.85},{"city":"Thayer","state_name":"Kansas","lat":37.46848,"lng":-95.48893,"zip":"66776","miles_from_dt":9.18},{"city":"Mound Valley","state_name":"Kansas","lat":37.20727,"lng":-95.41126,"zip":"67354","miles_from_dt":9.49},{"city":"Parsons","state_name":"Kansas","lat":37.33951,"lng":-95.25261,"zip":"67357","miles_from_dt":9.75},{"city":"Altamont","state_name":"Kansas","lat":37.163,"lng":-95.31238,"zip":"67330","miles_from_dt":14.06},{"city":"Neodesha","state_name":"Kansas","lat":37.41602,"lng":-95.69874,"zip":"66757","miles_from_dt":15.62},{"city":"Sycamore","state_name":"Kansas","lat":37.32934,"lng":-95.71819,"zip":"67363","miles_from_dt":15.92},{"city":"Liberty","state_name":"Kansas","lat":37.14066,"lng":-95.56698,"zip":"67351","miles_from_dt":15.94},{"city":"Altoona","state_name":"Kansas","lat":37.55301,"lng":-95.63104,"zip":"66710","miles_from_dt":18.17},{"city":"Saint Paul","state_name":"Kansas","lat":37.49211,"lng":-95.14883,"zip":"66771","miles_from_dt":18.51},{"city":"Oswego","state_name":"Kansas","lat":37.17886,"lng":-95.14161,"zip":"67356","miles_from_dt":19.54},{"city":"Erie","state_name":"Kansas","lat":37.59014,"lng":-95.25282,"zip":"66733","miles_from_dt":19.56},{"city":"Independence","state_name":"Kansas","lat":37.21092,"lng":-95.75224,"zip":"67301","miles_from_dt":20.01},{"city":"Edna","state_name":"Kansas","lat":37.05877,"lng":-95.35513,"zip":"67342","miles_from_dt":20.1},{"city":"Chanute","state_name":"Kansas","lat":37.64631,"lng":-95.459,"zip":"66720","miles_from_dt":20.91},{"city":"Coffeyville","state_name":"Kansas","lat":37.05486,"lng":-95.5993,"zip":"67337","miles_from_dt":22.03},{"city":"McCune","state_name":"Kansas","lat":37.36529,"lng":-95.01444,"zip":"66753","miles_from_dt":22.9},{"city":"Bartlett","state_name":"Kansas","lat":37.04345,"lng":-95.23281,"zip":"67332","miles_from_dt":23.4},{"city":"Benedict","state_name":"Kansas","lat":37.63369,"lng":-95.70484,"zip":"66714","miles_from_dt":25.05},{"city":"Dearing","state_name":"Kansas","lat":37.05948,"lng":-95.71207,"zip":"67340","miles_from_dt":25.06},{"city":"Walnut","state_name":"Kansas","lat":37.60895,"lng":-95.05881,"zip":"66780","miles_from_dt":27.37},{"city":"Fredonia","state_name":"Kansas","lat":37.55335,"lng":-95.86381,"zip":"66736","miles_from_dt":27.9},{"city":"Chetopa","state_name":"Kansas","lat":37.05385,"lng":-95.07489,"zip":"67336","miles_from_dt":27.99},{"city":"West Mineral","state_name":"Kansas","lat":37.28493,"lng":-94.92609,"zip":"66782","miles_from_dt":28.03},{"city":"Buffalo","state_name":"Kansas","lat":37.69671,"lng":-95.68672,"zip":"66717","miles_from_dt":28.12},{"city":"S Coffeyville","state_name":"Oklahoma","lat":36.94209,"lng":-95.54436,"zip":"74072","miles_from_dt":28.43},{"city":"Stark","state_name":"Kansas","lat":37.69957,"lng":-95.14855,"zip":"66775","miles_from_dt":28.97},{"city":"Elk City","state_name":"Kansas","lat":37.28875,"lng":-95.9514,"zip":"67344","miles_from_dt":28.99}],"targetCityZipCode":"67341","targetCityState":"Kansas"},"__N_SSG":true}