{"pageProps":{"stateName":"Kansas","cityName":"easton","nearbyCities":[{"city":"Winchester","state_name":"Kansas","lat":39.32966,"lng":-95.23992,"zip":"66097","miles_from_dt":7.12},{"city":"Leavenworth","state_name":"Kansas","lat":39.27891,"lng":-94.98527,"zip":"66048","miles_from_dt":7.86},{"city":"Fort Leavenworth","state_name":"Kansas","lat":39.36454,"lng":-94.91708,"zip":"66027","miles_from_dt":10.34},{"city":"McLouth","state_name":"Kansas","lat":39.2055,"lng":-95.19518,"zip":"66054","miles_from_dt":10.48},{"city":"Cummings","state_name":"Kansas","lat":39.47038,"lng":-95.23158,"zip":"66016","miles_from_dt":11.09},{"city":"Lansing","state_name":"Kansas","lat":39.24967,"lng":-94.90193,"zip":"66043","miles_from_dt":12.72},{"city":"Nortonville","state_name":"Kansas","lat":39.41866,"lng":-95.3325,"zip":"66060","miles_from_dt":13.16},{"city":"Weston","state_name":"Missouri","lat":39.45661,"lng":-94.89456,"zip":"64098","miles_from_dt":13.91},{"city":"Atchison","state_name":"Kansas","lat":39.5488,"lng":-95.13881,"zip":"66002","miles_from_dt":14.4},{"city":"Oskaloosa","state_name":"Kansas","lat":39.20359,"lng":-95.33142,"zip":"66066","miles_from_dt":15.3},{"city":"Rushville","state_name":"Missouri","lat":39.55638,"lng":-95.01974,"zip":"64484","miles_from_dt":15.56},{"city":"Tonganoxie","state_name":"Kansas","lat":39.11578,"lng":-95.08043,"zip":"66086","miles_from_dt":15.63},{"city":"Farley","state_name":"Missouri","lat":39.29658,"lng":-94.82153,"zip":"64028","miles_from_dt":15.65},{"city":"Basehor","state_name":"Kansas","lat":39.1405,"lng":-94.94548,"zip":"66007","miles_from_dt":16.37},{"city":"Platte City","state_name":"Missouri","lat":39.36267,"lng":-94.79351,"zip":"64079","miles_from_dt":16.9},{"city":"Waldron","state_name":"Missouri","lat":39.22248,"lng":-94.8088,"zip":"64092","miles_from_dt":18.01},{"city":"Valley Falls","state_name":"Kansas","lat":39.3416,"lng":-95.4563,"zip":"66088","miles_from_dt":18.67},{"city":"De Kalb","state_name":"Missouri","lat":39.57849,"lng":-94.91841,"zip":"64440","miles_from_dt":19.24},{"city":"Kansas City","state_name":"Kansas","lat":39.16367,"lng":-94.8283,"zip":"66109","miles_from_dt":19.37},{"city":"Effingham","state_name":"Kansas","lat":39.51375,"lng":-95.40005,"zip":"66023","miles_from_dt":19.64},{"city":"Ozawkie","state_name":"Kansas","lat":39.21135,"lng":-95.45132,"zip":"66070","miles_from_dt":20.49},{"city":"Lancaster","state_name":"Kansas","lat":39.59618,"lng":-95.30623,"zip":"66041","miles_from_dt":20.53},{"city":"Kansas City","state_name":"Missouri","lat":39.27999,"lng":-94.73148,"zip":"64153","miles_from_dt":20.61},{"city":"Kansas City","state_name":"Missouri","lat":39.30204,"lng":-94.71838,"zip":"64195","miles_from_dt":21.04},{"city":"Camden Point","state_name":"Missouri","lat":39.45052,"lng":-94.73329,"zip":"64018","miles_from_dt":21.41},{"city":"Bonner Springs","state_name":"Kansas","lat":39.06091,"lng":-94.91658,"zip":"66012","miles_from_dt":21.9},{"city":"Lawrence","state_name":"Kansas","lat":39.03187,"lng":-95.20991,"zip":"66044","miles_from_dt":22.05},{"city":"Kansas City","state_name":"Missouri","lat":39.33674,"lng":-94.68922,"zip":"64163","miles_from_dt":22.42},{"city":"Kansas City","state_name":"Missouri","lat":39.21278,"lng":-94.72271,"zip":"64152","miles_from_dt":22.47},{"city":"Perry","state_name":"Kansas","lat":39.09208,"lng":-95.38144,"zip":"66073","miles_from_dt":22.62},{"city":"Dearborn","state_name":"Missouri","lat":39.52371,"lng":-94.74986,"zip":"64439","miles_from_dt":22.91},{"city":"Linwood","state_name":"Kansas","lat":39.00998,"lng":-95.04678,"zip":"66052","miles_from_dt":23.1},{"city":"Faucett","state_name":"Missouri","lat":39.60258,"lng":-94.81856,"zip":"64448","miles_from_dt":23.74},{"city":"Kansas City","state_name":"Kansas","lat":39.11494,"lng":-94.7701,"zip":"66112","miles_from_dt":23.92},{"city":"Kansas City","state_name":"Kansas","lat":39.08529,"lng":-94.79621,"zip":"66111","miles_from_dt":24.33},{"city":"Edwardsville","state_name":"Kansas","lat":39.06108,"lng":-94.81938,"zip":"66113","miles_from_dt":24.77},{"city":"Kansas City","state_name":"Missouri","lat":39.18858,"lng":-94.68211,"zip":"64190","miles_from_dt":25.14},{"city":"Shawnee","state_name":"Kansas","lat":39.03039,"lng":-94.8603,"zip":"66226","miles_from_dt":25.24},{"city":"Meriden","state_name":"Kansas","lat":39.20255,"lng":-95.54701,"zip":"66512","miles_from_dt":25.43},{"city":"Kansas City","state_name":"Missouri","lat":39.32988,"lng":-94.63113,"zip":"64164","miles_from_dt":25.55},{"city":"Bendena","state_name":"Kansas","lat":39.71283,"lng":-95.17564,"zip":"66008","miles_from_dt":25.88},{"city":"Muscotah","state_name":"Kansas","lat":39.54018,"lng":-95.51894,"zip":"66058","miles_from_dt":25.92},{"city":"Saint Joseph","state_name":"Missouri","lat":39.68605,"lng":-94.91264,"zip":"64504","miles_from_dt":25.96},{"city":"Kansas City","state_name":"Missouri","lat":39.27653,"lng":-94.62967,"zip":"64154","miles_from_dt":26.01},{"city":"Kansas City","state_name":"Kansas","lat":39.15043,"lng":-94.68861,"zip":"66104","miles_from_dt":26.06},{"city":"Denison","state_name":"Kansas","lat":39.35643,"lng":-95.59908,"zip":"66419","miles_from_dt":26.33},{"city":"Denton","state_name":"Kansas","lat":39.70599,"lng":-95.27591,"zip":"66017","miles_from_dt":26.71},{"city":"De Soto","state_name":"Kansas","lat":38.96524,"lng":-94.97232,"zip":"66018","miles_from_dt":26.95},{"city":"Edgerton","state_name":"Missouri","lat":39.48334,"lng":-94.63856,"zip":"64444","miles_from_dt":26.95},{"city":"Kansas City","state_name":"Missouri","lat":39.21494,"lng":-94.63115,"zip":"64151","miles_from_dt":27},{"city":"Shawnee","state_name":"Kansas","lat":38.99378,"lng":-94.87149,"zip":"66286","miles_from_dt":27.13},{"city":"Kansas City","state_name":"Kansas","lat":39.11323,"lng":-94.69498,"zip":"66110","miles_from_dt":27.17},{"city":"Kansas City","state_name":"Kansas","lat":39.11246,"lng":-94.68842,"zip":"66102","miles_from_dt":27.49},{"city":"Shawnee","state_name":"Kansas","lat":39.01239,"lng":-94.81647,"zip":"66218","miles_from_dt":27.57},{"city":"Lawrence","state_name":"Kansas","lat":38.95408,"lng":-95.26078,"zip":"66045","miles_from_dt":27.96},{"city":"Everest","state_name":"Kansas","lat":39.67789,"lng":-95.40072,"zip":"66424","miles_from_dt":28},{"city":"Kansas City","state_name":"Missouri","lat":39.1686,"lng":-94.63192,"zip":"64168","miles_from_dt":28.17},{"city":"Riverside","state_name":"Missouri","lat":39.17052,"lng":-94.6303,"zip":"64150","miles_from_dt":28.19},{"city":"Lawrence","state_name":"Kansas","lat":38.97773,"lng":-95.34729,"zip":"66049","miles_from_dt":28.19},{"city":"Lenexa","state_name":"Kansas","lat":38.97248,"lng":-94.87446,"zip":"66227","miles_from_dt":28.37},{"city":"Lecompton","state_name":"Kansas","lat":39.01961,"lng":-95.43697,"zip":"66050","miles_from_dt":28.38},{"city":"Kansas City","state_name":"Missouri","lat":39.32081,"lng":-94.57749,"zip":"64165","miles_from_dt":28.45},{"city":"Grantville","state_name":"Kansas","lat":39.0989,"lng":-95.53725,"zip":"66429","miles_from_dt":28.48},{"city":"Kansas City","state_name":"Kansas","lat":39.06631,"lng":-94.70384,"zip":"66106","miles_from_dt":28.81},{"city":"Shawnee","state_name":"Kansas","lat":39.01148,"lng":-94.77741,"zip":"66217","miles_from_dt":28.86},{"city":"Agency","state_name":"Missouri","lat":39.63452,"lng":-94.71522,"zip":"64401","miles_from_dt":29.14},{"city":"Kansas City","state_name":"Missouri","lat":39.28031,"lng":-94.56801,"zip":"64155","miles_from_dt":29.23},{"city":"Smithville","state_name":"Missouri","lat":39.39007,"lng":-94.56483,"zip":"64089","miles_from_dt":29.27},{"city":"Kansas City","state_name":"Missouri","lat":39.21301,"lng":-94.57497,"zip":"64118","miles_from_dt":29.91},{"city":"Kansas City","state_name":"Kansas","lat":39.14402,"lng":-94.61104,"zip":"66115","miles_from_dt":29.92},{"city":"Shawnee","state_name":"Kansas","lat":39.01405,"lng":-94.74136,"zip":"66216","miles_from_dt":29.95}],"targetCityZipCode":"66020","targetCityState":"Kansas"},"__N_SSG":true}