{"pageProps":{"stateName":"Kansas","cityName":"el-dorado","nearbyCities":[{"city":"Towanda","state_name":"Kansas","lat":37.81673,"lng":-97.00539,"zip":"67144","miles_from_dt":11.55},{"city":"Rosalia","state_name":"Kansas","lat":37.8504,"lng":-96.58385,"zip":"67132","miles_from_dt":11.72},{"city":"Potwin","state_name":"Kansas","lat":37.94676,"lng":-96.99352,"zip":"67123","miles_from_dt":12.64},{"city":"Leon","state_name":"Kansas","lat":37.67038,"lng":-96.72945,"zip":"67074","miles_from_dt":12.86},{"city":"Cassoday","state_name":"Kansas","lat":38.0236,"lng":-96.65836,"zip":"66842","miles_from_dt":14.28},{"city":"Burns","state_name":"Kansas","lat":38.07283,"lng":-96.8719,"zip":"66840","miles_from_dt":15.98},{"city":"Augusta","state_name":"Kansas","lat":37.66099,"lng":-96.97388,"zip":"67010","miles_from_dt":16.13},{"city":"Benton","state_name":"Kansas","lat":37.82778,"lng":-97.11165,"zip":"67017","miles_from_dt":17.21},{"city":"Beaumont","state_name":"Kansas","lat":37.66175,"lng":-96.54701,"zip":"67012","miles_from_dt":18.85},{"city":"Whitewater","state_name":"Kansas","lat":37.97079,"lng":-97.12117,"zip":"67154","miles_from_dt":19.56},{"city":"Andover","state_name":"Kansas","lat":37.69575,"lng":-97.10725,"zip":"67002","miles_from_dt":19.94},{"city":"Wichita","state_name":"Kansas","lat":37.77749,"lng":-97.17274,"zip":"67228","miles_from_dt":21.08},{"city":"Greenwich","state_name":"Kansas","lat":37.78325,"lng":-97.2037,"zip":"67055","miles_from_dt":22.65},{"city":"Elbing","state_name":"Kansas","lat":38.05404,"lng":-97.12755,"zip":"67041","miles_from_dt":22.9},{"city":"Latham","state_name":"Kansas","lat":37.5445,"lng":-96.61632,"zip":"67072","miles_from_dt":23.22},{"city":"Wichita","state_name":"Kansas","lat":37.68655,"lng":-97.17087,"zip":"67230","miles_from_dt":23.27},{"city":"Wichita","state_name":"Kansas","lat":37.76898,"lng":-97.21915,"zip":"67226","miles_from_dt":23.69},{"city":"Douglass","state_name":"Kansas","lat":37.52163,"lng":-96.97322,"zip":"67039","miles_from_dt":24.51},{"city":"Wichita","state_name":"Kansas","lat":37.6368,"lng":-97.16802,"zip":"67232","miles_from_dt":24.98},{"city":"Matfield Green","state_name":"Kansas","lat":38.15532,"lng":-96.55403,"zip":"66862","miles_from_dt":24.99},{"city":"Eureka","state_name":"Kansas","lat":37.85131,"lng":-96.33863,"zip":"67045","miles_from_dt":25.13},{"city":"Rose Hill","state_name":"Kansas","lat":37.57677,"lng":-97.10451,"zip":"67133","miles_from_dt":25.17},{"city":"Wichita","state_name":"Kansas","lat":37.70363,"lng":-97.22461,"zip":"67206","miles_from_dt":25.4},{"city":"Atlanta","state_name":"Kansas","lat":37.47796,"lng":-96.76983,"zip":"67008","miles_from_dt":25.61},{"city":"Piedmont","state_name":"Kansas","lat":37.62015,"lng":-96.42392,"zip":"67122","miles_from_dt":25.85},{"city":"Kechi","state_name":"Kansas","lat":37.7951,"lng":-97.27044,"zip":"67067","miles_from_dt":26.1},{"city":"Cedar Point","state_name":"Kansas","lat":38.22846,"lng":-96.74329,"zip":"66843","miles_from_dt":26.36},{"city":"Wichita","state_name":"Kansas","lat":37.66567,"lng":-97.22923,"zip":"67207","miles_from_dt":26.77},{"city":"Florence","state_name":"Kansas","lat":38.22463,"lng":-96.92084,"zip":"66851","miles_from_dt":26.78},{"city":"Wichita","state_name":"Kansas","lat":37.75191,"lng":-97.27909,"zip":"67220","miles_from_dt":27.16},{"city":"Valley Center","state_name":"Kansas","lat":37.86062,"lng":-97.3058,"zip":"67147","miles_from_dt":27.78},{"city":"Peabody","state_name":"Kansas","lat":38.17438,"lng":-97.10385,"zip":"66866","miles_from_dt":27.98},{"city":"Wichita","state_name":"Kansas","lat":37.70449,"lng":-97.27928,"zip":"67208","miles_from_dt":28.16},{"city":"Wichita","state_name":"Kansas","lat":37.71931,"lng":-97.2935,"zip":"67260","miles_from_dt":28.55},{"city":"Wichita","state_name":"Kansas","lat":37.62944,"lng":-97.24604,"zip":"67210","miles_from_dt":28.82},{"city":"Wichita","state_name":"Kansas","lat":37.76931,"lng":-97.31643,"zip":"67219","miles_from_dt":28.89},{"city":"Mcconnell Afb","state_name":"Kansas","lat":37.63544,"lng":-97.25819,"zip":"67221","miles_from_dt":29.18},{"city":"Wichita","state_name":"Kansas","lat":37.66851,"lng":-97.28039,"zip":"67218","miles_from_dt":29.19},{"city":"Rock","state_name":"Kansas","lat":37.43261,"lng":-96.94958,"zip":"67131","miles_from_dt":29.87}],"targetCityZipCode":"67042","targetCityState":"Kansas"},"__N_SSG":true}