{"pageProps":{"stateName":"Kansas","cityName":"gove","nearbyCities":[{"city":"Quinter","state_name":"Kansas","lat":38.9924,"lng":-100.23145,"zip":"67752","miles_from_dt":15},{"city":"Grinnell","state_name":"Kansas","lat":39.0027,"lng":-100.65348,"zip":"67738","miles_from_dt":15.08},{"city":"Grainfield","state_name":"Kansas","lat":39.08798,"lng":-100.49367,"zip":"67737","miles_from_dt":16.27},{"city":"Healy","state_name":"Kansas","lat":38.6315,"lng":-100.63896,"zip":"67850","miles_from_dt":18.57},{"city":"Park","state_name":"Kansas","lat":39.11799,"lng":-100.35572,"zip":"67751","miles_from_dt":18.8},{"city":"Utica","state_name":"Kansas","lat":38.6847,"lng":-100.16072,"zip":"67584","miles_from_dt":19.42},{"city":"Collyer","state_name":"Kansas","lat":39.00837,"lng":-100.08569,"zip":"67631","miles_from_dt":22.17},{"city":"Dighton","state_name":"Kansas","lat":38.47911,"lng":-100.43961,"zip":"67839","miles_from_dt":25.93},{"city":"Oakley","state_name":"Kansas","lat":39.06507,"lng":-100.85643,"zip":"67748","miles_from_dt":26.38},{"city":"Arnold","state_name":"Kansas","lat":38.59935,"lng":-100.06518,"zip":"67515","miles_from_dt":27.14}],"targetCityZipCode":"67736","targetCityState":"Kansas"},"__N_SSG":true}