{"pageProps":{"stateName":"Kansas","cityName":"kismet","nearbyCities":[{"city":"Plains","state_name":"Kansas","lat":37.24489,"lng":-100.57358,"zip":"67869","miles_from_dt":11.08},{"city":"Liberal","state_name":"Kansas","lat":37.0943,"lng":-100.89864,"zip":"67901","miles_from_dt":11.96},{"city":"Liberal","state_name":"Kansas","lat":37.02953,"lng":-100.93165,"zip":"67905","miles_from_dt":16.7},{"city":"Moscow","state_name":"Kansas","lat":37.29886,"lng":-101.13934,"zip":"67952","miles_from_dt":20.58},{"city":"Sublette","state_name":"Kansas","lat":37.54887,"lng":-100.84342,"zip":"67877","miles_from_dt":21.89},{"city":"Copeland","state_name":"Kansas","lat":37.55615,"lng":-100.66289,"zip":"67837","miles_from_dt":22.89},{"city":"Forgan","state_name":"Oklahoma","lat":36.92585,"lng":-100.58497,"zip":"73938","miles_from_dt":23.83},{"city":"Satanta","state_name":"Kansas","lat":37.53255,"lng":-101.01829,"zip":"67870","miles_from_dt":24.45},{"city":"Tyrone","state_name":"Oklahoma","lat":36.95004,"lng":-101.05463,"zip":"73951","miles_from_dt":25.1},{"city":"Meade","state_name":"Kansas","lat":37.17178,"lng":-100.31807,"zip":"67864","miles_from_dt":25.55},{"city":"Turpin","state_name":"Oklahoma","lat":36.85193,"lng":-100.88621,"zip":"73950","miles_from_dt":27.22},{"city":"Montezuma","state_name":"Kansas","lat":37.56812,"lng":-100.45804,"zip":"67867","miles_from_dt":28.74}],"targetCityZipCode":"67859","targetCityState":"Kansas"},"__N_SSG":true}