{"pageProps":{"stateName":"Kansas","cityName":"louisburg","nearbyCities":[{"city":"Cleveland","state_name":"Missouri","lat":38.64888,"lng":-94.57405,"zip":"64734","miles_from_dt":7.17},{"city":"Drexel","state_name":"Missouri","lat":38.50034,"lng":-94.54329,"zip":"64742","miles_from_dt":8.7},{"city":"Freeman","state_name":"Missouri","lat":38.61054,"lng":-94.49304,"zip":"64746","miles_from_dt":9.86},{"city":"Paola","state_name":"Kansas","lat":38.57367,"lng":-94.86575,"zip":"66071","miles_from_dt":10.59},{"city":"Bucyrus","state_name":"Kansas","lat":38.73428,"lng":-94.68948,"zip":"66013","miles_from_dt":10.86},{"city":"Hillsdale","state_name":"Kansas","lat":38.6623,"lng":-94.852,"zip":"66036","miles_from_dt":11.44},{"city":"Spring Hill","state_name":"Kansas","lat":38.73518,"lng":-94.83397,"zip":"66083","miles_from_dt":14.02},{"city":"Peculiar","state_name":"Missouri","lat":38.70711,"lng":-94.46375,"zip":"64078","miles_from_dt":14.31},{"city":"Stilwell","state_name":"Kansas","lat":38.80069,"lng":-94.64729,"zip":"66085","miles_from_dt":15.44},{"city":"La Cygne","state_name":"Kansas","lat":38.35396,"lng":-94.73949,"zip":"66040","miles_from_dt":15.87},{"city":"Belton","state_name":"Missouri","lat":38.78906,"lng":-94.55204,"zip":"64012","miles_from_dt":15.93},{"city":"Amsterdam","state_name":"Missouri","lat":38.3615,"lng":-94.55298,"zip":"64723","miles_from_dt":16.2},{"city":"Fontana","state_name":"Kansas","lat":38.39047,"lng":-94.86056,"zip":"66026","miles_from_dt":16.52},{"city":"Archie","state_name":"Missouri","lat":38.49482,"lng":-94.36609,"zip":"64725","miles_from_dt":17.44},{"city":"Harrisonville","state_name":"Missouri","lat":38.62053,"lng":-94.3378,"zip":"64701","miles_from_dt":18.24},{"city":"Osawatomie","state_name":"Kansas","lat":38.47829,"lng":-94.98688,"zip":"66064","miles_from_dt":18.47},{"city":"Overland Park","state_name":"Kansas","lat":38.84786,"lng":-94.71437,"zip":"66221","miles_from_dt":18.8},{"city":"Olathe","state_name":"Kansas","lat":38.83677,"lng":-94.78455,"zip":"66062","miles_from_dt":18.92},{"city":"Raymore","state_name":"Missouri","lat":38.80082,"lng":-94.4483,"zip":"64083","miles_from_dt":19.53},{"city":"Overland Park","state_name":"Kansas","lat":38.86182,"lng":-94.67086,"zip":"66283","miles_from_dt":19.61},{"city":"Overland Park","state_name":"Kansas","lat":38.86176,"lng":-94.66831,"zip":"66223","miles_from_dt":19.61},{"city":"Overland Park","state_name":"Kansas","lat":38.86213,"lng":-94.62866,"zip":"66224","miles_from_dt":19.76},{"city":"Kansas City","state_name":"Missouri","lat":38.85387,"lng":-94.54688,"zip":"64147","miles_from_dt":20.19},{"city":"New Century","state_name":"Kansas","lat":38.82975,"lng":-94.89142,"zip":"66031","miles_from_dt":21.11},{"city":"Kansas City","state_name":"Missouri","lat":38.88046,"lng":-94.59652,"zip":"64145","miles_from_dt":21.27},{"city":"Kansas City","state_name":"Missouri","lat":38.87888,"lng":-94.57436,"zip":"64146","miles_from_dt":21.42},{"city":"Overland Park","state_name":"Kansas","lat":38.88834,"lng":-94.68613,"zip":"66225","miles_from_dt":21.46},{"city":"Adrian","state_name":"Missouri","lat":38.40533,"lng":-94.33742,"zip":"64720","miles_from_dt":21.6},{"city":"Amoret","state_name":"Missouri","lat":38.27388,"lng":-94.55188,"zip":"64722","miles_from_dt":21.91},{"city":"Gardner","state_name":"Kansas","lat":38.81519,"lng":-94.94114,"zip":"66030","miles_from_dt":21.98},{"city":"Edgerton","state_name":"Kansas","lat":38.75939,"lng":-95.00692,"zip":"66021","miles_from_dt":22.11},{"city":"Leawood","state_name":"Kansas","lat":38.89874,"lng":-94.63778,"zip":"66209","miles_from_dt":22.23},{"city":"Overland Park","state_name":"Kansas","lat":38.89885,"lng":-94.70517,"zip":"66213","miles_from_dt":22.24},{"city":"Olathe","state_name":"Kansas","lat":38.88007,"lng":-94.81695,"zip":"66063","miles_from_dt":22.32},{"city":"Grandview","state_name":"Missouri","lat":38.87996,"lng":-94.52312,"zip":"64030","miles_from_dt":22.33},{"city":"Olathe","state_name":"Kansas","lat":38.88056,"lng":-94.8175,"zip":"66051","miles_from_dt":22.36},{"city":"Kansas City","state_name":"Missouri","lat":38.86524,"lng":-94.46666,"zip":"64149","miles_from_dt":22.69},{"city":"Overland Park","state_name":"Kansas","lat":38.91712,"lng":-94.65891,"zip":"66251","miles_from_dt":23.43},{"city":"Overland Park","state_name":"Kansas","lat":38.92372,"lng":-94.70483,"zip":"66210","miles_from_dt":23.95},{"city":"Leawood","state_name":"Kansas","lat":38.92422,"lng":-94.6363,"zip":"66211","miles_from_dt":23.98},{"city":"Rantoul","state_name":"Kansas","lat":38.53828,"lng":-95.11371,"zip":"66079","miles_from_dt":24.17},{"city":"Lane","state_name":"Kansas","lat":38.43368,"lng":-95.08032,"zip":"66042","miles_from_dt":24.34},{"city":"Parker","state_name":"Kansas","lat":38.31772,"lng":-94.9741,"zip":"66072","miles_from_dt":24.35},{"city":"Lees Summit","state_name":"Missouri","lat":38.86601,"lng":-94.4039,"zip":"64082","miles_from_dt":24.56},{"city":"Olathe","state_name":"Kansas","lat":38.89633,"lng":-94.88029,"zip":"66061","miles_from_dt":24.74},{"city":"Wellsville","state_name":"Kansas","lat":38.69305,"lng":-95.10548,"zip":"66092","miles_from_dt":24.86},{"city":"East Lynne","state_name":"Missouri","lat":38.66596,"lng":-94.21827,"zip":"64743","miles_from_dt":25.21},{"city":"Kansas City","state_name":"Missouri","lat":38.93196,"lng":-94.54287,"zip":"64137","miles_from_dt":25.4},{"city":"Pleasanton","state_name":"Kansas","lat":38.20362,"lng":-94.69272,"zip":"66075","miles_from_dt":25.82},{"city":"Overland Park","state_name":"Kansas","lat":38.95354,"lng":-94.68828,"zip":"66282","miles_from_dt":25.95},{"city":"Pleasant Hill","state_name":"Missouri","lat":38.7691,"lng":-94.25639,"zip":"64080","miles_from_dt":25.99},{"city":"Overland Park","state_name":"Kansas","lat":38.9563,"lng":-94.68154,"zip":"66212","miles_from_dt":26.13},{"city":"Overland Park","state_name":"Kansas","lat":38.95625,"lng":-94.64439,"zip":"66207","miles_from_dt":26.16},{"city":"Kansas City","state_name":"Missouri","lat":38.9308,"lng":-94.48667,"zip":"64134","miles_from_dt":26.31},{"city":"Leawood","state_name":"Kansas","lat":38.95851,"lng":-94.61923,"zip":"66206","miles_from_dt":26.42},{"city":"Lenexa","state_name":"Kansas","lat":38.95649,"lng":-94.74304,"zip":"66215","miles_from_dt":26.43},{"city":"Lenexa","state_name":"Kansas","lat":38.95124,"lng":-94.77807,"zip":"66219","miles_from_dt":26.43},{"city":"Kansas City","state_name":"Missouri","lat":38.9581,"lng":-94.59715,"zip":"64114","miles_from_dt":26.55},{"city":"Kansas City","state_name":"Missouri","lat":38.95188,"lng":-94.54683,"zip":"64170","miles_from_dt":26.67},{"city":"Kansas City","state_name":"Missouri","lat":38.95723,"lng":-94.57449,"zip":"64131","miles_from_dt":26.7},{"city":"Kansas City","state_name":"Missouri","lat":38.95687,"lng":-94.57114,"zip":"64197","miles_from_dt":26.71},{"city":"Overland Park","state_name":"Kansas","lat":38.96356,"lng":-94.71397,"zip":"66214","miles_from_dt":26.73},{"city":"Kansas City","state_name":"Missouri","lat":38.95348,"lng":-94.54967,"zip":"64999","miles_from_dt":26.74},{"city":"Lenexa","state_name":"Kansas","lat":38.95507,"lng":-94.78662,"zip":"66250","miles_from_dt":26.79},{"city":"Garden City","state_name":"Missouri","lat":38.57353,"lng":-94.17399,"zip":"64747","miles_from_dt":26.87},{"city":"Lees Summit","state_name":"Missouri","lat":38.90971,"lng":-94.40953,"zip":"64081","miles_from_dt":26.9},{"city":"Mission","state_name":"Kansas","lat":38.96903,"lng":-94.67614,"zip":"66201","miles_from_dt":27.01},{"city":"Greenwood","state_name":"Missouri","lat":38.85052,"lng":-94.30203,"zip":"64034","miles_from_dt":27.4},{"city":"Lenexa","state_name":"Kansas","lat":38.96187,"lng":-94.8218,"zip":"66220","miles_from_dt":27.75},{"city":"Lees Summit","state_name":"Missouri","lat":38.9121,"lng":-94.3795,"zip":"64002","miles_from_dt":27.92},{"city":"Overland Park","state_name":"Kansas","lat":38.99282,"lng":-94.67741,"zip":"66204","miles_from_dt":28.65},{"city":"Lees Summit","state_name":"Missouri","lat":38.91224,"lng":-94.35341,"zip":"64063","miles_from_dt":28.74},{"city":"Kansas City","state_name":"Missouri","lat":38.98551,"lng":-94.5396,"zip":"64132","miles_from_dt":29.01},{"city":"Kansas City","state_name":"Missouri","lat":38.96852,"lng":-94.47088,"zip":"64138","miles_from_dt":29.04},{"city":"Greeley","state_name":"Kansas","lat":38.35855,"lng":-95.12842,"zip":"66033","miles_from_dt":29.07},{"city":"Prairie Village","state_name":"Kansas","lat":38.99936,"lng":-94.62998,"zip":"66208","miles_from_dt":29.18},{"city":"Lenexa","state_name":"Kansas","lat":39.00266,"lng":-94.67,"zip":"66276","miles_from_dt":29.33},{"city":"Lenexa","state_name":"Kansas","lat":38.97248,"lng":-94.87446,"zip":"66227","miles_from_dt":29.39},{"city":"Lees Summit","state_name":"Missouri","lat":38.95146,"lng":-94.40467,"zip":"64065","miles_from_dt":29.51},{"city":"Centerville","state_name":"Kansas","lat":38.22305,"lng":-94.98371,"zip":"66014","miles_from_dt":29.79}],"targetCityZipCode":"66053","targetCityState":"Kansas"},"__N_SSG":true}