{"pageProps":{"stateName":"Kansas","cityName":"moscow","nearbyCities":[{"city":"Hugoton","state_name":"Kansas","lat":37.1639,"lng":-101.33486,"zip":"67951","miles_from_dt":14.24},{"city":"Satanta","state_name":"Kansas","lat":37.53255,"lng":-101.01829,"zip":"67870","miles_from_dt":17.44},{"city":"Liberal","state_name":"Kansas","lat":37.0943,"lng":-100.89864,"zip":"67901","miles_from_dt":19.37},{"city":"Kismet","state_name":"Kansas","lat":37.23636,"lng":-100.77421,"zip":"67859","miles_from_dt":20.58},{"city":"Liberal","state_name":"Kansas","lat":37.02953,"lng":-100.93165,"zip":"67905","miles_from_dt":21.83},{"city":"Ulysses","state_name":"Kansas","lat":37.60489,"lng":-101.32384,"zip":"67880","miles_from_dt":23.42},{"city":"Sublette","state_name":"Kansas","lat":37.54887,"lng":-100.84342,"zip":"67877","miles_from_dt":23.71},{"city":"Tyrone","state_name":"Oklahoma","lat":36.95004,"lng":-101.05463,"zip":"73951","miles_from_dt":24.51},{"city":"Rolla","state_name":"Kansas","lat":37.17999,"lng":-101.61179,"zip":"67954","miles_from_dt":27.31}],"targetCityZipCode":"67952","targetCityState":"Kansas"},"__N_SSG":true}