{"pageProps":{"stateName":"Kansas","cityName":"parker","nearbyCities":[{"city":"Centerville","state_name":"Kansas","lat":38.22305,"lng":-94.98371,"zip":"66014","miles_from_dt":6.55},{"city":"Fontana","state_name":"Kansas","lat":38.39047,"lng":-94.86056,"zip":"66026","miles_from_dt":7.95},{"city":"Greeley","state_name":"Kansas","lat":38.35855,"lng":-95.12842,"zip":"66033","miles_from_dt":8.84},{"city":"Lane","state_name":"Kansas","lat":38.43368,"lng":-95.08032,"zip":"66042","miles_from_dt":9.86},{"city":"Osawatomie","state_name":"Kansas","lat":38.47829,"lng":-94.98688,"zip":"66064","miles_from_dt":11.1},{"city":"La Cygne","state_name":"Kansas","lat":38.35396,"lng":-94.73949,"zip":"66040","miles_from_dt":12.99},{"city":"Mound City","state_name":"Kansas","lat":38.1509,"lng":-94.84705,"zip":"66056","miles_from_dt":13.42},{"city":"Blue Mound","state_name":"Kansas","lat":38.09231,"lng":-94.98853,"zip":"66010","miles_from_dt":15.57},{"city":"Garnett","state_name":"Kansas","lat":38.2806,"lng":-95.27237,"zip":"66032","miles_from_dt":16.41},{"city":"Richmond","state_name":"Kansas","lat":38.4053,"lng":-95.25646,"zip":"66080","miles_from_dt":16.48},{"city":"Rantoul","state_name":"Kansas","lat":38.53828,"lng":-95.11371,"zip":"66079","miles_from_dt":16.99},{"city":"Pleasanton","state_name":"Kansas","lat":38.20362,"lng":-94.69272,"zip":"66075","miles_from_dt":17.21},{"city":"Kincaid","state_name":"Kansas","lat":38.0987,"lng":-95.17011,"zip":"66039","miles_from_dt":18.49},{"city":"Paola","state_name":"Kansas","lat":38.57367,"lng":-94.86575,"zip":"66071","miles_from_dt":18.61},{"city":"Princeton","state_name":"Kansas","lat":38.48321,"lng":-95.2621,"zip":"66078","miles_from_dt":19.36},{"city":"Welda","state_name":"Kansas","lat":38.16952,"lng":-95.32701,"zip":"66091","miles_from_dt":21.75},{"city":"Prescott","state_name":"Kansas","lat":38.07741,"lng":-94.71159,"zip":"66767","miles_from_dt":21.88},{"city":"Mapleton","state_name":"Kansas","lat":38.00377,"lng":-94.88848,"zip":"66754","miles_from_dt":22.15},{"city":"Amsterdam","state_name":"Missouri","lat":38.3615,"lng":-94.55298,"zip":"64723","miles_from_dt":23.08},{"city":"Amoret","state_name":"Missouri","lat":38.27388,"lng":-94.55188,"zip":"64722","miles_from_dt":23.15},{"city":"Louisburg","state_name":"Kansas","lat":38.57753,"lng":-94.67029,"zip":"66053","miles_from_dt":24.35},{"city":"Hillsdale","state_name":"Kansas","lat":38.6623,"lng":-94.852,"zip":"66036","miles_from_dt":24.67},{"city":"Fulton","state_name":"Kansas","lat":38.01473,"lng":-94.7162,"zip":"66738","miles_from_dt":25.18},{"city":"Williamsburg","state_name":"Kansas","lat":38.44631,"lng":-95.43015,"zip":"66095","miles_from_dt":26.3},{"city":"Bronson","state_name":"Kansas","lat":37.93923,"lng":-95.04001,"zip":"66716","miles_from_dt":26.35},{"city":"Ottawa","state_name":"Kansas","lat":38.61877,"lng":-95.27566,"zip":"66067","miles_from_dt":26.43},{"city":"Drexel","state_name":"Missouri","lat":38.50034,"lng":-94.54329,"zip":"64742","miles_from_dt":26.56},{"city":"Wellsville","state_name":"Kansas","lat":38.69305,"lng":-95.10548,"zip":"66092","miles_from_dt":26.85},{"city":"Foster","state_name":"Missouri","lat":38.15662,"lng":-94.50384,"zip":"64745","miles_from_dt":27.89},{"city":"Hume","state_name":"Missouri","lat":38.0689,"lng":-94.56862,"zip":"64752","miles_from_dt":27.96},{"city":"Colony","state_name":"Kansas","lat":38.06786,"lng":-95.40395,"zip":"66015","miles_from_dt":29.06},{"city":"Westphalia","state_name":"Kansas","lat":38.21003,"lng":-95.49771,"zip":"66093","miles_from_dt":29.43},{"city":"Spring Hill","state_name":"Kansas","lat":38.73518,"lng":-94.83397,"zip":"66083","miles_from_dt":29.78},{"city":"Moran","state_name":"Kansas","lat":37.91211,"lng":-95.16727,"zip":"66755","miles_from_dt":29.89}],"targetCityZipCode":"66072","targetCityState":"Kansas"},"__N_SSG":true}