{"pageProps":{"stateName":"Kansas","cityName":"randolph","nearbyCities":[{"city":"Leonardville","state_name":"Kansas","lat":39.38833,"lng":-96.86007,"zip":"66449","miles_from_dt":8.04},{"city":"Green","state_name":"Kansas","lat":39.48048,"lng":-96.97153,"zip":"67447","miles_from_dt":10.02},{"city":"Olsburg","state_name":"Kansas","lat":39.40963,"lng":-96.61617,"zip":"66520","miles_from_dt":10.53},{"city":"Riley","state_name":"Kansas","lat":39.31146,"lng":-96.83416,"zip":"66531","miles_from_dt":12.53},{"city":"Waterville","state_name":"Kansas","lat":39.67551,"lng":-96.76146,"zip":"66548","miles_from_dt":12.93},{"city":"Blue Rapids","state_name":"Kansas","lat":39.64083,"lng":-96.63948,"zip":"66411","miles_from_dt":13.03},{"city":"Barnes","state_name":"Kansas","lat":39.67124,"lng":-96.86706,"zip":"66933","miles_from_dt":13.32},{"city":"Greenleaf","state_name":"Kansas","lat":39.67209,"lng":-96.97313,"zip":"66943","miles_from_dt":16.16},{"city":"Fostoria","state_name":"Kansas","lat":39.42731,"lng":-96.49145,"zip":"66426","miles_from_dt":16.24},{"city":"Manhattan","state_name":"Kansas","lat":39.26287,"lng":-96.68663,"zip":"66503","miles_from_dt":16.45},{"city":"Westmoreland","state_name":"Kansas","lat":39.42978,"lng":-96.43045,"zip":"66549","miles_from_dt":19.37},{"city":"Palmer","state_name":"Kansas","lat":39.59928,"lng":-97.12547,"zip":"66962","miles_from_dt":19.74},{"city":"Frankfort","state_name":"Kansas","lat":39.66261,"lng":-96.449,"zip":"66427","miles_from_dt":21.55},{"city":"Linn","state_name":"Kansas","lat":39.67877,"lng":-97.11934,"zip":"66953","miles_from_dt":22.16},{"city":"Manhattan","state_name":"Kansas","lat":39.19596,"lng":-96.58148,"zip":"66506","miles_from_dt":22.95},{"city":"Manhattan","state_name":"Kansas","lat":39.18811,"lng":-96.59065,"zip":"66505","miles_from_dt":23.21},{"city":"Clay Center","state_name":"Kansas","lat":39.33503,"lng":-97.17997,"zip":"67432","miles_from_dt":23.68},{"city":"Saint George","state_name":"Kansas","lat":39.26169,"lng":-96.43896,"zip":"66535","miles_from_dt":24.25},{"city":"Morganville","state_name":"Kansas","lat":39.45791,"lng":-97.25697,"zip":"67468","miles_from_dt":25.35},{"city":"Milford","state_name":"Kansas","lat":39.12635,"lng":-96.87826,"zip":"66514","miles_from_dt":25.52},{"city":"Ogden","state_name":"Kansas","lat":39.11253,"lng":-96.70465,"zip":"66517","miles_from_dt":26.32},{"city":"Wakefield","state_name":"Kansas","lat":39.17628,"lng":-97.06653,"zip":"67487","miles_from_dt":26.34},{"city":"Marysville","state_name":"Kansas","lat":39.85803,"lng":-96.64287,"zip":"66508","miles_from_dt":26.56},{"city":"Clifton","state_name":"Kansas","lat":39.58959,"lng":-97.26493,"zip":"66937","miles_from_dt":26.59},{"city":"Fort Riley","state_name":"Kansas","lat":39.09302,"lng":-96.78963,"zip":"66442","miles_from_dt":27.32},{"city":"Manhattan","state_name":"Kansas","lat":39.14146,"lng":-96.52906,"zip":"66502","miles_from_dt":27.61},{"city":"Hanover","state_name":"Kansas","lat":39.88601,"lng":-96.87761,"zip":"66945","miles_from_dt":27.84},{"city":"Washington","state_name":"Kansas","lat":39.8294,"lng":-97.06524,"zip":"66968","miles_from_dt":27.85},{"city":"Home","state_name":"Kansas","lat":39.83335,"lng":-96.50165,"zip":"66438","miles_from_dt":28.14},{"city":"Bremen","state_name":"Kansas","lat":39.90837,"lng":-96.77794,"zip":"66412","miles_from_dt":28.94}],"targetCityZipCode":"66554","targetCityState":"Kansas"},"__N_SSG":true}