{"pageProps":{"stateName":"Kansas","cityName":"westphalia","nearbyCities":[{"city":"Welda","state_name":"Kansas","lat":38.16952,"lng":-95.32701,"zip":"66091","miles_from_dt":9.7},{"city":"Le Roy","state_name":"Kansas","lat":38.10202,"lng":-95.63526,"zip":"66857","miles_from_dt":10.56},{"city":"Colony","state_name":"Kansas","lat":38.06786,"lng":-95.40395,"zip":"66015","miles_from_dt":11.06},{"city":"Waverly","state_name":"Kansas","lat":38.35941,"lng":-95.61815,"zip":"66871","miles_from_dt":12.21},{"city":"Garnett","state_name":"Kansas","lat":38.2806,"lng":-95.27237,"zip":"66032","miles_from_dt":13.19},{"city":"Burlington","state_name":"Kansas","lat":38.21655,"lng":-95.75371,"zip":"66839","miles_from_dt":13.94},{"city":"Neosho Falls","state_name":"Kansas","lat":38.01862,"lng":-95.59602,"zip":"66758","miles_from_dt":14.25},{"city":"Williamsburg","state_name":"Kansas","lat":38.44631,"lng":-95.43015,"zip":"66095","miles_from_dt":16.71},{"city":"Richmond","state_name":"Kansas","lat":38.4053,"lng":-95.25646,"zip":"66080","miles_from_dt":18.8},{"city":"Kincaid","state_name":"Kansas","lat":38.0987,"lng":-95.17011,"zip":"66039","miles_from_dt":19.42},{"city":"Iola","state_name":"Kansas","lat":37.93597,"lng":-95.41069,"zip":"66749","miles_from_dt":19.49},{"city":"Melvern","state_name":"Kansas","lat":38.49297,"lng":-95.6104,"zip":"66510","miles_from_dt":20.45},{"city":"Piqua","state_name":"Kansas","lat":37.91469,"lng":-95.56694,"zip":"66761","miles_from_dt":20.72},{"city":"Gas","state_name":"Kansas","lat":37.92023,"lng":-95.34755,"zip":"66742","miles_from_dt":21.6},{"city":"Lebo","state_name":"Kansas","lat":38.39853,"lng":-95.81838,"zip":"66856","miles_from_dt":21.74},{"city":"La Harpe","state_name":"Kansas","lat":37.93421,"lng":-95.28466,"zip":"66751","miles_from_dt":22.29},{"city":"Greeley","state_name":"Kansas","lat":38.35855,"lng":-95.12842,"zip":"66033","miles_from_dt":22.54},{"city":"Princeton","state_name":"Kansas","lat":38.48321,"lng":-95.2621,"zip":"66078","miles_from_dt":22.78},{"city":"Gridley","state_name":"Kansas","lat":38.0716,"lng":-95.89874,"zip":"66852","miles_from_dt":23.84},{"city":"Yates Center","state_name":"Kansas","lat":37.87682,"lng":-95.73322,"zip":"66783","miles_from_dt":26.33},{"city":"Quenemo","state_name":"Kansas","lat":38.59711,"lng":-95.5344,"zip":"66528","miles_from_dt":26.77},{"city":"Hartford","state_name":"Kansas","lat":38.25872,"lng":-95.98735,"zip":"66854","miles_from_dt":26.85},{"city":"Moran","state_name":"Kansas","lat":37.91211,"lng":-95.16727,"zip":"66755","miles_from_dt":27.33},{"city":"Lane","state_name":"Kansas","lat":38.43368,"lng":-95.08032,"zip":"66042","miles_from_dt":27.43},{"city":"Centerville","state_name":"Kansas","lat":38.22305,"lng":-94.98371,"zip":"66014","miles_from_dt":27.98},{"city":"Neosho Rapids","state_name":"Kansas","lat":38.36132,"lng":-95.98207,"zip":"66864","miles_from_dt":28.32},{"city":"Humboldt","state_name":"Kansas","lat":37.79882,"lng":-95.43577,"zip":"66748","miles_from_dt":28.56},{"city":"Blue Mound","state_name":"Kansas","lat":38.09231,"lng":-94.98853,"zip":"66010","miles_from_dt":28.9},{"city":"Pomona","state_name":"Kansas","lat":38.62811,"lng":-95.43917,"zip":"66076","miles_from_dt":29.01},{"city":"Lyndon","state_name":"Kansas","lat":38.60841,"lng":-95.67236,"zip":"66451","miles_from_dt":29.07},{"city":"Lamont","state_name":"Kansas","lat":38.11688,"lng":-96.02252,"zip":"66855","miles_from_dt":29.29},{"city":"Parker","state_name":"Kansas","lat":38.31772,"lng":-94.9741,"zip":"66072","miles_from_dt":29.43}],"targetCityZipCode":"66093","targetCityState":"Kansas"},"__N_SSG":true}