{"pageProps":{"stateName":"Kansas","cityName":"wilmore","nearbyCities":[{"city":"Sun City","state_name":"Kansas","lat":37.33284,"lng":-98.94434,"zip":"67143","miles_from_dt":10.94},{"city":"Coldwater","state_name":"Kansas","lat":37.16925,"lng":-99.28026,"zip":"67029","miles_from_dt":11.26},{"city":"Lake City","state_name":"Kansas","lat":37.21423,"lng":-98.88522,"zip":"67071","miles_from_dt":14.4},{"city":"Coats","state_name":"Kansas","lat":37.47226,"lng":-98.96561,"zip":"67028","miles_from_dt":16.03},{"city":"Protection","state_name":"Kansas","lat":37.16009,"lng":-99.49057,"zip":"67127","miles_from_dt":21.46},{"city":"Greensburg","state_name":"Kansas","lat":37.57658,"lng":-99.31884,"zip":"67054","miles_from_dt":22.78},{"city":"Hardtner","state_name":"Kansas","lat":37.05954,"lng":-98.77864,"zip":"67057","miles_from_dt":24.81},{"city":"Haviland","state_name":"Kansas","lat":37.65102,"lng":-99.10046,"zip":"67059","miles_from_dt":25.53},{"city":"Medicine Lodge","state_name":"Kansas","lat":37.27286,"lng":-98.65223,"zip":"67104","miles_from_dt":26.46},{"city":"Mullinville","state_name":"Kansas","lat":37.56448,"lng":-99.47914,"zip":"67109","miles_from_dt":27.28},{"city":"Sawyer","state_name":"Kansas","lat":37.48474,"lng":-98.6824,"zip":"67134","miles_from_dt":28.44}],"targetCityZipCode":"67155","targetCityState":"Kansas"},"__N_SSG":true}