{"pageProps":{"stateName":"Kansas","cityName":"woodbine","nearbyCities":[{"city":"Enterprise","state_name":"Kansas","lat":38.87712,"lng":-97.10399,"zip":"67441","miles_from_dt":8.65},{"city":"Herington","state_name":"Kansas","lat":38.68214,"lng":-96.89569,"zip":"67449","miles_from_dt":9.92},{"city":"Chapman","state_name":"Kansas","lat":38.95833,"lng":-97.01179,"zip":"67431","miles_from_dt":10.18},{"city":"White City","state_name":"Kansas","lat":38.79878,"lng":-96.76147,"zip":"66872","miles_from_dt":11},{"city":"Hope","state_name":"Kansas","lat":38.70094,"lng":-97.13157,"zip":"67451","miles_from_dt":12.01},{"city":"Junction City","state_name":"Kansas","lat":38.98199,"lng":-96.80289,"zip":"66441","miles_from_dt":14.4},{"city":"Ramona","state_name":"Kansas","lat":38.58761,"lng":-97.05853,"zip":"67475","miles_from_dt":16.53},{"city":"Abilene","state_name":"Kansas","lat":38.95632,"lng":-97.22104,"zip":"67410","miles_from_dt":16.91},{"city":"Lost Springs","state_name":"Kansas","lat":38.55653,"lng":-96.96315,"zip":"66859","miles_from_dt":17.87},{"city":"Burdick","state_name":"Kansas","lat":38.56207,"lng":-96.79665,"zip":"66838","miles_from_dt":19.69},{"city":"Dwight","state_name":"Kansas","lat":38.87427,"lng":-96.59789,"zip":"66849","miles_from_dt":20.17},{"city":"Wilsey","state_name":"Kansas","lat":38.61747,"lng":-96.66774,"zip":"66873","miles_from_dt":21.06},{"city":"Fort Riley","state_name":"Kansas","lat":39.09302,"lng":-96.78963,"zip":"66442","miles_from_dt":21.32},{"city":"Talmage","state_name":"Kansas","lat":39.02686,"lng":-97.25976,"zip":"67482","miles_from_dt":21.59},{"city":"Milford","state_name":"Kansas","lat":39.12635,"lng":-96.87826,"zip":"66514","miles_from_dt":21.93},{"city":"Tampa","state_name":"Kansas","lat":38.55322,"lng":-97.19856,"zip":"67483","miles_from_dt":22.09},{"city":"Lincolnville","state_name":"Kansas","lat":38.47462,"lng":-96.9207,"zip":"66858","miles_from_dt":23.64},{"city":"Ogden","state_name":"Kansas","lat":39.11253,"lng":-96.70465,"zip":"66517","miles_from_dt":24.8},{"city":"Wakefield","state_name":"Kansas","lat":39.17628,"lng":-97.06653,"zip":"67487","miles_from_dt":25.48},{"city":"Solomon","state_name":"Kansas","lat":38.97073,"lng":-97.40282,"zip":"67480","miles_from_dt":25.96},{"city":"Gypsum","state_name":"Kansas","lat":38.65826,"lng":-97.40756,"zip":"67448","miles_from_dt":26.3},{"city":"Durham","state_name":"Kansas","lat":38.50366,"lng":-97.27861,"zip":"67438","miles_from_dt":27.42},{"city":"Alta Vista","state_name":"Kansas","lat":38.86528,"lng":-96.44822,"zip":"66834","miles_from_dt":28.05},{"city":"Council Grove","state_name":"Kansas","lat":38.64383,"lng":-96.47187,"zip":"66846","miles_from_dt":29.12},{"city":"New Cambria","state_name":"Kansas","lat":38.91077,"lng":-97.49513,"zip":"67470","miles_from_dt":29.38}],"targetCityZipCode":"67492","targetCityState":"Kansas"},"__N_SSG":true}