{"pageProps":{"stateName":"Oregon","cityName":"ashland","nearbyCities":[{"city":"Talent","state_name":"Oregon","lat":42.18615,"lng":-122.80027,"zip":"97540","miles_from_dt":13.96},{"city":"Hornbrook","state_name":"California","lat":41.95384,"lng":-122.64853,"zip":"96044","miles_from_dt":15.11},{"city":"Phoenix","state_name":"Oregon","lat":42.26799,"lng":-122.81238,"zip":"97535","miles_from_dt":16.39},{"city":"Medford","state_name":"Oregon","lat":42.32757,"lng":-122.80068,"zip":"97504","miles_from_dt":18.24},{"city":"Medford","state_name":"Oregon","lat":42.2856,"lng":-122.89459,"zip":"97501","miles_from_dt":20.69},{"city":"Eagle Point","state_name":"Oregon","lat":42.46271,"lng":-122.66327,"zip":"97524","miles_from_dt":22.3},{"city":"Keno","state_name":"Oregon","lat":42.08036,"lng":-122.05796,"zip":"97627","miles_from_dt":24.88},{"city":"Central Point","state_name":"Oregon","lat":42.40927,"lng":-122.94718,"zip":"97502","miles_from_dt":27.61},{"city":"Yreka","state_name":"California","lat":41.76234,"lng":-122.65921,"zip":"96097","miles_from_dt":27.87},{"city":"Montague","state_name":"California","lat":41.76371,"lng":-122.36433,"zip":"96064","miles_from_dt":28.33},{"city":"Butte Falls","state_name":"Oregon","lat":42.56594,"lng":-122.46886,"zip":"97522","miles_from_dt":28.56},{"city":"Jacksonville","state_name":"Oregon","lat":42.13778,"lng":-123.10507,"zip":"97530","miles_from_dt":29.47}],"targetCityZipCode":"97520","targetCityState":"Oregon"},"__N_SSG":true}