{"pageProps":{"stateName":"Ohio","cityName":"fort-recovery","nearbyCities":[{"city":"Saint Henry","state_name":"Ohio","lat":40.40574,"lng":-84.62791,"zip":"45883","miles_from_dt":6.26},{"city":"Salamonia","state_name":"Indiana","lat":40.38665,"lng":-84.86465,"zip":"47381","miles_from_dt":6.44},{"city":"Coldwater","state_name":"Ohio","lat":40.48672,"lng":-84.67677,"zip":"45828","miles_from_dt":6.45},{"city":"Burkettsville","state_name":"Ohio","lat":40.35299,"lng":-84.64264,"zip":"45310","miles_from_dt":6.74},{"city":"New Weston","state_name":"Ohio","lat":40.32663,"lng":-84.65404,"zip":"45348","miles_from_dt":7.53},{"city":"Rossburg","state_name":"Ohio","lat":40.28684,"lng":-84.63368,"zip":"45362","miles_from_dt":10.37},{"city":"North Star","state_name":"Ohio","lat":40.32472,"lng":-84.57359,"zip":"45350","miles_from_dt":10.85},{"city":"Portland","state_name":"Indiana","lat":40.41874,"lng":-84.95896,"zip":"47371","miles_from_dt":11.22},{"city":"Montezuma","state_name":"Ohio","lat":40.48905,"lng":-84.54969,"zip":"45866","miles_from_dt":11.72},{"city":"Maria Stein","state_name":"Ohio","lat":40.39365,"lng":-84.51566,"zip":"45860","miles_from_dt":12.22},{"city":"Celina","state_name":"Ohio","lat":40.55266,"lng":-84.59664,"zip":"45822","miles_from_dt":12.62},{"city":"Union City","state_name":"Ohio","lat":40.21894,"lng":-84.76778,"zip":"45390","miles_from_dt":13.22},{"city":"Chickasaw","state_name":"Ohio","lat":40.43658,"lng":-84.49368,"zip":"45826","miles_from_dt":13.46},{"city":"Osgood","state_name":"Ohio","lat":40.33954,"lng":-84.49574,"zip":"45351","miles_from_dt":14.09},{"city":"Ansonia","state_name":"Ohio","lat":40.2146,"lng":-84.65627,"zip":"45303","miles_from_dt":14.29},{"city":"Saratoga","state_name":"Indiana","lat":40.23692,"lng":-84.91845,"zip":"47382","miles_from_dt":15},{"city":"Union City","state_name":"Indiana","lat":40.20625,"lng":-84.84671,"zip":"47390","miles_from_dt":15.01},{"city":"Bryant","state_name":"Indiana","lat":40.54597,"lng":-84.97018,"zip":"47326","miles_from_dt":15.07},{"city":"Yorkshire","state_name":"Ohio","lat":40.32799,"lng":-84.47901,"zip":"45388","miles_from_dt":15.2},{"city":"Versailles","state_name":"Ohio","lat":40.24511,"lng":-84.51314,"zip":"45380","miles_from_dt":16.76},{"city":"Ridgeville","state_name":"Indiana","lat":40.28553,"lng":-85.03439,"zip":"47380","miles_from_dt":17.45},{"city":"Geneva","state_name":"Indiana","lat":40.60298,"lng":-84.9638,"zip":"46740","miles_from_dt":17.57},{"city":"New Bremen","state_name":"Ohio","lat":40.4573,"lng":-84.39432,"zip":"45869","miles_from_dt":18.85},{"city":"Rockford","state_name":"Ohio","lat":40.67823,"lng":-84.6754,"zip":"45882","miles_from_dt":18.89},{"city":"Minster","state_name":"Ohio","lat":40.39379,"lng":-84.37219,"zip":"45865","miles_from_dt":19.77},{"city":"Berne","state_name":"Indiana","lat":40.6635,"lng":-84.92398,"zip":"46711","miles_from_dt":19.84},{"city":"Fort Loramie","state_name":"Ohio","lat":40.32995,"lng":-84.37806,"zip":"45845","miles_from_dt":20.21},{"city":"Winchester","state_name":"Indiana","lat":40.1679,"lng":-84.98667,"zip":"47394","miles_from_dt":20.97},{"city":"Mendon","state_name":"Ohio","lat":40.67079,"lng":-84.51356,"zip":"45862","miles_from_dt":21.78},{"city":"Russia","state_name":"Ohio","lat":40.23925,"lng":-84.39841,"zip":"45363","miles_from_dt":21.83},{"city":"Saint Marys","state_name":"Ohio","lat":40.57182,"lng":-84.3871,"zip":"45885","miles_from_dt":21.98},{"city":"Redkey","state_name":"Indiana","lat":40.33863,"lng":-85.15356,"zip":"47373","miles_from_dt":22.04},{"city":"Linn Grove","state_name":"Indiana","lat":40.64445,"lng":-85.03123,"zip":"46769","miles_from_dt":22.06},{"city":"Pennville","state_name":"Indiana","lat":40.50714,"lng":-85.14715,"zip":"47369","miles_from_dt":22.16},{"city":"Greenville","state_name":"Ohio","lat":40.09729,"lng":-84.64616,"zip":"45331","miles_from_dt":22.21},{"city":"Willshire","state_name":"Ohio","lat":40.73617,"lng":-84.76429,"zip":"45898","miles_from_dt":22.54},{"city":"Monroe","state_name":"Indiana","lat":40.7221,"lng":-84.91153,"zip":"46772","miles_from_dt":23.23},{"city":"Gettysburg","state_name":"Ohio","lat":40.11621,"lng":-84.49676,"zip":"45328","miles_from_dt":24.18},{"city":"New Knoxville","state_name":"Ohio","lat":40.4932,"lng":-84.30089,"zip":"45871","miles_from_dt":24.18},{"city":"Dunkirk","state_name":"Indiana","lat":40.39694,"lng":-85.20821,"zip":"47336","miles_from_dt":24.37},{"city":"Houston","state_name":"Ohio","lat":40.2481,"lng":-84.33209,"zip":"45333","miles_from_dt":24.56},{"city":"Palestine","state_name":"Ohio","lat":40.05006,"lng":-84.74432,"zip":"45352","miles_from_dt":24.83},{"city":"Bradford","state_name":"Ohio","lat":40.12535,"lng":-84.45699,"zip":"45308","miles_from_dt":24.89},{"city":"Petroleum","state_name":"Indiana","lat":40.61055,"lng":-85.15491,"zip":"46778","miles_from_dt":25.58},{"city":"Pleasant Mills","state_name":"Indiana","lat":40.77402,"lng":-84.84163,"zip":"46780","miles_from_dt":25.62},{"city":"Kettlersville","state_name":"Ohio","lat":40.44256,"lng":-84.25988,"zip":"45336","miles_from_dt":25.76},{"city":"Farmland","state_name":"Indiana","lat":40.181,"lng":-85.1318,"zip":"47340","miles_from_dt":25.77},{"city":"Ohio City","state_name":"Ohio","lat":40.78765,"lng":-84.67777,"zip":"45874","miles_from_dt":26.32},{"city":"Keystone","state_name":"Indiana","lat":40.59855,"lng":-85.18299,"zip":"46759","miles_from_dt":26.42},{"city":"Elgin","state_name":"Ohio","lat":40.74041,"lng":-84.47781,"zip":"45838","miles_from_dt":26.83},{"city":"Lynn","state_name":"Indiana","lat":40.04376,"lng":-84.9258,"zip":"47355","miles_from_dt":26.98},{"city":"Wren","state_name":"Ohio","lat":40.80088,"lng":-84.77491,"zip":"45899","miles_from_dt":27.02},{"city":"Hollansburg","state_name":"Ohio","lat":39.99967,"lng":-84.78776,"zip":"45332","miles_from_dt":28.39},{"city":"Venedocia","state_name":"Ohio","lat":40.76252,"lng":-84.4684,"zip":"45894","miles_from_dt":28.39},{"city":"Anna","state_name":"Ohio","lat":40.40068,"lng":-84.20756,"zip":"45302","miles_from_dt":28.43},{"city":"Covington","state_name":"Ohio","lat":40.12745,"lng":-84.35391,"zip":"45318","miles_from_dt":28.46},{"city":"Parker City","state_name":"Indiana","lat":40.18082,"lng":-85.20025,"zip":"47368","miles_from_dt":28.72},{"city":"Albany","state_name":"Indiana","lat":40.2787,"lng":-85.2672,"zip":"47320","miles_from_dt":28.94},{"city":"Spencerville","state_name":"Ohio","lat":40.71107,"lng":-84.36359,"zip":"45887","miles_from_dt":28.95},{"city":"Buckland","state_name":"Ohio","lat":40.62407,"lng":-84.26033,"zip":"45819","miles_from_dt":29.56},{"city":"Botkins","state_name":"Ohio","lat":40.45856,"lng":-84.18575,"zip":"45306","miles_from_dt":29.75},{"city":"New Madison","state_name":"Ohio","lat":39.97934,"lng":-84.70911,"zip":"45346","miles_from_dt":29.77}],"targetCityZipCode":"45846","targetCityState":"Ohio"},"__N_SSG":true}