{"pageProps":{"stateName":"Ohio","cityName":"martins-ferry","nearbyCities":[{"city":"Yorkville","state_name":"Ohio","lat":40.15811,"lng":-80.71301,"zip":"43971","miles_from_dt":3.1},{"city":"Bridgeport","state_name":"Ohio","lat":40.08708,"lng":-80.79255,"zip":"43912","miles_from_dt":3.36},{"city":"Colerain","state_name":"Ohio","lat":40.07001,"lng":-80.74028,"zip":"43916","miles_from_dt":3.83},{"city":"Mount Pleasant","state_name":"Ohio","lat":40.16723,"lng":-80.79993,"zip":"43939","miles_from_dt":3.87},{"city":"Lansing","state_name":"Ohio","lat":40.0752,"lng":-80.79123,"zip":"43934","miles_from_dt":3.99},{"city":"Tiltonsville","state_name":"Ohio","lat":40.17155,"lng":-80.69698,"zip":"43963","miles_from_dt":4.36},{"city":"Barton","state_name":"Ohio","lat":40.11159,"lng":-80.8408,"zip":"43905","miles_from_dt":4.78},{"city":"Blaine","state_name":"Ohio","lat":40.06774,"lng":-80.81552,"zip":"43909","miles_from_dt":5.17},{"city":"Short Creek","state_name":"West Virginia","lat":40.18622,"lng":-80.66453,"zip":"26058","miles_from_dt":6.29},{"city":"Wheeling","state_name":"West Virginia","lat":40.0693,"lng":-80.6508,"zip":"26003","miles_from_dt":6.6},{"city":"Maynard","state_name":"Ohio","lat":40.1309,"lng":-80.87904,"zip":"43937","miles_from_dt":6.73},{"city":"Rayland","state_name":"Ohio","lat":40.2242,"lng":-80.73269,"zip":"43943","miles_from_dt":6.94},{"city":"Dillonvale","state_name":"Ohio","lat":40.22396,"lng":-80.80546,"zip":"43917","miles_from_dt":7.4},{"city":"Windsor Heights","state_name":"West Virginia","lat":40.19748,"lng":-80.64567,"zip":"26075","miles_from_dt":7.55},{"city":"Neffs","state_name":"Ohio","lat":40.02863,"lng":-80.82541,"zip":"43940","miles_from_dt":7.68},{"city":"Beech Bottom","state_name":"West Virginia","lat":40.21662,"lng":-80.65965,"zip":"26030","miles_from_dt":8.02},{"city":"Bellaire","state_name":"Ohio","lat":40.0132,"lng":-80.80118,"zip":"43906","miles_from_dt":8.12},{"city":"Harrisville","state_name":"Ohio","lat":40.18205,"lng":-80.88728,"zip":"43974","miles_from_dt":8.17},{"city":"Benwood","state_name":"West Virginia","lat":40.00236,"lng":-80.71985,"zip":"26031","miles_from_dt":8.61},{"city":"West Liberty","state_name":"West Virginia","lat":40.16889,"lng":-80.59813,"zip":"26074","miles_from_dt":8.71},{"city":"Adena","state_name":"Ohio","lat":40.21691,"lng":-80.86637,"zip":"43901","miles_from_dt":8.77},{"city":"Triadelphia","state_name":"West Virginia","lat":40.07156,"lng":-80.59379,"zip":"26059","miles_from_dt":9.16},{"city":"Saint Clairsville","state_name":"Ohio","lat":40.09164,"lng":-80.92193,"zip":"43950","miles_from_dt":9.27},{"city":"Piney Fork","state_name":"Ohio","lat":40.25258,"lng":-80.81345,"zip":"43941","miles_from_dt":9.4},{"city":"Fairpoint","state_name":"Ohio","lat":40.12334,"lng":-80.9335,"zip":"43927","miles_from_dt":9.6},{"city":"Mcmechen","state_name":"West Virginia","lat":39.98389,"lng":-80.73104,"zip":"26040","miles_from_dt":9.78},{"city":"Smithfield","state_name":"Ohio","lat":40.26847,"lng":-80.78002,"zip":"43948","miles_from_dt":10.03},{"city":"Glencoe","state_name":"Ohio","lat":40.01088,"lng":-80.88172,"zip":"43928","miles_from_dt":10.43},{"city":"Valley Grove","state_name":"West Virginia","lat":40.10465,"lng":-80.54649,"zip":"26060","miles_from_dt":10.99},{"city":"Glen Dale","state_name":"West Virginia","lat":39.96329,"lng":-80.72595,"zip":"26038","miles_from_dt":11.22},{"city":"Bethany","state_name":"West Virginia","lat":40.18646,"lng":-80.55024,"zip":"26032","miles_from_dt":11.51},{"city":"Shadyside","state_name":"Ohio","lat":39.95448,"lng":-80.78755,"zip":"43947","miles_from_dt":11.89},{"city":"Bannock","state_name":"Ohio","lat":40.10164,"lng":-80.9749,"zip":"43972","miles_from_dt":11.9},{"city":"Brilliant","state_name":"Ohio","lat":40.27048,"lng":-80.63154,"zip":"43913","miles_from_dt":11.91},{"city":"Warnock","state_name":"Ohio","lat":40.02309,"lng":-80.94371,"zip":"43967","miles_from_dt":12.33},{"city":"Wellsburg","state_name":"West Virginia","lat":40.25008,"lng":-80.58037,"zip":"26070","miles_from_dt":12.55},{"city":"Mingo Junction","state_name":"Ohio","lat":40.30138,"lng":-80.67199,"zip":"43938","miles_from_dt":12.91},{"city":"New Athens","state_name":"Ohio","lat":40.18401,"lng":-80.99466,"zip":"43981","miles_from_dt":13.47},{"city":"Lafferty","state_name":"Ohio","lat":40.11475,"lng":-81.01405,"zip":"43951","miles_from_dt":13.88},{"city":"West Alexander","state_name":"Pennsylvania","lat":40.10493,"lng":-80.48744,"zip":"15376","miles_from_dt":14.09},{"city":"Dallas","state_name":"West Virginia","lat":39.98406,"lng":-80.54339,"zip":"26036","miles_from_dt":14.72},{"city":"Jacobsburg","state_name":"Ohio","lat":39.93917,"lng":-80.89588,"zip":"43933","miles_from_dt":14.9},{"city":"Belmont","state_name":"Ohio","lat":40.00926,"lng":-81.00596,"zip":"43718","miles_from_dt":15.63},{"city":"Moundsville","state_name":"West Virginia","lat":39.89764,"lng":-80.7107,"zip":"26041","miles_from_dt":15.82},{"city":"Steubenville","state_name":"Ohio","lat":40.35815,"lng":-80.70548,"zip":"43953","miles_from_dt":16.3},{"city":"Cadiz","state_name":"Ohio","lat":40.25697,"lng":-81.0205,"zip":"43907","miles_from_dt":16.87},{"city":"Follansbee","state_name":"West Virginia","lat":40.3344,"lng":-80.58494,"zip":"26037","miles_from_dt":16.96},{"city":"Morristown","state_name":"Ohio","lat":40.06393,"lng":-81.06942,"zip":"43759","miles_from_dt":17.32},{"city":"Bloomingdale","state_name":"Ohio","lat":40.37039,"lng":-80.8214,"zip":"43910","miles_from_dt":17.34},{"city":"Claysville","state_name":"Pennsylvania","lat":40.10845,"lng":-80.40926,"zip":"15323","miles_from_dt":18.2},{"city":"Colliers","state_name":"West Virginia","lat":40.3482,"lng":-80.55522,"zip":"26035","miles_from_dt":18.61},{"city":"Flushing","state_name":"Ohio","lat":40.14519,"lng":-81.10451,"zip":"43977","miles_from_dt":18.71},{"city":"Powhatan Point","state_name":"Ohio","lat":39.86367,"lng":-80.84875,"zip":"43942","miles_from_dt":18.72},{"city":"Hopedale","state_name":"Ohio","lat":40.36981,"lng":-80.90655,"zip":"43976","miles_from_dt":18.78},{"city":"West Finley","state_name":"Pennsylvania","lat":39.97973,"lng":-80.45083,"zip":"15377","miles_from_dt":18.85},{"city":"Avella","state_name":"Pennsylvania","lat":40.25404,"lng":-80.43757,"zip":"15312","miles_from_dt":18.89},{"city":"West Middletown","state_name":"Pennsylvania","lat":40.2432,"lng":-80.42519,"zip":"15379","miles_from_dt":19.14},{"city":"Steubenville","state_name":"Ohio","lat":40.39763,"lng":-80.66278,"zip":"43952","miles_from_dt":19.42},{"city":"Taylorstown","state_name":"Pennsylvania","lat":40.15564,"lng":-80.38548,"zip":"15365","miles_from_dt":19.54},{"city":"Alledonia","state_name":"Ohio","lat":39.88731,"lng":-80.95596,"zip":"43902","miles_from_dt":19.62},{"city":"Bethesda","state_name":"Ohio","lat":39.98907,"lng":-81.07938,"zip":"43719","miles_from_dt":19.71},{"city":"Holloway","state_name":"Ohio","lat":40.16168,"lng":-81.13155,"zip":"43985","miles_from_dt":20.25},{"city":"Richmond","state_name":"Ohio","lat":40.43623,"lng":-80.76853,"zip":"43944","miles_from_dt":21.51},{"city":"Jewett","state_name":"Ohio","lat":40.3784,"lng":-80.99036,"zip":"43986","miles_from_dt":21.56},{"city":"Glen Easton","state_name":"West Virginia","lat":39.81641,"lng":-80.66969,"zip":"26039","miles_from_dt":21.72},{"city":"Cameron","state_name":"West Virginia","lat":39.8284,"lng":-80.57985,"zip":"26033","miles_from_dt":22.4},{"city":"Weirton","state_name":"West Virginia","lat":40.42189,"lng":-80.56123,"zip":"26062","miles_from_dt":22.86},{"city":"East Springfield","state_name":"Ohio","lat":40.44583,"lng":-80.86242,"zip":"43925","miles_from_dt":22.91},{"city":"Wind Ridge","state_name":"Pennsylvania","lat":39.8725,"lng":-80.4692,"zip":"15380","miles_from_dt":22.99},{"city":"Graysville","state_name":"Pennsylvania","lat":39.9505,"lng":-80.37521,"zip":"15337","miles_from_dt":23.33},{"city":"Piedmont","state_name":"Ohio","lat":40.13886,"lng":-81.20296,"zip":"43983","miles_from_dt":23.89},{"city":"Beallsville","state_name":"Ohio","lat":39.83683,"lng":-81.00752,"zip":"43716","miles_from_dt":24.04},{"city":"New Rumley","state_name":"Ohio","lat":40.39926,"lng":-81.03393,"zip":"43984","miles_from_dt":24.09},{"city":"Barnesville","state_name":"Ohio","lat":39.98979,"lng":-81.17368,"zip":"43713","miles_from_dt":24.2},{"city":"Wolf Run","state_name":"Ohio","lat":40.46564,"lng":-80.88599,"zip":"43970","miles_from_dt":24.56},{"city":"Atlasburg","state_name":"Pennsylvania","lat":40.34216,"lng":-80.38289,"zip":"15004","miles_from_dt":24.63},{"city":"Langeloth","state_name":"Pennsylvania","lat":40.36353,"lng":-80.4008,"zip":"15054","miles_from_dt":24.84},{"city":"Burgettstown","state_name":"Pennsylvania","lat":40.39373,"lng":-80.43583,"zip":"15021","miles_from_dt":24.99},{"city":"Slovan","state_name":"Pennsylvania","lat":40.35949,"lng":-80.38501,"zip":"15078","miles_from_dt":25.29},{"city":"Hickory","state_name":"Pennsylvania","lat":40.28654,"lng":-80.32258,"zip":"15340","miles_from_dt":25.32},{"city":"Toronto","state_name":"Ohio","lat":40.48695,"lng":-80.66928,"zip":"43964","miles_from_dt":25.38},{"city":"Proctor","state_name":"West Virginia","lat":39.75338,"lng":-80.77396,"zip":"26055","miles_from_dt":25.64},{"city":"Nineveh","state_name":"Pennsylvania","lat":39.96223,"lng":-80.31107,"zip":"15353","miles_from_dt":25.94},{"city":"Deersville","state_name":"Ohio","lat":40.2978,"lng":-81.18821,"zip":"44693","miles_from_dt":25.97},{"city":"Amsterdam","state_name":"Ohio","lat":40.47042,"lng":-80.95131,"zip":"43903","miles_from_dt":26.07},{"city":"Fairview","state_name":"Ohio","lat":40.05755,"lng":-81.23689,"zip":"43736","miles_from_dt":26.1},{"city":"Prosperity","state_name":"Pennsylvania","lat":40.02813,"lng":-80.27205,"zip":"15329","miles_from_dt":26.31},{"city":"Cameron","state_name":"Ohio","lat":39.77532,"lng":-80.95288,"zip":"43914","miles_from_dt":26.35},{"city":"Clarington","state_name":"Ohio","lat":39.75775,"lng":-80.89729,"zip":"43915","miles_from_dt":26.46},{"city":"Washington","state_name":"Pennsylvania","lat":40.16411,"lng":-80.25304,"zip":"15301","miles_from_dt":26.57},{"city":"Scio","state_name":"Ohio","lat":40.40486,"lng":-81.09925,"zip":"43988","miles_from_dt":26.65},{"city":"Jerusalem","state_name":"Ohio","lat":39.85784,"lng":-81.12128,"zip":"43747","miles_from_dt":26.88},{"city":"Aleppo","state_name":"Pennsylvania","lat":39.79255,"lng":-80.48108,"zip":"15310","miles_from_dt":27.06},{"city":"Joffre","state_name":"Pennsylvania","lat":40.38056,"lng":-80.35975,"zip":"15053","miles_from_dt":27.24},{"city":"Bergholz","state_name":"Ohio","lat":40.50867,"lng":-80.87349,"zip":"43908","miles_from_dt":27.26},{"city":"Westland","state_name":"Pennsylvania","lat":40.27771,"lng":-80.27433,"zip":"15378","miles_from_dt":27.4},{"city":"Empire","state_name":"Ohio","lat":40.51068,"lng":-80.62252,"zip":"43926","miles_from_dt":27.5},{"city":"Sycamore","state_name":"Pennsylvania","lat":39.94557,"lng":-80.2849,"zip":"15364","miles_from_dt":27.7},{"city":"Malaga","state_name":"Ohio","lat":39.85623,"lng":-81.14677,"zip":"43757","miles_from_dt":27.95},{"city":"Irondale","state_name":"Ohio","lat":40.53145,"lng":-80.74699,"zip":"43932","miles_from_dt":28.07},{"city":"Freeport","state_name":"Ohio","lat":40.19111,"lng":-81.27688,"zip":"43973","miles_from_dt":28.15},{"city":"Stratton","state_name":"Ohio","lat":40.52343,"lng":-80.63025,"zip":"43961","miles_from_dt":28.26},{"city":"Meadow Lands","state_name":"Pennsylvania","lat":40.21807,"lng":-80.22469,"zip":"15347","miles_from_dt":28.66},{"city":"New Manchester","state_name":"West Virginia","lat":40.5211,"lng":-80.57022,"zip":"26056","miles_from_dt":28.99},{"city":"Houston","state_name":"Pennsylvania","lat":40.24533,"lng":-80.22061,"zip":"15342","miles_from_dt":29.34},{"city":"New Cumberland","state_name":"West Virginia","lat":40.53223,"lng":-80.5837,"zip":"26047","miles_from_dt":29.49},{"city":"Southview","state_name":"Pennsylvania","lat":40.33277,"lng":-80.2623,"zip":"15361","miles_from_dt":29.62},{"city":"Bulger","state_name":"Pennsylvania","lat":40.40805,"lng":-80.33053,"zip":"15019","miles_from_dt":29.65},{"city":"Holbrook","state_name":"Pennsylvania","lat":39.82381,"lng":-80.34728,"zip":"15341","miles_from_dt":29.88},{"city":"Midway","state_name":"Pennsylvania","lat":40.37695,"lng":-80.29113,"zip":"15060","miles_from_dt":29.95}],"targetCityZipCode":"43935","targetCityState":"Ohio"},"__N_SSG":true}