{"pageProps":{"stateName":"Ohio","cityName":"quincy","nearbyCities":[{"city":"De Graff","state_name":"Ohio","lat":40.30948,"lng":-83.91378,"zip":"43318","miles_from_dt":3.31},{"city":"Pemberton","state_name":"Ohio","lat":40.29252,"lng":-84.04274,"zip":"45353","miles_from_dt":3.65},{"city":"Maplewood","state_name":"Ohio","lat":40.37184,"lng":-84.04935,"zip":"45340","miles_from_dt":5.89},{"city":"Rosewood","state_name":"Ohio","lat":40.22056,"lng":-83.95651,"zip":"43070","miles_from_dt":6.08},{"city":"Port Jefferson","state_name":"Ohio","lat":40.33028,"lng":-84.09206,"zip":"45360","miles_from_dt":6.31},{"city":"Lewistown","state_name":"Ohio","lat":40.43927,"lng":-83.93221,"zip":"43333","miles_from_dt":9.4},{"city":"Conover","state_name":"Ohio","lat":40.17328,"lng":-84.01971,"zip":"45317","miles_from_dt":9.53},{"city":"Sidney","state_name":"Ohio","lat":40.2828,"lng":-84.15582,"zip":"45365","miles_from_dt":9.63},{"city":"Sidney","state_name":"Ohio","lat":40.28915,"lng":-84.16326,"zip":"45367","miles_from_dt":9.95},{"city":"Jackson Center","state_name":"Ohio","lat":40.44662,"lng":-84.04517,"zip":"45334","miles_from_dt":10.27},{"city":"Russells Point","state_name":"Ohio","lat":40.46754,"lng":-83.88857,"zip":"43348","miles_from_dt":11.99},{"city":"Bellefontaine","state_name":"Ohio","lat":40.36427,"lng":-83.75812,"zip":"43311","miles_from_dt":12.18},{"city":"West Liberty","state_name":"Ohio","lat":40.25316,"lng":-83.74711,"zip":"43357","miles_from_dt":12.68},{"city":"Fletcher","state_name":"Ohio","lat":40.14201,"lng":-84.09039,"zip":"45326","miles_from_dt":12.9},{"city":"Huntsville","state_name":"Ohio","lat":40.44632,"lng":-83.81207,"zip":"43324","miles_from_dt":12.93},{"city":"Saint Paris","state_name":"Ohio","lat":40.1172,"lng":-83.95514,"zip":"43072","miles_from_dt":13.16},{"city":"Anna","state_name":"Ohio","lat":40.40068,"lng":-84.20756,"zip":"45302","miles_from_dt":13.8},{"city":"Lakeview","state_name":"Ohio","lat":40.51794,"lng":-83.9191,"zip":"43331","miles_from_dt":14.85},{"city":"Botkins","state_name":"Ohio","lat":40.45856,"lng":-84.18575,"zip":"45306","miles_from_dt":15.19},{"city":"Westville","state_name":"Ohio","lat":40.10838,"lng":-83.83623,"zip":"43083","miles_from_dt":15.6},{"city":"Piqua","state_name":"Ohio","lat":40.16252,"lng":-84.23097,"zip":"45356","miles_from_dt":16.76},{"city":"Urbana","state_name":"Ohio","lat":40.11302,"lng":-83.77538,"zip":"43078","miles_from_dt":17.11},{"city":"New Hampshire","state_name":"Ohio","lat":40.55621,"lng":-83.95142,"zip":"45870","miles_from_dt":17.23},{"city":"Christiansburg","state_name":"Ohio","lat":40.05639,"lng":-84.02532,"zip":"45389","miles_from_dt":17.5},{"city":"Saint Johns","state_name":"Ohio","lat":40.54865,"lng":-84.08333,"zip":"45884","miles_from_dt":17.58},{"city":"Kettlersville","state_name":"Ohio","lat":40.44256,"lng":-84.25988,"zip":"45336","miles_from_dt":17.63},{"city":"Casstown","state_name":"Ohio","lat":40.06028,"lng":-84.07976,"zip":"45312","miles_from_dt":17.9},{"city":"Zanesfield","state_name":"Ohio","lat":40.33272,"lng":-83.63114,"zip":"43360","miles_from_dt":18.32},{"city":"Belle Center","state_name":"Ohio","lat":40.5346,"lng":-83.78029,"zip":"43310","miles_from_dt":18.79},{"city":"Mingo","state_name":"Ohio","lat":40.20795,"lng":-83.63797,"zip":"43047","miles_from_dt":19.16},{"city":"Houston","state_name":"Ohio","lat":40.2481,"lng":-84.33209,"zip":"45333","miles_from_dt":19.23},{"city":"Roundhead","state_name":"Ohio","lat":40.5768,"lng":-83.84518,"zip":"43346","miles_from_dt":19.84},{"city":"Cable","state_name":"Ohio","lat":40.17188,"lng":-83.64234,"zip":"43009","miles_from_dt":19.99},{"city":"Wapakoneta","state_name":"Ohio","lat":40.56991,"lng":-84.15197,"zip":"45895","miles_from_dt":20.35},{"city":"Rushsylvania","state_name":"Ohio","lat":40.47771,"lng":-83.65804,"zip":"43347","miles_from_dt":20.51},{"city":"Waynesfield","state_name":"Ohio","lat":40.60667,"lng":-83.93775,"zip":"45896","miles_from_dt":20.76},{"city":"East Liberty","state_name":"Ohio","lat":40.30525,"lng":-83.57738,"zip":"43319","miles_from_dt":21.08},{"city":"Uniopolis","state_name":"Ohio","lat":40.60244,"lng":-84.08583,"zip":"45888","miles_from_dt":21.16},{"city":"Middleburg","state_name":"Ohio","lat":40.28337,"lng":-83.57651,"zip":"43336","miles_from_dt":21.2},{"city":"Fort Loramie","state_name":"Ohio","lat":40.32995,"lng":-84.37806,"zip":"45845","miles_from_dt":21.27},{"city":"New Knoxville","state_name":"Ohio","lat":40.4932,"lng":-84.30089,"zip":"45871","miles_from_dt":21.39},{"city":"Tremont City","state_name":"Ohio","lat":40.01471,"lng":-83.83862,"zip":"45372","miles_from_dt":21.47},{"city":"Minster","state_name":"Ohio","lat":40.39379,"lng":-84.37219,"zip":"45865","miles_from_dt":21.73},{"city":"North Hampton","state_name":"Ohio","lat":39.98916,"lng":-83.94052,"zip":"45349","miles_from_dt":22.03},{"city":"Troy","state_name":"Ohio","lat":40.03353,"lng":-84.19588,"zip":"45373","miles_from_dt":22.17},{"city":"North Lewisburg","state_name":"Ohio","lat":40.21978,"lng":-83.57295,"zip":"43060","miles_from_dt":22.17},{"city":"Troy","state_name":"Ohio","lat":40.04409,"lng":-84.21768,"zip":"45374","miles_from_dt":22.2},{"city":"Russia","state_name":"Ohio","lat":40.23925,"lng":-84.39841,"zip":"45363","miles_from_dt":22.79},{"city":"Covington","state_name":"Ohio","lat":40.12745,"lng":-84.35391,"zip":"45318","miles_from_dt":23.51},{"city":"New Carlisle","state_name":"Ohio","lat":39.95567,"lng":-84.00734,"zip":"45344","miles_from_dt":24.32},{"city":"New Bremen","state_name":"Ohio","lat":40.4573,"lng":-84.39432,"zip":"45869","miles_from_dt":24.36},{"city":"West Mansfield","state_name":"Ohio","lat":40.41898,"lng":-83.53129,"zip":"43358","miles_from_dt":24.73},{"city":"Woodstock","state_name":"Ohio","lat":40.15764,"lng":-83.54223,"zip":"43084","miles_from_dt":25.18},{"city":"Ridgeway","state_name":"Ohio","lat":40.51341,"lng":-83.58167,"zip":"43345","miles_from_dt":25.22},{"city":"Springfield","state_name":"Ohio","lat":39.94811,"lng":-83.86481,"zip":"45504","miles_from_dt":25.48},{"city":"Raymond","state_name":"Ohio","lat":40.34368,"lng":-83.48388,"zip":"43067","miles_from_dt":26.13},{"city":"Springfield","state_name":"Ohio","lat":39.96073,"lng":-83.7682,"zip":"45503","miles_from_dt":26.33},{"city":"Buckland","state_name":"Ohio","lat":40.62407,"lng":-84.26033,"zip":"45819","miles_from_dt":26.49},{"city":"Pleasant Hill","state_name":"Ohio","lat":40.05067,"lng":-84.3511,"zip":"45359","miles_from_dt":26.58},{"city":"Yorkshire","state_name":"Ohio","lat":40.32799,"lng":-84.47901,"zip":"45388","miles_from_dt":26.58},{"city":"Lima","state_name":"Ohio","lat":40.67615,"lng":-84.12651,"zip":"45806","miles_from_dt":26.65},{"city":"Donnelsville","state_name":"Ohio","lat":39.91608,"lng":-83.94324,"zip":"45319","miles_from_dt":27.05},{"city":"Tipp City","state_name":"Ohio","lat":39.93885,"lng":-84.16357,"zip":"45371","miles_from_dt":27.28},{"city":"Alger","state_name":"Ohio","lat":40.68341,"lng":-83.8135,"zip":"45812","miles_from_dt":27.33},{"city":"Springfield","state_name":"Ohio","lat":39.92791,"lng":-83.81703,"zip":"45502","miles_from_dt":27.5},{"city":"Osgood","state_name":"Ohio","lat":40.33954,"lng":-84.49574,"zip":"45351","miles_from_dt":27.51},{"city":"Harrod","state_name":"Ohio","lat":40.70382,"lng":-83.91817,"zip":"45850","miles_from_dt":27.53},{"city":"Springfield","state_name":"Ohio","lat":39.92634,"lng":-83.80745,"zip":"45501","miles_from_dt":27.77},{"city":"Mechanicsburg","state_name":"Ohio","lat":40.05145,"lng":-83.56423,"zip":"43044","miles_from_dt":28.06},{"city":"Saint Marys","state_name":"Ohio","lat":40.57182,"lng":-84.3871,"zip":"45885","miles_from_dt":28.32},{"city":"Ludlow Falls","state_name":"Ohio","lat":40.00826,"lng":-84.34315,"zip":"45339","miles_from_dt":28.33},{"city":"Catawba","state_name":"Ohio","lat":39.99964,"lng":-83.6219,"zip":"43010","miles_from_dt":28.34},{"city":"Bradford","state_name":"Ohio","lat":40.12535,"lng":-84.45699,"zip":"45308","miles_from_dt":28.35},{"city":"McGuffey","state_name":"Ohio","lat":40.69305,"lng":-83.78574,"zip":"45859","miles_from_dt":28.45},{"city":"Lima","state_name":"Ohio","lat":40.71569,"lng":-84.06911,"zip":"45804","miles_from_dt":28.6},{"city":"Versailles","state_name":"Ohio","lat":40.24511,"lng":-84.51314,"zip":"45380","miles_from_dt":28.68},{"city":"Chickasaw","state_name":"Ohio","lat":40.43658,"lng":-84.49368,"zip":"45826","miles_from_dt":28.71},{"city":"Springfield","state_name":"Ohio","lat":39.89907,"lng":-83.85233,"zip":"45506","miles_from_dt":28.92},{"city":"Maria Stein","state_name":"Ohio","lat":40.39365,"lng":-84.51566,"zip":"45860","miles_from_dt":29.08},{"city":"Milford Center","state_name":"Ohio","lat":40.16932,"lng":-83.44975,"zip":"43045","miles_from_dt":29.43},{"city":"Springfield","state_name":"Ohio","lat":39.90737,"lng":-83.7615,"zip":"45505","miles_from_dt":29.85},{"city":"Medway","state_name":"Ohio","lat":39.87589,"lng":-84.02045,"zip":"45341","miles_from_dt":29.86},{"city":"Kenton","state_name":"Ohio","lat":40.64149,"lng":-83.61443,"zip":"43326","miles_from_dt":29.93}],"targetCityZipCode":"43343","targetCityState":"Ohio"},"__N_SSG":true}