{"pageProps":{"stateName":"Ohio","cityName":"shreve","nearbyCities":[{"city":"Lakeville","state_name":"Ohio","lat":40.6502,"lng":-82.13521,"zip":"44638","miles_from_dt":6.02},{"city":"Big Prairie","state_name":"Ohio","lat":40.60785,"lng":-82.08141,"zip":"44611","miles_from_dt":6.16},{"city":"Holmesville","state_name":"Ohio","lat":40.63182,"lng":-81.93601,"zip":"44633","miles_from_dt":6.44},{"city":"Nashville","state_name":"Ohio","lat":40.5874,"lng":-82.11662,"zip":"44661","miles_from_dt":8.29},{"city":"Wooster","state_name":"Ohio","lat":40.80714,"lng":-81.97971,"zip":"44691","miles_from_dt":8.61},{"city":"Loudonville","state_name":"Ohio","lat":40.64903,"lng":-82.22498,"zip":"44842","miles_from_dt":10.48},{"city":"Jeromesville","state_name":"Ohio","lat":40.79231,"lng":-82.17973,"zip":"44840","miles_from_dt":10.5},{"city":"Fredericksburg","state_name":"Ohio","lat":40.66665,"lng":-81.83393,"zip":"44627","miles_from_dt":10.55},{"city":"Glenmont","state_name":"Ohio","lat":40.538,"lng":-82.1551,"zip":"44628","miles_from_dt":12.25},{"city":"Apple Creek","state_name":"Ohio","lat":40.73313,"lng":-81.79625,"zip":"44606","miles_from_dt":12.78},{"city":"Hayesville","state_name":"Ohio","lat":40.77186,"lng":-82.25947,"zip":"44838","miles_from_dt":13.2},{"city":"Millersburg","state_name":"Ohio","lat":40.53861,"lng":-81.87162,"zip":"44654","miles_from_dt":13.4},{"city":"Mount Hope","state_name":"Ohio","lat":40.62382,"lng":-81.77487,"zip":"44660","miles_from_dt":14.28},{"city":"Killbuck","state_name":"Ohio","lat":40.47996,"lng":-82.03347,"zip":"44637","miles_from_dt":14.43},{"city":"Berlin","state_name":"Ohio","lat":40.56078,"lng":-81.80139,"zip":"44610","miles_from_dt":15.04},{"city":"Perrysville","state_name":"Ohio","lat":40.66748,"lng":-82.31871,"zip":"44864","miles_from_dt":15.1},{"city":"Kidron","state_name":"Ohio","lat":40.74234,"lng":-81.74703,"zip":"44636","miles_from_dt":15.44},{"city":"Smithville","state_name":"Ohio","lat":40.87254,"lng":-81.85983,"zip":"44677","miles_from_dt":15.57},{"city":"Brinkhaven","state_name":"Ohio","lat":40.4591,"lng":-82.14554,"zip":"43006","miles_from_dt":16.95},{"city":"Orrville","state_name":"Ohio","lat":40.83386,"lng":-81.76495,"zip":"44667","miles_from_dt":17.24},{"city":"Mount Eaton","state_name":"Ohio","lat":40.6948,"lng":-81.70191,"zip":"44659","miles_from_dt":17.38},{"city":"West Salem","state_name":"Ohio","lat":40.94,"lng":-82.1005,"zip":"44287","miles_from_dt":17.67},{"city":"Polk","state_name":"Ohio","lat":40.92082,"lng":-82.19483,"zip":"44866","miles_from_dt":18.11},{"city":"Burbank","state_name":"Ohio","lat":40.95081,"lng":-81.99935,"zip":"44214","miles_from_dt":18.14},{"city":"Charm","state_name":"Ohio","lat":40.50603,"lng":-81.78447,"zip":"44617","miles_from_dt":18.17},{"city":"Winesburg","state_name":"Ohio","lat":40.61353,"lng":-81.69391,"zip":"44690","miles_from_dt":18.55},{"city":"Dalton","state_name":"Ohio","lat":40.7722,"lng":-81.68925,"zip":"44618","miles_from_dt":18.92},{"city":"Danville","state_name":"Ohio","lat":40.46646,"lng":-82.25242,"zip":"43014","miles_from_dt":19.23},{"city":"Creston","state_name":"Ohio","lat":40.95561,"lng":-81.9133,"zip":"44217","miles_from_dt":19.43},{"city":"Wilmot","state_name":"Ohio","lat":40.65071,"lng":-81.66209,"zip":"44689","miles_from_dt":19.65},{"city":"Ashland","state_name":"Ohio","lat":40.87335,"lng":-82.32096,"zip":"44805","miles_from_dt":19.76},{"city":"Walnut Creek","state_name":"Ohio","lat":40.53941,"lng":-81.71189,"zip":"44687","miles_from_dt":19.78},{"city":"Lucas","state_name":"Ohio","lat":40.6886,"lng":-82.40959,"zip":"44843","miles_from_dt":19.8},{"city":"Sterling","state_name":"Ohio","lat":40.93667,"lng":-81.83502,"zip":"44276","miles_from_dt":19.98},{"city":"Dundee","state_name":"Ohio","lat":40.61249,"lng":-81.66157,"zip":"44624","miles_from_dt":20.21},{"city":"Nankin","state_name":"Ohio","lat":40.92082,"lng":-82.28186,"zip":"44848","miles_from_dt":20.65},{"city":"Blissfield","state_name":"Ohio","lat":40.39177,"lng":-81.97223,"zip":"43805","miles_from_dt":20.76},{"city":"Butler","state_name":"Ohio","lat":40.55705,"lng":-82.39929,"zip":"44822","miles_from_dt":21.32},{"city":"Marshallville","state_name":"Ohio","lat":40.90796,"lng":-81.71845,"zip":"44645","miles_from_dt":22.35},{"city":"Baltic","state_name":"Ohio","lat":40.4545,"lng":-81.73704,"zip":"43804","miles_from_dt":22.45},{"city":"Brewster","state_name":"Ohio","lat":40.71338,"lng":-81.60026,"zip":"44613","miles_from_dt":22.77},{"city":"Beach City","state_name":"Ohio","lat":40.65241,"lng":-81.59714,"zip":"44608","miles_from_dt":23.02},{"city":"Rittman","state_name":"Ohio","lat":40.96317,"lng":-81.77696,"zip":"44270","miles_from_dt":23.18},{"city":"Sugarcreek","state_name":"Ohio","lat":40.50018,"lng":-81.6625,"zip":"44681","miles_from_dt":23.43},{"city":"North Lawrence","state_name":"Ohio","lat":40.84232,"lng":-81.63202,"zip":"44666","miles_from_dt":23.53},{"city":"Mansfield","state_name":"Ohio","lat":40.77753,"lng":-82.46915,"zip":"44905","miles_from_dt":23.71},{"city":"Westfield Center","state_name":"Ohio","lat":41.02814,"lng":-81.92764,"zip":"44251","miles_from_dt":24.03},{"city":"Homerville","state_name":"Ohio","lat":41.0316,"lng":-82.12246,"zip":"44235","miles_from_dt":24.1},{"city":"Howard","state_name":"Ohio","lat":40.40335,"lng":-82.29783,"zip":"43028","miles_from_dt":24.16},{"city":"Warsaw","state_name":"Ohio","lat":40.33349,"lng":-82.05163,"zip":"43844","miles_from_dt":24.56},{"city":"Lodi","state_name":"Ohio","lat":41.04522,"lng":-82.01282,"zip":"44254","miles_from_dt":24.6},{"city":"Seville","state_name":"Ohio","lat":41.0291,"lng":-81.87739,"zip":"44273","miles_from_dt":24.83},{"city":"Navarre","state_name":"Ohio","lat":40.71036,"lng":-81.55468,"zip":"44662","miles_from_dt":25.14},{"city":"Keene","state_name":"Ohio","lat":40.34169,"lng":-81.8657,"zip":"43828","miles_from_dt":25.53},{"city":"Mansfield","state_name":"Ohio","lat":40.7589,"lng":-82.51095,"zip":"44902","miles_from_dt":25.57},{"city":"Massillon","state_name":"Ohio","lat":40.79537,"lng":-81.56575,"zip":"44647","miles_from_dt":25.58},{"city":"Walhonding","state_name":"Ohio","lat":40.33485,"lng":-82.17711,"zip":"43843","miles_from_dt":25.6},{"city":"Sullivan","state_name":"Ohio","lat":41.03352,"lng":-82.21993,"zip":"44880","miles_from_dt":25.71},{"city":"Mansfield","state_name":"Ohio","lat":40.76391,"lng":-82.51247,"zip":"44901","miles_from_dt":25.71},{"city":"Mansfield","state_name":"Ohio","lat":40.72761,"lng":-82.52129,"zip":"44907","miles_from_dt":25.79},{"city":"Doylestown","state_name":"Ohio","lat":40.96237,"lng":-81.69064,"zip":"44230","miles_from_dt":26.02},{"city":"Savannah","state_name":"Ohio","lat":40.96859,"lng":-82.36631,"zip":"44874","miles_from_dt":26.03},{"city":"Strasburg","state_name":"Ohio","lat":40.60174,"lng":-81.54512,"zip":"44680","miles_from_dt":26.32},{"city":"Fresno","state_name":"Ohio","lat":40.36407,"lng":-81.76116,"zip":"43824","miles_from_dt":26.6},{"city":"Mansfield","state_name":"Ohio","lat":40.77624,"lng":-82.52655,"zip":"44903","miles_from_dt":26.61},{"city":"Bellville","state_name":"Ohio","lat":40.60135,"lng":-82.52814,"zip":"44813","miles_from_dt":26.74},{"city":"Canal Fulton","state_name":"Ohio","lat":40.88689,"lng":-81.58747,"zip":"44614","miles_from_dt":27.04},{"city":"Chippewa Lake","state_name":"Ohio","lat":41.07195,"lng":-81.8994,"zip":"44215","miles_from_dt":27.32},{"city":"Nova","state_name":"Ohio","lat":41.02103,"lng":-82.32636,"zip":"44859","miles_from_dt":27.59},{"city":"Massillon","state_name":"Ohio","lat":40.75416,"lng":-81.514,"zip":"44648","miles_from_dt":27.6},{"city":"Wadsworth","state_name":"Ohio","lat":41.0276,"lng":-81.72765,"zip":"44282","miles_from_dt":28.3},{"city":"Spencer","state_name":"Ohio","lat":41.09976,"lng":-82.09927,"zip":"44275","miles_from_dt":28.55},{"city":"Medina","state_name":"Ohio","lat":41.1016,"lng":-82.12428,"zip":"44258","miles_from_dt":28.87},{"city":"Mansfield","state_name":"Ohio","lat":40.76413,"lng":-82.57778,"zip":"44906","miles_from_dt":29.08},{"city":"Clinton","state_name":"Ohio","lat":40.93848,"lng":-81.58397,"zip":"44216","miles_from_dt":29.15},{"city":"Gambier","state_name":"Ohio","lat":40.33765,"lng":-82.34135,"zip":"43022","miles_from_dt":29.19},{"city":"Massillon","state_name":"Ohio","lat":40.81055,"lng":-81.49835,"zip":"44646","miles_from_dt":29.26},{"city":"Wadsworth","state_name":"Ohio","lat":41.05851,"lng":-81.73854,"zip":"44281","miles_from_dt":29.78},{"city":"Coshocton","state_name":"Ohio","lat":40.27268,"lng":-81.88347,"zip":"43812","miles_from_dt":29.79}],"targetCityZipCode":"44676","targetCityState":"Ohio"},"__N_SSG":true}