{"pageProps":{"stateName":"Texas","cityName":"cactus","nearbyCities":[{"city":"Dumas","state_name":"Texas","lat":35.89513,"lng":-102.02756,"zip":"79029","miles_from_dt":10.29},{"city":"Sunray","state_name":"Texas","lat":36.13538,"lng":-101.79255,"zip":"79086","miles_from_dt":12.96},{"city":"Stratford","state_name":"Texas","lat":36.25502,"lng":-102.01825,"zip":"79084","miles_from_dt":14.76},{"city":"Hartley","state_name":"Texas","lat":35.87456,"lng":-102.37903,"zip":"79044","miles_from_dt":24.5},{"city":"Morse","state_name":"Texas","lat":35.99616,"lng":-101.52733,"zip":"79062","miles_from_dt":26.29},{"city":"Stinnett","state_name":"Texas","lat":35.87359,"lng":-101.51422,"zip":"79083","miles_from_dt":29.26},{"city":"Gruver","state_name":"Texas","lat":36.30113,"lng":-101.57841,"zip":"79040","miles_from_dt":29.29}],"targetCityZipCode":"79013","targetCityState":"Texas"},"__N_SSG":true}