{"pageProps":{"stateName":"Texas","cityName":"combes","nearbyCities":[{"city":"Harlingen","state_name":"Texas","lat":26.20739,"lng":-97.73507,"zip":"78551","miles_from_dt":2.91},{"city":"Harlingen","state_name":"Texas","lat":26.20996,"lng":-97.6953,"zip":"78553","miles_from_dt":3.52},{"city":"Harlingen","state_name":"Texas","lat":26.19664,"lng":-97.75083,"zip":"78552","miles_from_dt":3.84},{"city":"Harlingen","state_name":"Texas","lat":26.25469,"lng":-97.66406,"zip":"78550","miles_from_dt":4.19},{"city":"Santa Rosa","state_name":"Texas","lat":26.26999,"lng":-97.82187,"zip":"78593","miles_from_dt":5.8},{"city":"Sebastian","state_name":"Texas","lat":26.34704,"lng":-97.8037,"zip":"78594","miles_from_dt":8.08},{"city":"Lyford","state_name":"Texas","lat":26.37417,"lng":-97.73851,"zip":"78569","miles_from_dt":8.6},{"city":"La Feria","state_name":"Texas","lat":26.14549,"lng":-97.82765,"zip":"78559","miles_from_dt":9.33},{"city":"La Villa","state_name":"Texas","lat":26.28809,"lng":-97.89293,"zip":"78562","miles_from_dt":10.38},{"city":"San Benito","state_name":"Texas","lat":26.10715,"lng":-97.64576,"zip":"78586","miles_from_dt":11.14},{"city":"Mercedes","state_name":"Texas","lat":26.17149,"lng":-97.9112,"zip":"78570","miles_from_dt":12.4},{"city":"Los Indios","state_name":"Texas","lat":26.04607,"lng":-97.73866,"zip":"78567","miles_from_dt":14.01},{"city":"Santa Maria","state_name":"Texas","lat":26.06516,"lng":-97.8461,"zip":"78592","miles_from_dt":14.56},{"city":"Weslaco","state_name":"Texas","lat":26.2181,"lng":-97.99087,"zip":"78599","miles_from_dt":16.26},{"city":"Rio Hondo","state_name":"Texas","lat":26.28166,"lng":-97.4686,"zip":"78583","miles_from_dt":16.45},{"city":"Edcouch","state_name":"Texas","lat":26.36812,"lng":-97.97152,"zip":"78538","miles_from_dt":17},{"city":"Raymondville","state_name":"Texas","lat":26.50065,"lng":-97.75087,"zip":"78580","miles_from_dt":17.33},{"city":"Progreso","state_name":"Texas","lat":26.0892,"lng":-97.94627,"zip":"78579","miles_from_dt":17.33},{"city":"Elsa","state_name":"Texas","lat":26.30117,"lng":-98.00508,"zip":"78543","miles_from_dt":17.36},{"city":"La Blanca","state_name":"Texas","lat":26.29276,"lng":-98.02366,"zip":"78558","miles_from_dt":18.39},{"city":"Lozano","state_name":"Texas","lat":26.10685,"lng":-97.4796,"zip":"78568","miles_from_dt":18.46},{"city":"San Perlita","state_name":"Texas","lat":26.50401,"lng":-97.63486,"zip":"78590","miles_from_dt":18.51},{"city":"Olmito","state_name":"Texas","lat":26.03234,"lng":-97.55083,"zip":"78575","miles_from_dt":18.68},{"city":"Lasara","state_name":"Texas","lat":26.4687,"lng":-97.91595,"zip":"78561","miles_from_dt":18.95},{"city":"Weslaco","state_name":"Texas","lat":26.10668,"lng":-97.99856,"zip":"78596","miles_from_dt":19.3},{"city":"Brownsville","state_name":"Texas","lat":26.00233,"lng":-97.57273,"zip":"78523","miles_from_dt":19.66},{"city":"Brownsville","state_name":"Texas","lat":26.00242,"lng":-97.57114,"zip":"78522","miles_from_dt":19.7},{"city":"Los Fresnos","state_name":"Texas","lat":26.13543,"lng":-97.42184,"zip":"78566","miles_from_dt":20.76},{"city":"Donna","state_name":"Texas","lat":26.17322,"lng":-98.05744,"zip":"78537","miles_from_dt":20.93},{"city":"Brownsville","state_name":"Texas","lat":25.96564,"lng":-97.55103,"zip":"78520","miles_from_dt":22.52},{"city":"Hargill","state_name":"Texas","lat":26.48528,"lng":-98.02329,"zip":"78549","miles_from_dt":24.32},{"city":"Brownsville","state_name":"Texas","lat":25.99587,"lng":-97.44991,"zip":"78526","miles_from_dt":24.71},{"city":"Alamo","state_name":"Texas","lat":26.14256,"lng":-98.11977,"zip":"78516","miles_from_dt":25.23},{"city":"Edinburg","state_name":"Texas","lat":26.44412,"lng":-98.09163,"zip":"78542","miles_from_dt":26.06},{"city":"Edinburg","state_name":"Texas","lat":26.54911,"lng":-97.99164,"zip":"78540","miles_from_dt":26.19},{"city":"Port Mansfield","state_name":"Texas","lat":26.52363,"lng":-97.42327,"zip":"78598","miles_from_dt":26.85},{"city":"San Juan","state_name":"Texas","lat":26.15349,"lng":-98.15979,"zip":"78589","miles_from_dt":27.42},{"city":"Edinburg","state_name":"Texas","lat":26.28,"lng":-98.18311,"zip":"78539","miles_from_dt":28.13},{"city":"Pharr","state_name":"Texas","lat":26.1665,"lng":-98.19082,"zip":"78577","miles_from_dt":29.11},{"city":"Port Isabel","state_name":"Texas","lat":26.05336,"lng":-97.31004,"zip":"78578","miles_from_dt":29.45}],"targetCityZipCode":"78535","targetCityState":"Texas"},"__N_SSG":true}