{"pageProps":{"stateName":"Texas","cityName":"judson","nearbyCities":[{"city":"Longview","state_name":"Texas","lat":32.57841,"lng":-94.77928,"zip":"75607","miles_from_dt":1.44},{"city":"Longview","state_name":"Texas","lat":32.58385,"lng":-94.71554,"zip":"75605","miles_from_dt":2.37},{"city":"Longview","state_name":"Texas","lat":32.55609,"lng":-94.80149,"zip":"75608","miles_from_dt":3.34},{"city":"Longview","state_name":"Texas","lat":32.5086,"lng":-94.72414,"zip":"75601","miles_from_dt":5.63},{"city":"Longview","state_name":"Texas","lat":32.49574,"lng":-94.73846,"zip":"75606","miles_from_dt":6.28},{"city":"Longview","state_name":"Texas","lat":32.51374,"lng":-94.82919,"zip":"75604","miles_from_dt":6.53},{"city":"White Oak","state_name":"Texas","lat":32.53364,"lng":-94.86083,"zip":"75693","miles_from_dt":7.08},{"city":"Longview","state_name":"Texas","lat":32.46434,"lng":-94.72847,"zip":"75615","miles_from_dt":8.51},{"city":"Gilmer","state_name":"Texas","lat":32.68375,"lng":-94.87317,"zip":"75645","miles_from_dt":9.6},{"city":"Diana","state_name":"Texas","lat":32.7152,"lng":-94.68133,"zip":"75640","miles_from_dt":9.94},{"city":"Longview","state_name":"Texas","lat":32.45803,"lng":-94.65712,"zip":"75602","miles_from_dt":10.52},{"city":"Longview","state_name":"Texas","lat":32.40448,"lng":-94.71754,"zip":"75603","miles_from_dt":12.68},{"city":"Hallsville","state_name":"Texas","lat":32.51529,"lng":-94.55358,"zip":"75650","miles_from_dt":12.78},{"city":"Gladewater","state_name":"Texas","lat":32.5167,"lng":-94.96429,"zip":"75647","miles_from_dt":13.04},{"city":"Harleton","state_name":"Texas","lat":32.67061,"lng":-94.53064,"zip":"75651","miles_from_dt":14.4},{"city":"Kilgore","state_name":"Texas","lat":32.38076,"lng":-94.87503,"zip":"75662","miles_from_dt":15.73},{"city":"Kilgore","state_name":"Texas","lat":32.37523,"lng":-94.86534,"zip":"75663","miles_from_dt":15.84},{"city":"Ore City","state_name":"Texas","lat":32.82182,"lng":-94.74035,"zip":"75683","miles_from_dt":16.3},{"city":"Easton","state_name":"Texas","lat":32.3846,"lng":-94.5757,"zip":"75641","miles_from_dt":17.41},{"city":"Laird Hill","state_name":"Texas","lat":32.35487,"lng":-94.90302,"zip":"75666","miles_from_dt":18.07},{"city":"Marshall","state_name":"Texas","lat":32.56456,"lng":-94.42326,"zip":"75670","miles_from_dt":19.48},{"city":"Big Sandy","state_name":"Texas","lat":32.63236,"lng":-95.08662,"zip":"75755","miles_from_dt":19.54},{"city":"Gilmer","state_name":"Texas","lat":32.79171,"lng":-94.99498,"zip":"75644","miles_from_dt":19.88},{"city":"Big Sandy","state_name":"Texas","lat":32.583,"lng":-95.106,"zip":"75797","miles_from_dt":20.41},{"city":"Winona","state_name":"Texas","lat":32.4679,"lng":-95.10623,"zip":"75792","miles_from_dt":21.99},{"city":"Tatum","state_name":"Texas","lat":32.31108,"lng":-94.55725,"zip":"75691","miles_from_dt":22.2},{"city":"Lone Star","state_name":"Texas","lat":32.90846,"lng":-94.68485,"zip":"75668","miles_from_dt":22.63},{"city":"Avinger","state_name":"Texas","lat":32.87588,"lng":-94.5572,"zip":"75630","miles_from_dt":23.12},{"city":"Overton","state_name":"Texas","lat":32.27085,"lng":-94.93147,"zip":"75684","miles_from_dt":23.99},{"city":"Woodlawn","state_name":"Texas","lat":32.6383,"lng":-94.34442,"zip":"75694","miles_from_dt":24.29},{"city":"Henderson","state_name":"Texas","lat":32.2301,"lng":-94.7281,"zip":"75652","miles_from_dt":24.55},{"city":"Cason","state_name":"Texas","lat":32.94351,"lng":-94.70518,"zip":"75636","miles_from_dt":24.84},{"city":"Tyler","state_name":"Texas","lat":32.35905,"lng":-95.10149,"zip":"75705","miles_from_dt":25.51},{"city":"New London","state_name":"Texas","lat":32.25152,"lng":-94.94713,"zip":"75682","miles_from_dt":25.58},{"city":"Marshall","state_name":"Texas","lat":32.48907,"lng":-94.31494,"zip":"75671","miles_from_dt":26.6},{"city":"Marshall","state_name":"Texas","lat":32.47076,"lng":-94.29353,"zip":"75672","miles_from_dt":28.14},{"city":"Hawkins","state_name":"Texas","lat":32.64119,"lng":-95.2359,"zip":"75765","miles_from_dt":28.24},{"city":"Arp","state_name":"Texas","lat":32.27222,"lng":-95.07124,"zip":"75750","miles_from_dt":28.38},{"city":"Pittsburg","state_name":"Texas","lat":32.96921,"lng":-94.94697,"zip":"75686","miles_from_dt":28.67},{"city":"Tyler","state_name":"Texas","lat":32.41436,"lng":-95.20717,"zip":"75708","miles_from_dt":28.86},{"city":"Beckville","state_name":"Texas","lat":32.25343,"lng":-94.44957,"zip":"75631","miles_from_dt":29.07},{"city":"Henderson","state_name":"Texas","lat":32.16182,"lng":-94.80568,"zip":"75653","miles_from_dt":29.35},{"city":"Joinerville","state_name":"Texas","lat":32.17545,"lng":-94.90362,"zip":"75658","miles_from_dt":29.55},{"city":"Daingerfield","state_name":"Texas","lat":33.01869,"lng":-94.73173,"zip":"75638","miles_from_dt":29.88},{"city":"Jefferson","state_name":"Texas","lat":32.79437,"lng":-94.30498,"zip":"75657","miles_from_dt":29.97}],"targetCityZipCode":"75660","targetCityState":"Texas"},"__N_SSG":true}