{"pageProps":{"stateName":"Texas","cityName":"slidell","nearbyCities":[{"city":"Greenwood","state_name":"Texas","lat":33.3785,"lng":-97.47447,"zip":"76246","miles_from_dt":4.52},{"city":"Krum","state_name":"Texas","lat":33.27993,"lng":-97.3026,"zip":"76249","miles_from_dt":8.24},{"city":"Era","state_name":"Texas","lat":33.4861,"lng":-97.34148,"zip":"76238","miles_from_dt":8.66},{"city":"Decatur","state_name":"Texas","lat":33.27587,"lng":-97.51404,"zip":"76234","miles_from_dt":9.34},{"city":"Rosston","state_name":"Texas","lat":33.50435,"lng":-97.43735,"zip":"76263","miles_from_dt":9.59},{"city":"Sanger","state_name":"Texas","lat":33.36818,"lng":-97.21513,"zip":"76266","miles_from_dt":10.52},{"city":"Ponder","state_name":"Texas","lat":33.19977,"lng":-97.31603,"zip":"76259","miles_from_dt":12.59},{"city":"Forestburg","state_name":"Texas","lat":33.524,"lng":-97.57033,"zip":"76239","miles_from_dt":14.62},{"city":"Denton","state_name":"Texas","lat":33.22174,"lng":-97.18505,"zip":"76207","miles_from_dt":15.94},{"city":"Alvord","state_name":"Texas","lat":33.36616,"lng":-97.67345,"zip":"76225","miles_from_dt":15.98},{"city":"Valley View","state_name":"Texas","lat":33.46421,"lng":-97.12721,"zip":"76272","miles_from_dt":16.91},{"city":"Denton","state_name":"Texas","lat":33.22122,"lng":-97.14715,"zip":"76201","miles_from_dt":17.71},{"city":"Denton","state_name":"Texas","lat":33.21213,"lng":-97.15181,"zip":"76203","miles_from_dt":17.86},{"city":"Denton","state_name":"Texas","lat":33.17651,"lng":-97.18345,"zip":"76202","miles_from_dt":18.15},{"city":"Myra","state_name":"Texas","lat":33.62516,"lng":-97.31327,"zip":"76253","miles_from_dt":18.28},{"city":"Denton","state_name":"Texas","lat":33.21404,"lng":-97.13265,"zip":"76204","miles_from_dt":18.68},{"city":"Denton","state_name":"Texas","lat":33.2315,"lng":-97.11,"zip":"76209","miles_from_dt":19.14},{"city":"Justin","state_name":"Texas","lat":33.0965,"lng":-97.33154,"zip":"76247","miles_from_dt":19.18},{"city":"Rhome","state_name":"Texas","lat":33.0896,"lng":-97.46647,"zip":"76078","miles_from_dt":19.69},{"city":"Denton","state_name":"Texas","lat":33.19074,"lng":-97.12894,"zip":"76205","miles_from_dt":19.81},{"city":"Denton","state_name":"Texas","lat":33.19889,"lng":-97.12026,"zip":"76206","miles_from_dt":19.87},{"city":"Lindsay","state_name":"Texas","lat":33.63006,"lng":-97.24237,"zip":"76250","miles_from_dt":20.07},{"city":"Muenster","state_name":"Texas","lat":33.67788,"lng":-97.38695,"zip":"76252","miles_from_dt":21.27},{"city":"Sunset","state_name":"Texas","lat":33.45471,"lng":-97.76247,"zip":"76270","miles_from_dt":21.92},{"city":"Argyle","state_name":"Texas","lat":33.10775,"lng":-97.17196,"zip":"76226","miles_from_dt":22.25},{"city":"Denton","state_name":"Texas","lat":33.20917,"lng":-97.05786,"zip":"76208","miles_from_dt":22.53},{"city":"Gainesville","state_name":"Texas","lat":33.64542,"lng":-97.17628,"zip":"76241","miles_from_dt":22.9},{"city":"Denton","state_name":"Texas","lat":33.14985,"lng":-97.0962,"zip":"76210","miles_from_dt":23.07},{"city":"Gainesville","state_name":"Texas","lat":33.65654,"lng":-97.17766,"zip":"76240","miles_from_dt":23.5},{"city":"Aubrey","state_name":"Texas","lat":33.27465,"lng":-96.99075,"zip":"76227","miles_from_dt":24.4},{"city":"Boyd","state_name":"Texas","lat":33.04777,"lng":-97.60425,"zip":"76023","miles_from_dt":25.2},{"city":"Newark","state_name":"Texas","lat":33.00613,"lng":-97.47821,"zip":"76071","miles_from_dt":25.47},{"city":"Montague","state_name":"Texas","lat":33.65455,"lng":-97.69076,"zip":"76251","miles_from_dt":25.96},{"city":"Paradise","state_name":"Texas","lat":33.10416,"lng":-97.72571,"zip":"76073","miles_from_dt":26.38},{"city":"Roanoke","state_name":"Texas","lat":33.01137,"lng":-97.22101,"zip":"76262","miles_from_dt":26.7},{"city":"Haslet","state_name":"Texas","lat":32.98205,"lng":-97.38037,"zip":"76052","miles_from_dt":26.71},{"city":"Saint Jo","state_name":"Texas","lat":33.74079,"lng":-97.53922,"zip":"76265","miles_from_dt":26.88},{"city":"Chico","state_name":"Texas","lat":33.31066,"lng":-97.86228,"zip":"76431","miles_from_dt":27.21},{"city":"Pilot Point","state_name":"Texas","lat":33.37202,"lng":-96.9204,"zip":"76258","miles_from_dt":27.57},{"city":"Lewisville","state_name":"Texas","lat":33.07921,"lng":-97.06401,"zip":"75077","miles_from_dt":27.79},{"city":"Fort Worth","state_name":"Texas","lat":32.96999,"lng":-97.30611,"zip":"76177","miles_from_dt":28.02},{"city":"Lake Dallas","state_name":"Texas","lat":33.11108,"lng":-97.01277,"zip":"75065","miles_from_dt":28.5},{"city":"Flower Mound","state_name":"Texas","lat":33.02554,"lng":-97.11871,"zip":"75022","miles_from_dt":28.66},{"city":"Tioga","state_name":"Texas","lat":33.46953,"lng":-96.91412,"zip":"76271","miles_from_dt":28.75},{"city":"Little Elm","state_name":"Texas","lat":33.17713,"lng":-96.95228,"zip":"75068","miles_from_dt":28.96},{"city":"Bridgeport","state_name":"Texas","lat":33.16493,"lng":-97.83772,"zip":"76426","miles_from_dt":29.14},{"city":"Flower Mound","state_name":"Texas","lat":33.02647,"lng":-97.09377,"zip":"75027","miles_from_dt":29.45}],"targetCityZipCode":"76267","targetCityState":"Texas"},"__N_SSG":true}