{"pageProps":{"stateName":"Texas","cityName":"stowell","nearbyCities":[{"city":"Winnie","state_name":"Texas","lat":29.78697,"lng":-94.40969,"zip":"77665","miles_from_dt":2.51},{"city":"Hamshire","state_name":"Texas","lat":29.85741,"lng":-94.29467,"zip":"77622","miles_from_dt":6.93},{"city":"Nome","state_name":"Texas","lat":29.97476,"lng":-94.42727,"zip":"77629","miles_from_dt":13.86},{"city":"Beaumont","state_name":"Texas","lat":29.90652,"lng":-94.16961,"zip":"77705","miles_from_dt":14.78},{"city":"Hankamer","state_name":"Texas","lat":29.86399,"lng":-94.59643,"zip":"77560","miles_from_dt":14.85},{"city":"High Island","state_name":"Texas","lat":29.55957,"lng":-94.41621,"zip":"77623","miles_from_dt":15.46},{"city":"Anahuac","state_name":"Texas","lat":29.69096,"lng":-94.62598,"zip":"77514","miles_from_dt":16.65},{"city":"China","state_name":"Texas","lat":30.02493,"lng":-94.35393,"zip":"77613","miles_from_dt":16.88},{"city":"Devers","state_name":"Texas","lat":29.99217,"lng":-94.53976,"zip":"77538","miles_from_dt":17.85},{"city":"Wallisville","state_name":"Texas","lat":29.82811,"lng":-94.69521,"zip":"77597","miles_from_dt":19.89},{"city":"Gilchrist","state_name":"Texas","lat":29.51128,"lng":-94.51052,"zip":"77617","miles_from_dt":20.4},{"city":"Beaumont","state_name":"Texas","lat":30.06777,"lng":-94.25716,"zip":"77713","miles_from_dt":20.91},{"city":"Beaumont","state_name":"Texas","lat":30.03555,"lng":-94.15923,"zip":"77720","miles_from_dt":21.61},{"city":"Beaumont","state_name":"Texas","lat":30.05323,"lng":-94.1748,"zip":"77707","miles_from_dt":22.11},{"city":"Raywood","state_name":"Texas","lat":30.01371,"lng":-94.65497,"zip":"77582","miles_from_dt":23.54},{"city":"Beaumont","state_name":"Texas","lat":30.10049,"lng":-94.16717,"zip":"77706","miles_from_dt":25.15},{"city":"Beaumont","state_name":"Texas","lat":30.09111,"lng":-94.14596,"zip":"77726","miles_from_dt":25.24},{"city":"Daisetta","state_name":"Texas","lat":30.09139,"lng":-94.59488,"zip":"77533","miles_from_dt":25.37},{"city":"Sabine Pass","state_name":"Texas","lat":29.71338,"lng":-93.95306,"zip":"77655","miles_from_dt":25.4},{"city":"Beaumont","state_name":"Texas","lat":30.08624,"lng":-94.12825,"zip":"77702","miles_from_dt":25.54},{"city":"Beaumont","state_name":"Texas","lat":30.07321,"lng":-94.10579,"zip":"77701","miles_from_dt":25.61},{"city":"Beaumont","state_name":"Texas","lat":30.06887,"lng":-94.09935,"zip":"77710","miles_from_dt":25.62},{"city":"Beaumont","state_name":"Texas","lat":30.07259,"lng":-94.10312,"zip":"77704","miles_from_dt":25.68},{"city":"Nederland","state_name":"Texas","lat":29.99095,"lng":-94.00772,"zip":"77627","miles_from_dt":26.08},{"city":"Port Arthur","state_name":"Texas","lat":29.79233,"lng":-93.93402,"zip":"77641","miles_from_dt":26.12},{"city":"Sour Lake","state_name":"Texas","lat":30.15775,"lng":-94.43279,"zip":"77659","miles_from_dt":26.29},{"city":"Beaumont","state_name":"Texas","lat":30.0879,"lng":-94.10193,"zip":"77725","miles_from_dt":26.55},{"city":"Port Arthur","state_name":"Texas","lat":29.88021,"lng":-93.94152,"zip":"77640","miles_from_dt":26.56},{"city":"Port Arthur","state_name":"Texas","lat":29.90075,"lng":-93.93194,"zip":"77643","miles_from_dt":27.5},{"city":"Beaumont","state_name":"Texas","lat":30.11522,"lng":-94.10906,"zip":"77703","miles_from_dt":27.84},{"city":"Beaumont","state_name":"Texas","lat":30.14747,"lng":-94.15128,"zip":"77708","miles_from_dt":28.46},{"city":"Port Neches","state_name":"Texas","lat":29.98036,"lng":-93.94821,"zip":"77651","miles_from_dt":28.76},{"city":"Port Arthur","state_name":"Texas","lat":29.93917,"lng":-93.91606,"zip":"77642","miles_from_dt":29.29},{"city":"Groves","state_name":"Texas","lat":29.94549,"lng":-93.9165,"zip":"77619","miles_from_dt":29.43},{"city":"Baytown","state_name":"Texas","lat":29.77598,"lng":-94.8632,"zip":"77523","miles_from_dt":29.72}],"targetCityZipCode":"77661","targetCityState":"Texas"},"__N_SSG":true}