{"pageProps":{"stateName":"Montana","cityName":"boyes","nearbyCities":[{"city":"Hammond","state_name":"Montana","lat":45.37589,"lng":-104.72542,"zip":"59332","miles_from_dt":16.01},{"city":"Broadus","state_name":"Montana","lat":45.33477,"lng":-105.52106,"zip":"59317","miles_from_dt":22.96},{"city":"Biddle","state_name":"Montana","lat":45.07847,"lng":-105.43933,"zip":"59314","miles_from_dt":26.1},{"city":"Alzada","state_name":"Montana","lat":45.16944,"lng":-104.53017,"zip":"59311","miles_from_dt":27.87},{"city":"Olive","state_name":"Montana","lat":45.65602,"lng":-105.43296,"zip":"59343","miles_from_dt":28.83}],"targetCityZipCode":"59316","targetCityState":"Montana"},"__N_SSG":true}