{"pageProps":{"stateName":"Montana","cityName":"clyde-park","nearbyCities":[{"city":"Wilsall","state_name":"Montana","lat":46.05608,"lng":-110.65293,"zip":"59086","miles_from_dt":13.76},{"city":"Springdale","state_name":"Montana","lat":45.84041,"lng":-110.29227,"zip":"59082","miles_from_dt":16.02},{"city":"Bozeman","state_name":"Montana","lat":45.6928,"lng":-110.9065,"zip":"59715","miles_from_dt":17.82},{"city":"Livingston","state_name":"Montana","lat":45.56852,"lng":-110.55174,"zip":"59047","miles_from_dt":20.28},{"city":"Bozeman","state_name":"Montana","lat":45.67818,"lng":-111.03658,"zip":"59719","miles_from_dt":23.52},{"city":"Bozeman","state_name":"Montana","lat":45.66196,"lng":-111.05994,"zip":"59717","miles_from_dt":25.07},{"city":"Belgrade","state_name":"Montana","lat":45.97538,"lng":-111.13112,"zip":"59714","miles_from_dt":25.79},{"city":"Bozeman","state_name":"Montana","lat":45.66142,"lng":-111.11399,"zip":"59772","miles_from_dt":27.33},{"city":"Bozeman","state_name":"Montana","lat":45.68001,"lng":-111.14623,"zip":"59771","miles_from_dt":28.1},{"city":"Ringling","state_name":"Montana","lat":46.28045,"lng":-110.75624,"zip":"59642","miles_from_dt":29.88}],"targetCityZipCode":"59018","targetCityState":"Montana"},"__N_SSG":true}