{"pageProps":{"stateName":"Montana","cityName":"dayton","nearbyCities":[{"city":"Rollins","state_name":"Montana","lat":47.9208,"lng":-114.25486,"zip":"59931","miles_from_dt":4.06},{"city":"Big Arm","state_name":"Montana","lat":47.82409,"lng":-114.23271,"zip":"59910","miles_from_dt":4.25},{"city":"Proctor","state_name":"Montana","lat":47.92365,"lng":-114.40272,"zip":"59929","miles_from_dt":6.26},{"city":"Elmo","state_name":"Montana","lat":47.82025,"lng":-114.41124,"zip":"59915","miles_from_dt":6.34},{"city":"Lakeside","state_name":"Montana","lat":47.99962,"lng":-114.22227,"zip":"59922","miles_from_dt":9.66},{"city":"Polson","state_name":"Montana","lat":47.71314,"lng":-114.17832,"zip":"59860","miles_from_dt":12.06},{"city":"Somers","state_name":"Montana","lat":48.0502,"lng":-114.24624,"zip":"59932","miles_from_dt":12.74},{"city":"Kila","state_name":"Montana","lat":48.06412,"lng":-114.53464,"zip":"59920","miles_from_dt":17.47},{"city":"Hot Springs","state_name":"Montana","lat":47.65892,"lng":-114.54734,"zip":"59845","miles_from_dt":18.65},{"city":"Bigfork","state_name":"Montana","lat":47.86041,"lng":-113.88552,"zip":"59911","miles_from_dt":19.07},{"city":"Pablo","state_name":"Montana","lat":47.60032,"lng":-114.11787,"zip":"59855","miles_from_dt":20.31},{"city":"Lonepine","state_name":"Montana","lat":47.71526,"lng":-114.68162,"zip":"59848","miles_from_dt":20.87},{"city":"Kalispell","state_name":"Montana","lat":48.19452,"lng":-114.31226,"zip":"59904","miles_from_dt":22.52},{"city":"Kalispell","state_name":"Montana","lat":48.19303,"lng":-114.35788,"zip":"59903","miles_from_dt":22.59},{"city":"Ronan","state_name":"Montana","lat":47.53324,"lng":-114.11741,"zip":"59864","miles_from_dt":24.62},{"city":"Kalispell","state_name":"Montana","lat":48.22873,"lng":-114.40564,"zip":"59901","miles_from_dt":25.39},{"city":"Marion","state_name":"Montana","lat":48.04732,"lng":-114.83045,"zip":"59925","miles_from_dt":27.72}],"targetCityZipCode":"59914","targetCityState":"Montana"},"__N_SSG":true}