{"pageProps":{"stateName":"Montana","cityName":"elliston","nearbyCities":[{"city":"Helena","state_name":"Montana","lat":46.54199,"lng":-112.17474,"zip":"59601","miles_from_dt":11.57},{"city":"Helena","state_name":"Montana","lat":46.53282,"lng":-112.15749,"zip":"59620","miles_from_dt":12.26},{"city":"Basin","state_name":"Montana","lat":46.29168,"lng":-112.38687,"zip":"59631","miles_from_dt":14.77},{"city":"Avon","state_name":"Montana","lat":46.67973,"lng":-112.61228,"zip":"59713","miles_from_dt":15.41},{"city":"Fort Harrison","state_name":"Montana","lat":46.61614,"lng":-112.11399,"zip":"59636","miles_from_dt":16.12},{"city":"Garrison","state_name":"Montana","lat":46.58455,"lng":-112.76326,"zip":"59731","miles_from_dt":17.65},{"city":"Marysville","state_name":"Montana","lat":46.76814,"lng":-112.34922,"zip":"59640","miles_from_dt":18.42},{"city":"Helena","state_name":"Montana","lat":46.58991,"lng":-112.04068,"zip":"59623","miles_from_dt":18.62},{"city":"Helena","state_name":"Montana","lat":46.60135,"lng":-112.03891,"zip":"59625","miles_from_dt":18.96},{"city":"Helena","state_name":"Montana","lat":46.60369,"lng":-112.03631,"zip":"59626","miles_from_dt":19.13},{"city":"Helena","state_name":"Montana","lat":46.59795,"lng":-112.03102,"zip":"59624","miles_from_dt":19.23},{"city":"Deer Lodge","state_name":"Montana","lat":46.35143,"lng":-112.75684,"zip":"59722","miles_from_dt":19.61},{"city":"Clancy","state_name":"Montana","lat":46.43583,"lng":-112.00986,"zip":"59634","miles_from_dt":19.75},{"city":"Jefferson City","state_name":"Montana","lat":46.3579,"lng":-112.02772,"zip":"59638","miles_from_dt":20.95},{"city":"Canyon Creek","state_name":"Montana","lat":46.82338,"lng":-112.36362,"zip":"59633","miles_from_dt":22.12},{"city":"Helena","state_name":"Montana","lat":46.61575,"lng":-111.96325,"zip":"59604","miles_from_dt":22.68},{"city":"Gold Creek","state_name":"Montana","lat":46.54922,"lng":-112.94987,"zip":"59733","miles_from_dt":25.86},{"city":"East Helena","state_name":"Montana","lat":46.5546,"lng":-111.81749,"zip":"59635","miles_from_dt":28.52},{"city":"Helena","state_name":"Montana","lat":46.73577,"lng":-111.90753,"zip":"59602","miles_from_dt":28.8}],"targetCityZipCode":"59728","targetCityState":"Montana"},"__N_SSG":true}