{"pageProps":{"stateName":"Montana","cityName":"molt","nearbyCities":[{"city":"Billings","state_name":"Montana","lat":45.80637,"lng":-108.6948,"zip":"59106","miles_from_dt":12.92},{"city":"Park City","state_name":"Montana","lat":45.65079,"lng":-108.97028,"zip":"59063","miles_from_dt":14.03},{"city":"Rapelje","state_name":"Montana","lat":45.96827,"lng":-109.23433,"zip":"59067","miles_from_dt":15.67},{"city":"Broadview","state_name":"Montana","lat":46.08464,"lng":-108.83464,"zip":"59015","miles_from_dt":16.96},{"city":"Acton","state_name":"Montana","lat":45.99832,"lng":-108.6649,"zip":"59002","miles_from_dt":17.14},{"city":"Laurel","state_name":"Montana","lat":45.64251,"lng":-108.74975,"zip":"59044","miles_from_dt":17.6},{"city":"Billings","state_name":"Montana","lat":45.77512,"lng":-108.58266,"zip":"59108","miles_from_dt":18.72},{"city":"Billings","state_name":"Montana","lat":45.77479,"lng":-108.58133,"zip":"59102","miles_from_dt":18.79},{"city":"Billings","state_name":"Montana","lat":45.77209,"lng":-108.58108,"zip":"59104","miles_from_dt":18.86},{"city":"Billings","state_name":"Montana","lat":45.76707,"lng":-108.58167,"zip":"59116","miles_from_dt":18.94},{"city":"Billings","state_name":"Montana","lat":45.79163,"lng":-108.53979,"zip":"59112","miles_from_dt":20.44},{"city":"Columbus","state_name":"Montana","lat":45.62995,"lng":-109.24208,"zip":"59019","miles_from_dt":20.81},{"city":"Billings","state_name":"Montana","lat":45.81387,"lng":-108.50578,"zip":"59107","miles_from_dt":21.8},{"city":"Billings","state_name":"Montana","lat":45.87708,"lng":-108.50145,"zip":"59105","miles_from_dt":21.88},{"city":"Billings","state_name":"Montana","lat":45.78591,"lng":-108.5088,"zip":"59115","miles_from_dt":21.99},{"city":"Billings","state_name":"Montana","lat":45.78361,"lng":-108.50514,"zip":"59117","miles_from_dt":22.2},{"city":"Joliet","state_name":"Montana","lat":45.50239,"lng":-108.9663,"zip":"59041","miles_from_dt":24.26},{"city":"Boyd","state_name":"Montana","lat":45.46131,"lng":-109.08054,"zip":"59013","miles_from_dt":27.78},{"city":"Edgar","state_name":"Montana","lat":45.46385,"lng":-108.78392,"zip":"59026","miles_from_dt":28.14}],"targetCityZipCode":"59057","targetCityState":"Montana"},"__N_SSG":true}