{"pageProps":{"stateName":"Arkansas","cityName":"beaver","nearbyCities":[{"city":"Berryville","state_name":"Arkansas","lat":36.35047,"lng":-93.55736,"zip":"72616","miles_from_dt":4.18},{"city":"Eureka Springs","state_name":"Arkansas","lat":36.37248,"lng":-93.74355,"zip":"72632","miles_from_dt":7.09},{"city":"Eureka Springs","state_name":"Arkansas","lat":36.45146,"lng":-93.79131,"zip":"72631","miles_from_dt":10.67},{"city":"Golden","state_name":"Missouri","lat":36.5426,"lng":-93.63984,"zip":"65658","miles_from_dt":10.84},{"city":"Green Forest","state_name":"Arkansas","lat":36.3245,"lng":-93.40496,"zip":"72638","miles_from_dt":12.61},{"city":"Eagle Rock","state_name":"Missouri","lat":36.5481,"lng":-93.76198,"zip":"65641","miles_from_dt":13.74},{"city":"Lampe","state_name":"Missouri","lat":36.55211,"lng":-93.46658,"zip":"65681","miles_from_dt":14.19},{"city":"Oak Grove","state_name":"Arkansas","lat":36.48115,"lng":-93.37454,"zip":"72660","miles_from_dt":15.04},{"city":"Shell Knob","state_name":"Missouri","lat":36.60248,"lng":-93.57971,"zip":"65747","miles_from_dt":15.05},{"city":"Blue Eye","state_name":"Missouri","lat":36.54339,"lng":-93.36127,"zip":"65611","miles_from_dt":17.92},{"city":"Gateway","state_name":"Arkansas","lat":36.47989,"lng":-93.91902,"zip":"72733","miles_from_dt":17.99},{"city":"Alpena","state_name":"Arkansas","lat":36.24532,"lng":-93.32705,"zip":"72611","miles_from_dt":18.91},{"city":"Kimberling City","state_name":"Missouri","lat":36.62275,"lng":-93.43625,"zip":"65686","miles_from_dt":19.17},{"city":"Garfield","state_name":"Arkansas","lat":36.43187,"lng":-93.95968,"zip":"72732","miles_from_dt":19.32},{"city":"Huntsville","state_name":"Arkansas","lat":36.10889,"lng":-93.67599,"zip":"72740","miles_from_dt":19.41},{"city":"Rogers","state_name":"Arkansas","lat":36.32214,"lng":-93.9922,"zip":"72756","miles_from_dt":21.36},{"city":"Hindsville","state_name":"Arkansas","lat":36.16258,"lng":-93.885,"zip":"72738","miles_from_dt":21.47},{"city":"Ridgedale","state_name":"Missouri","lat":36.51925,"lng":-93.26864,"zip":"65739","miles_from_dt":21.49},{"city":"Seligman","state_name":"Missouri","lat":36.52928,"lng":-93.97917,"zip":"65745","miles_from_dt":22.42},{"city":"Cassville","state_name":"Missouri","lat":36.67635,"lng":-93.8174,"zip":"65625","miles_from_dt":22.87},{"city":"Avoca","state_name":"Arkansas","lat":36.3554,"lng":-94.04495,"zip":"72711","miles_from_dt":23.92},{"city":"Cape Fair","state_name":"Missouri","lat":36.73276,"lng":-93.56241,"zip":"65624","miles_from_dt":24.08},{"city":"Omaha","state_name":"Arkansas","lat":36.43184,"lng":-93.18297,"zip":"72662","miles_from_dt":24.43},{"city":"Compton","state_name":"Arkansas","lat":36.08208,"lng":-93.35655,"zip":"72624","miles_from_dt":25.55},{"city":"Hollister","state_name":"Missouri","lat":36.56446,"lng":-93.21351,"zip":"65672","miles_from_dt":25.63},{"city":"Point Lookout","state_name":"Missouri","lat":36.61947,"lng":-93.2427,"zip":"65726","miles_from_dt":26.34},{"city":"Reeds Spring","state_name":"Missouri","lat":36.7146,"lng":-93.35796,"zip":"65737","miles_from_dt":26.85},{"city":"Washburn","state_name":"Missouri","lat":36.59624,"lng":-94.03479,"zip":"65772","miles_from_dt":27.36},{"city":"Hollister","state_name":"Missouri","lat":36.6192,"lng":-93.2177,"zip":"65673","miles_from_dt":27.45},{"city":"Springdale","state_name":"Arkansas","lat":36.17746,"lng":-94.051,"zip":"72764","miles_from_dt":28.16},{"city":"Pea Ridge","state_name":"Arkansas","lat":36.46255,"lng":-94.11825,"zip":"72751","miles_from_dt":28.39},{"city":"Branson","state_name":"Missouri","lat":36.67133,"lng":-93.24887,"zip":"65616","miles_from_dt":28.41},{"city":"Branson","state_name":"Missouri","lat":36.64214,"lng":-93.21688,"zip":"65615","miles_from_dt":28.43},{"city":"Lowell","state_name":"Arkansas","lat":36.2477,"lng":-94.10046,"zip":"72745","miles_from_dt":28.59},{"city":"Goshen","state_name":"Arkansas","lat":36.10018,"lng":-93.9891,"zip":"72735","miles_from_dt":28.64},{"city":"Rogers","state_name":"Arkansas","lat":36.33365,"lng":-94.12731,"zip":"72757","miles_from_dt":28.66},{"city":"Wesley","state_name":"Arkansas","lat":36.01409,"lng":-93.84723,"zip":"72773","miles_from_dt":28.7},{"city":"Kingston","state_name":"Arkansas","lat":35.98159,"lng":-93.49528,"zip":"72742","miles_from_dt":28.74},{"city":"Galena","state_name":"Missouri","lat":36.79552,"lng":-93.46626,"zip":"65656","miles_from_dt":29.44},{"city":"Butterfield","state_name":"Missouri","lat":36.7489,"lng":-93.90659,"zip":"65623","miles_from_dt":29.72},{"city":"Rogers","state_name":"Arkansas","lat":36.29898,"lng":-94.14099,"zip":"72758","miles_from_dt":29.81}],"targetCityZipCode":"72613","targetCityState":"Arkansas"},"__N_SSG":true}