{"pageProps":{"stateName":"Arkansas","cityName":"biscoe","nearbyCities":[{"city":"Des Arc","state_name":"Arkansas","lat":34.96957,"lng":-91.52129,"zip":"72040","miles_from_dt":8.4},{"city":"Cotton Plant","state_name":"Arkansas","lat":35.00673,"lng":-91.27205,"zip":"72036","miles_from_dt":11.01},{"city":"Brinkley","state_name":"Arkansas","lat":34.85953,"lng":-91.21193,"zip":"72021","miles_from_dt":11.32},{"city":"De Valls Bluff","state_name":"Arkansas","lat":34.73348,"lng":-91.46812,"zip":"72041","miles_from_dt":11.47},{"city":"Hazen","state_name":"Arkansas","lat":34.79457,"lng":-91.61226,"zip":"72064","miles_from_dt":13.46},{"city":"Clarendon","state_name":"Arkansas","lat":34.71029,"lng":-91.27679,"zip":"72029","miles_from_dt":14.56},{"city":"Griffithville","state_name":"Arkansas","lat":35.07609,"lng":-91.57779,"zip":"72060","miles_from_dt":15.95},{"city":"Wheatley","state_name":"Arkansas","lat":34.95551,"lng":-91.09466,"zip":"72392","miles_from_dt":18.27},{"city":"Gregory","state_name":"Arkansas","lat":35.15455,"lng":-91.34209,"zip":"72059","miles_from_dt":18.46},{"city":"Hickory Plains","state_name":"Arkansas","lat":34.98141,"lng":-91.7171,"zip":"72066","miles_from_dt":18.64},{"city":"Roe","state_name":"Arkansas","lat":34.61189,"lng":-91.37247,"zip":"72134","miles_from_dt":19.42},{"city":"Monroe","state_name":"Arkansas","lat":34.72803,"lng":-91.10349,"zip":"72108","miles_from_dt":20.64},{"city":"Hunter","state_name":"Arkansas","lat":35.06919,"lng":-91.10538,"zip":"72074","miles_from_dt":21.03},{"city":"Ulm","state_name":"Arkansas","lat":34.57819,"lng":-91.42655,"zip":"72170","miles_from_dt":21.67},{"city":"Carlisle","state_name":"Arkansas","lat":34.75168,"lng":-91.74902,"zip":"72024","miles_from_dt":21.71},{"city":"Goodwin","state_name":"Arkansas","lat":34.95687,"lng":-91.03202,"zip":"72340","miles_from_dt":21.76},{"city":"Moro","state_name":"Arkansas","lat":34.81146,"lng":-91.01996,"zip":"72368","miles_from_dt":22.69},{"city":"West Point","state_name":"Arkansas","lat":35.20381,"lng":-91.61265,"zip":"72178","miles_from_dt":24.44},{"city":"Augusta","state_name":"Arkansas","lat":35.24602,"lng":-91.34495,"zip":"72006","miles_from_dt":24.65},{"city":"Higginson","state_name":"Arkansas","lat":35.15766,"lng":-91.71547,"zip":"72068","miles_from_dt":25.31},{"city":"Ward","state_name":"Arkansas","lat":35.00279,"lng":-91.84212,"zip":"72176","miles_from_dt":25.84},{"city":"Casscoe","state_name":"Arkansas","lat":34.51397,"lng":-91.31687,"zip":"72026","miles_from_dt":26.57},{"city":"Palestine","state_name":"Arkansas","lat":34.96623,"lng":-90.94726,"zip":"72372","miles_from_dt":26.6},{"city":"Patterson","state_name":"Arkansas","lat":35.25774,"lng":-91.23675,"zip":"72123","miles_from_dt":26.99},{"city":"Garner","state_name":"Arkansas","lat":35.13965,"lng":-91.78097,"zip":"72052","miles_from_dt":27.21},{"city":"McCrory","state_name":"Arkansas","lat":35.23228,"lng":-91.15242,"zip":"72101","miles_from_dt":27.54},{"city":"Kensett","state_name":"Arkansas","lat":35.23713,"lng":-91.66963,"zip":"72082","miles_from_dt":28.05},{"city":"Holly Grove","state_name":"Arkansas","lat":34.53904,"lng":-91.13242,"zip":"72069","miles_from_dt":28.93},{"city":"Lonoke","state_name":"Arkansas","lat":34.80418,"lng":-91.90619,"zip":"72086","miles_from_dt":29},{"city":"Bald Knob","state_name":"Arkansas","lat":35.30555,"lng":-91.52112,"zip":"72010","miles_from_dt":29.22},{"city":"Searcy","state_name":"Arkansas","lat":35.2279,"lng":-91.73613,"zip":"72143","miles_from_dt":29.72},{"city":"McRae","state_name":"Arkansas","lat":35.14556,"lng":-91.83352,"zip":"72102","miles_from_dt":29.83}],"targetCityZipCode":"72017","targetCityState":"Arkansas"},"__N_SSG":true}