{"pageProps":{"stateName":"Arkansas","cityName":"havana","nearbyCities":[{"city":"Blue Mountain","state_name":"Arkansas","lat":35.13,"lng":-93.71025,"zip":"72826","miles_from_dt":6.84},{"city":"Danville","state_name":"Arkansas","lat":35.01845,"lng":-93.49748,"zip":"72833","miles_from_dt":7.77},{"city":"Belleville","state_name":"Arkansas","lat":35.12768,"lng":-93.41146,"zip":"72824","miles_from_dt":10.71},{"city":"Paris","state_name":"Arkansas","lat":35.25249,"lng":-93.67553,"zip":"72855","miles_from_dt":11.66},{"city":"Briggsville","state_name":"Arkansas","lat":34.92613,"lng":-93.53951,"zip":"72828","miles_from_dt":12.17},{"city":"Magazine","state_name":"Arkansas","lat":35.18326,"lng":-93.78721,"zip":"72943","miles_from_dt":12.35},{"city":"New Blaine","state_name":"Arkansas","lat":35.26092,"lng":-93.45693,"zip":"72851","miles_from_dt":13.83},{"city":"Rover","state_name":"Arkansas","lat":34.94556,"lng":-93.43144,"zip":"72860","miles_from_dt":13.99},{"city":"Subiaco","state_name":"Arkansas","lat":35.31143,"lng":-93.5673,"zip":"72865","miles_from_dt":14.93},{"city":"Gravelly","state_name":"Arkansas","lat":34.88926,"lng":-93.68009,"zip":"72838","miles_from_dt":15.03},{"city":"Bluffton","state_name":"Arkansas","lat":34.87758,"lng":-93.61948,"zip":"72827","miles_from_dt":15.13},{"city":"Delaware","state_name":"Arkansas","lat":35.27634,"lng":-93.3425,"zip":"72835","miles_from_dt":19},{"city":"Harvey","state_name":"Arkansas","lat":34.86736,"lng":-93.78515,"zip":"72841","miles_from_dt":19.06},{"city":"Scranton","state_name":"Arkansas","lat":35.36642,"lng":-93.50878,"zip":"72863","miles_from_dt":19.28},{"city":"Booneville","state_name":"Arkansas","lat":35.07254,"lng":-93.94333,"zip":"72927","miles_from_dt":19.71},{"city":"Ola","state_name":"Arkansas","lat":35.01146,"lng":-93.23358,"zip":"72853","miles_from_dt":21.39},{"city":"Plainview","state_name":"Arkansas","lat":34.86217,"lng":-93.33826,"zip":"72857","miles_from_dt":21.8},{"city":"Ratcliff","state_name":"Arkansas","lat":35.31812,"lng":-93.87593,"zip":"72951","miles_from_dt":21.99},{"city":"Knoxville","state_name":"Arkansas","lat":35.36262,"lng":-93.37619,"zip":"72845","miles_from_dt":22.2},{"city":"Coal Hill","state_name":"Arkansas","lat":35.42748,"lng":-93.67043,"zip":"72832","miles_from_dt":23.21},{"city":"Branch","state_name":"Arkansas","lat":35.29127,"lng":-93.93206,"zip":"72928","miles_from_dt":23.26},{"city":"Dardanelle","state_name":"Arkansas","lat":35.17202,"lng":-93.19401,"zip":"72834","miles_from_dt":23.39},{"city":"Centerville","state_name":"Arkansas","lat":35.10351,"lng":-93.1753,"zip":"72829","miles_from_dt":23.88},{"city":"Hartman","state_name":"Arkansas","lat":35.46164,"lng":-93.61442,"zip":"72840","miles_from_dt":25.21},{"city":"Altus","state_name":"Arkansas","lat":35.4545,"lng":-93.72024,"zip":"72821","miles_from_dt":25.67},{"city":"London","state_name":"Arkansas","lat":35.37043,"lng":-93.27749,"zip":"72847","miles_from_dt":26.14},{"city":"Parks","state_name":"Arkansas","lat":34.79317,"lng":-93.91077,"zip":"72950","miles_from_dt":27.47},{"city":"Russellville","state_name":"Arkansas","lat":35.22319,"lng":-93.12032,"zip":"72812","miles_from_dt":28.35},{"city":"Russellville","state_name":"Arkansas","lat":35.28057,"lng":-93.14161,"zip":"72801","miles_from_dt":28.72},{"city":"Charleston","state_name":"Arkansas","lat":35.33408,"lng":-94.01432,"zip":"72933","miles_from_dt":28.76},{"city":"Russellville","state_name":"Arkansas","lat":35.27822,"lng":-93.13419,"zip":"72811","miles_from_dt":29.02},{"city":"Clarksville","state_name":"Arkansas","lat":35.51685,"lng":-93.50859,"zip":"72830","miles_from_dt":29.42},{"city":"Sims","state_name":"Arkansas","lat":34.66671,"lng":-93.63442,"zip":"71969","miles_from_dt":29.69}],"targetCityZipCode":"72842","targetCityState":"Arkansas"},"__N_SSG":true}