{"pageProps":{"stateName":"Arkansas","cityName":"hiwasse","nearbyCities":[{"city":"Bella Vista","state_name":"Arkansas","lat":36.46505,"lng":-94.30545,"zip":"72715","miles_from_dt":2.9},{"city":"Centerton","state_name":"Arkansas","lat":36.36837,"lng":-94.29551,"zip":"72719","miles_from_dt":4.44},{"city":"Bentonville","state_name":"Arkansas","lat":36.39837,"lng":-94.22196,"zip":"72712","miles_from_dt":6.23},{"city":"Bella Vista","state_name":"Arkansas","lat":36.46841,"lng":-94.21649,"zip":"72714","miles_from_dt":6.83},{"city":"Gravette","state_name":"Arkansas","lat":36.41402,"lng":-94.46548,"zip":"72736","miles_from_dt":7.71},{"city":"Bentonville","state_name":"Arkansas","lat":36.30036,"lng":-94.28372,"zip":"72713","miles_from_dt":9.08},{"city":"Decatur","state_name":"Arkansas","lat":36.34042,"lng":-94.46397,"zip":"72722","miles_from_dt":9.66},{"city":"Sulphur Springs","state_name":"Arkansas","lat":36.47884,"lng":-94.4938,"zip":"72768","miles_from_dt":9.9},{"city":"Pineville","state_name":"Missouri","lat":36.5652,"lng":-94.26346,"zip":"64856","miles_from_dt":10.17},{"city":"Noel","state_name":"Missouri","lat":36.54369,"lng":-94.44144,"zip":"64854","miles_from_dt":10.22},{"city":"Bentonville","state_name":"Arkansas","lat":36.32258,"lng":-94.18085,"zip":"72716","miles_from_dt":10.92},{"city":"Pea Ridge","state_name":"Arkansas","lat":36.46255,"lng":-94.11825,"zip":"72751","miles_from_dt":11.94},{"city":"Cave Springs","state_name":"Arkansas","lat":36.26347,"lng":-94.22147,"zip":"72718","miles_from_dt":12.75},{"city":"Gentry","state_name":"Arkansas","lat":36.27217,"lng":-94.45355,"zip":"72734","miles_from_dt":12.78},{"city":"Rogers","state_name":"Arkansas","lat":36.33365,"lng":-94.12731,"zip":"72757","miles_from_dt":12.91},{"city":"Lanagan","state_name":"Missouri","lat":36.59217,"lng":-94.43863,"zip":"64847","miles_from_dt":12.94},{"city":"Rogers","state_name":"Arkansas","lat":36.29898,"lng":-94.14099,"zip":"72758","miles_from_dt":13.67},{"city":"Maysville","state_name":"Arkansas","lat":36.37023,"lng":-94.5807,"zip":"72747","miles_from_dt":14.62},{"city":"Powell","state_name":"Missouri","lat":36.61549,"lng":-94.17001,"zip":"65730","miles_from_dt":15.68},{"city":"Elm Springs","state_name":"Arkansas","lat":36.20539,"lng":-94.23169,"zip":"72728","miles_from_dt":16.21},{"city":"Avoca","state_name":"Arkansas","lat":36.3554,"lng":-94.04495,"zip":"72711","miles_from_dt":16.54},{"city":"South West City","state_name":"Missouri","lat":36.55511,"lng":-94.58444,"zip":"64863","miles_from_dt":16.78},{"city":"Anderson","state_name":"Missouri","lat":36.65598,"lng":-94.4541,"zip":"64831","miles_from_dt":17.27},{"city":"Tontitown","state_name":"Arkansas","lat":36.18797,"lng":-94.22779,"zip":"72770","miles_from_dt":17.41},{"city":"Springdale","state_name":"Arkansas","lat":36.18747,"lng":-94.22794,"zip":"72762","miles_from_dt":17.44},{"city":"Lowell","state_name":"Arkansas","lat":36.2477,"lng":-94.10046,"zip":"72745","miles_from_dt":17.73},{"city":"Siloam Springs","state_name":"Arkansas","lat":36.17074,"lng":-94.45778,"zip":"72761","miles_from_dt":19.11},{"city":"Springdale","state_name":"Arkansas","lat":36.18536,"lng":-94.13066,"zip":"72766","miles_from_dt":19.98},{"city":"Washburn","state_name":"Missouri","lat":36.59624,"lng":-94.03479,"zip":"65772","miles_from_dt":20.06},{"city":"Rogers","state_name":"Arkansas","lat":36.32214,"lng":-93.9922,"zip":"72756","miles_from_dt":20.08},{"city":"Springdale","state_name":"Arkansas","lat":36.19589,"lng":-94.1028,"zip":"72765","miles_from_dt":20.3},{"city":"Garfield","state_name":"Arkansas","lat":36.43187,"lng":-93.95968,"zip":"72732","miles_from_dt":20.53},{"city":"Seligman","state_name":"Missouri","lat":36.52928,"lng":-93.97917,"zip":"65745","miles_from_dt":20.66},{"city":"Rocky Comfort","state_name":"Missouri","lat":36.6953,"lng":-94.14864,"zip":"64861","miles_from_dt":21.01},{"city":"Stella","state_name":"Missouri","lat":36.73023,"lng":-94.23316,"zip":"64867","miles_from_dt":21.55},{"city":"Goodman","state_name":"Missouri","lat":36.73345,"lng":-94.45319,"zip":"64843","miles_from_dt":22.24},{"city":"Fayetteville","state_name":"Arkansas","lat":36.10475,"lng":-94.29539,"zip":"72704","miles_from_dt":22.3},{"city":"Johnson","state_name":"Arkansas","lat":36.12914,"lng":-94.16412,"zip":"72741","miles_from_dt":22.49},{"city":"Gateway","state_name":"Arkansas","lat":36.47989,"lng":-93.91902,"zip":"72733","miles_from_dt":23.07},{"city":"Springdale","state_name":"Arkansas","lat":36.17746,"lng":-94.051,"zip":"72764","miles_from_dt":23.14},{"city":"Jay","state_name":"Oklahoma","lat":36.43427,"lng":-94.75066,"zip":"74346","miles_from_dt":23.55},{"city":"Tiff City","state_name":"Missouri","lat":36.68742,"lng":-94.61285,"zip":"64868","miles_from_dt":23.94},{"city":"Colcord","state_name":"Oklahoma","lat":36.26234,"lng":-94.71572,"zip":"74338","miles_from_dt":24.43},{"city":"Exeter","state_name":"Missouri","lat":36.68968,"lng":-94.00624,"zip":"65647","miles_from_dt":25.46},{"city":"Grove","state_name":"Oklahoma","lat":36.59604,"lng":-94.73845,"zip":"74344","miles_from_dt":25.64},{"city":"Fayetteville","state_name":"Arkansas","lat":36.1155,"lng":-94.04897,"zip":"72703","miles_from_dt":26.54},{"city":"Fayetteville","state_name":"Arkansas","lat":36.06307,"lng":-94.16246,"zip":"72702","miles_from_dt":26.75},{"city":"Wheaton","state_name":"Missouri","lat":36.75617,"lng":-94.05444,"zip":"64874","miles_from_dt":27.31},{"city":"Farmington","state_name":"Arkansas","lat":36.03057,"lng":-94.26588,"zip":"72730","miles_from_dt":27.56},{"city":"Fairview","state_name":"Missouri","lat":36.7914,"lng":-94.10427,"zip":"64842","miles_from_dt":28.03},{"city":"Grove","state_name":"Oklahoma","lat":36.59523,"lng":-94.78745,"zip":"74345","miles_from_dt":28.08},{"city":"Watts","state_name":"Oklahoma","lat":36.11493,"lng":-94.6665,"zip":"74964","miles_from_dt":28.65},{"city":"Summers","state_name":"Arkansas","lat":36.0347,"lng":-94.49702,"zip":"72769","miles_from_dt":28.66},{"city":"Goshen","state_name":"Arkansas","lat":36.10018,"lng":-93.9891,"zip":"72735","miles_from_dt":29.43},{"city":"Eureka Springs","state_name":"Arkansas","lat":36.45146,"lng":-93.79131,"zip":"72631","miles_from_dt":29.95}],"targetCityZipCode":"72739","targetCityState":"Arkansas"},"__N_SSG":true}