{"pageProps":{"stateName":"Arkansas","cityName":"ponca","nearbyCities":[{"city":"Parthenon","state_name":"Arkansas","lat":35.94876,"lng":-93.28706,"zip":"72666","miles_from_dt":5.73},{"city":"Kingston","state_name":"Arkansas","lat":35.98159,"lng":-93.49528,"zip":"72742","miles_from_dt":6.6},{"city":"Compton","state_name":"Arkansas","lat":36.08208,"lng":-93.35655,"zip":"72624","miles_from_dt":6.64},{"city":"Jasper","state_name":"Arkansas","lat":35.98829,"lng":-93.21978,"zip":"72641","miles_from_dt":8.85},{"city":"Deer","state_name":"Arkansas","lat":35.82717,"lng":-93.28785,"zip":"72628","miles_from_dt":12.13},{"city":"Marble Falls","state_name":"Arkansas","lat":36.07516,"lng":-93.14399,"zip":"72648","miles_from_dt":14.43},{"city":"Vendor","state_name":"Arkansas","lat":35.93102,"lng":-93.11629,"zip":"72683","miles_from_dt":15.16},{"city":"Pettigrew","state_name":"Arkansas","lat":35.82077,"lng":-93.56357,"zip":"72752","miles_from_dt":15.5},{"city":"Witter","state_name":"Arkansas","lat":35.90913,"lng":-93.67307,"zip":"72776","miles_from_dt":17.41},{"city":"Alpena","state_name":"Arkansas","lat":36.24532,"lng":-93.32705,"zip":"72611","miles_from_dt":18.02},{"city":"Hasty","state_name":"Arkansas","lat":36.00708,"lng":-93.05061,"zip":"72640","miles_from_dt":18.38},{"city":"Huntsville","state_name":"Arkansas","lat":36.10889,"lng":-93.67599,"zip":"72740","miles_from_dt":18.69},{"city":"Ozone","state_name":"Arkansas","lat":35.69644,"lng":-93.43491,"zip":"72854","miles_from_dt":20.31},{"city":"Mount Judea","state_name":"Arkansas","lat":35.89346,"lng":-93.03421,"zip":"72655","miles_from_dt":20.32},{"city":"Saint Paul","state_name":"Arkansas","lat":35.82898,"lng":-93.69804,"zip":"72760","miles_from_dt":21.02},{"city":"Harrison","state_name":"Arkansas","lat":36.22696,"lng":-93.11509,"zip":"72602","miles_from_dt":22.12},{"city":"Western Grove","state_name":"Arkansas","lat":36.05539,"lng":-92.98194,"zip":"72685","miles_from_dt":22.66},{"city":"Green Forest","state_name":"Arkansas","lat":36.3245,"lng":-93.40496,"zip":"72638","miles_from_dt":23.3},{"city":"Harrison","state_name":"Arkansas","lat":36.23669,"lng":-93.09181,"zip":"72601","miles_from_dt":23.49},{"city":"Pelsor","state_name":"Arkansas","lat":35.76773,"lng":-93.05658,"zip":"72856","miles_from_dt":23.53},{"city":"Oark","state_name":"Arkansas","lat":35.68243,"lng":-93.56684,"zip":"72852","miles_from_dt":23.55},{"city":"Hagarville","state_name":"Arkansas","lat":35.65131,"lng":-93.26384,"zip":"72839","miles_from_dt":24.03},{"city":"Wesley","state_name":"Arkansas","lat":36.01409,"lng":-93.84723,"zip":"72773","miles_from_dt":26.37},{"city":"Combs","state_name":"Arkansas","lat":35.78383,"lng":-93.78402,"zip":"72721","miles_from_dt":26.76},{"city":"Berryville","state_name":"Arkansas","lat":36.35047,"lng":-93.55736,"zip":"72616","miles_from_dt":26.98},{"city":"Pindall","state_name":"Arkansas","lat":36.06477,"lng":-92.87359,"zip":"72669","miles_from_dt":28.74}],"targetCityZipCode":"72670","targetCityState":"Arkansas"},"__N_SSG":true}