{"pageProps":{"stateName":"Arkansas","cityName":"adona","nearbyCities":[{"city":"Perry","state_name":"Arkansas","lat":35.06421,"lng":-92.794,"zip":"72125","miles_from_dt":4.68},{"city":"Casa","state_name":"Arkansas","lat":35.0551,"lng":-92.99604,"zip":"72025","miles_from_dt":6.9},{"city":"Morrilton","state_name":"Arkansas","lat":35.15514,"lng":-92.77273,"zip":"72110","miles_from_dt":8.18},{"city":"Perryville","state_name":"Arkansas","lat":34.9376,"lng":-92.91024,"zip":"72126","miles_from_dt":9.48},{"city":"Houston","state_name":"Arkansas","lat":35.01346,"lng":-92.6995,"zip":"72070","miles_from_dt":10.8},{"city":"Atkins","state_name":"Arkansas","lat":35.25213,"lng":-92.89847,"zip":"72823","miles_from_dt":12.47},{"city":"Pottsville","state_name":"Arkansas","lat":35.20582,"lng":-93.04433,"zip":"72858","miles_from_dt":13.25},{"city":"Bigelow","state_name":"Arkansas","lat":34.97702,"lng":-92.62763,"zip":"72016","miles_from_dt":15.54},{"city":"Centerville","state_name":"Arkansas","lat":35.10351,"lng":-93.1753,"zip":"72829","miles_from_dt":17.09},{"city":"Plumerville","state_name":"Arkansas","lat":35.16237,"lng":-92.59419,"zip":"72127","miles_from_dt":17.13},{"city":"Russellville","state_name":"Arkansas","lat":35.22319,"lng":-93.12032,"zip":"72812","miles_from_dt":17.31},{"city":"Hattieville","state_name":"Arkansas","lat":35.32205,"lng":-92.77249,"zip":"72063","miles_from_dt":18.19},{"city":"Solgohachia","state_name":"Arkansas","lat":35.28595,"lng":-92.68331,"zip":"72156","miles_from_dt":18.33},{"city":"Dardanelle","state_name":"Arkansas","lat":35.17202,"lng":-93.19401,"zip":"72834","miles_from_dt":19.28},{"city":"Menifee","state_name":"Arkansas","lat":35.14255,"lng":-92.53844,"zip":"72107","miles_from_dt":19.73},{"city":"Russellville","state_name":"Arkansas","lat":35.31334,"lng":-93.06726,"zip":"72802","miles_from_dt":19.83},{"city":"Russellville","state_name":"Arkansas","lat":35.27822,"lng":-93.13419,"zip":"72811","miles_from_dt":20.38},{"city":"Ola","state_name":"Arkansas","lat":35.01146,"lng":-93.23358,"zip":"72853","miles_from_dt":20.7},{"city":"Russellville","state_name":"Arkansas","lat":35.28057,"lng":-93.14161,"zip":"72801","miles_from_dt":20.79},{"city":"Paron","state_name":"Arkansas","lat":34.77955,"lng":-92.77549,"zip":"72122","miles_from_dt":20.97},{"city":"Springfield","state_name":"Arkansas","lat":35.2714,"lng":-92.56412,"zip":"72157","miles_from_dt":22.36},{"city":"Roland","state_name":"Arkansas","lat":34.87698,"lng":-92.56087,"zip":"72135","miles_from_dt":22.38},{"city":"Conway","state_name":"Arkansas","lat":35.05405,"lng":-92.47945,"zip":"72034","miles_from_dt":22.51},{"city":"Mayflower","state_name":"Arkansas","lat":34.96997,"lng":-92.48727,"zip":"72106","miles_from_dt":23.15},{"city":"Conway","state_name":"Arkansas","lat":35.07902,"lng":-92.45829,"zip":"72035","miles_from_dt":23.68},{"city":"Wooster","state_name":"Arkansas","lat":35.16237,"lng":-92.44503,"zip":"72181","miles_from_dt":25.19},{"city":"Center Ridge","state_name":"Arkansas","lat":35.37021,"lng":-92.57494,"zip":"72027","miles_from_dt":26.68},{"city":"Little Rock","state_name":"Arkansas","lat":34.79304,"lng":-92.536,"zip":"72221","miles_from_dt":27.26},{"city":"Cleveland","state_name":"Arkansas","lat":35.43428,"lng":-92.68003,"zip":"72030","miles_from_dt":27.31},{"city":"Conway","state_name":"Arkansas","lat":35.08248,"lng":-92.37509,"zip":"72033","miles_from_dt":28.4},{"city":"Hot Springs Village","state_name":"Arkansas","lat":34.66825,"lng":-93.00112,"zip":"71910","miles_from_dt":28.74},{"city":"Conway","state_name":"Arkansas","lat":35.07393,"lng":-92.36451,"zip":"72032","miles_from_dt":28.99},{"city":"Little Rock","state_name":"Arkansas","lat":34.79251,"lng":-92.49091,"zip":"72223","miles_from_dt":29.15},{"city":"Delaware","state_name":"Arkansas","lat":35.27634,"lng":-93.3425,"zip":"72835","miles_from_dt":29.92},{"city":"Plainview","state_name":"Arkansas","lat":34.86217,"lng":-93.33826,"zip":"72857","miles_from_dt":29.96}],"targetCityZipCode":"72001","targetCityState":"Arkansas"},"__N_SSG":true}