{"pageProps":{"stateName":"Arkansas","cityName":"corning","nearbyCities":[{"city":"Knobel","state_name":"Arkansas","lat":36.31177,"lng":-90.54593,"zip":"72435","miles_from_dt":7.39},{"city":"McDougal","state_name":"Arkansas","lat":36.4355,"lng":-90.38944,"zip":"72441","miles_from_dt":8.68},{"city":"Success","state_name":"Arkansas","lat":36.4668,"lng":-90.70309,"zip":"72470","miles_from_dt":9.47},{"city":"Datto","state_name":"Arkansas","lat":36.39185,"lng":-90.72874,"zip":"72424","miles_from_dt":10.47},{"city":"Peach Orchard","state_name":"Arkansas","lat":36.30909,"lng":-90.67887,"zip":"72453","miles_from_dt":10.68},{"city":"Neelyville","state_name":"Missouri","lat":36.56365,"lng":-90.47337,"zip":"63954","miles_from_dt":10.72},{"city":"Reyno","state_name":"Arkansas","lat":36.38243,"lng":-90.75916,"zip":"72462","miles_from_dt":12.26},{"city":"Pollard","state_name":"Arkansas","lat":36.45362,"lng":-90.32217,"zip":"72456","miles_from_dt":12.58},{"city":"Naylor","state_name":"Missouri","lat":36.59134,"lng":-90.62995,"zip":"63953","miles_from_dt":12.82},{"city":"Lafe","state_name":"Arkansas","lat":36.23574,"lng":-90.48281,"zip":"72436","miles_from_dt":13.08},{"city":"Oxly","state_name":"Missouri","lat":36.60211,"lng":-90.67864,"zip":"63955","miles_from_dt":14.69},{"city":"Harviell","state_name":"Missouri","lat":36.6381,"lng":-90.5524,"zip":"63945","miles_from_dt":15.12},{"city":"Biggers","state_name":"Arkansas","lat":36.30564,"lng":-90.81251,"zip":"72413","miles_from_dt":16.9},{"city":"Delaplaine","state_name":"Arkansas","lat":36.22138,"lng":-90.74308,"zip":"72425","miles_from_dt":17.58},{"city":"Maynard","state_name":"Arkansas","lat":36.4266,"lng":-90.86106,"zip":"72444","miles_from_dt":17.68},{"city":"Rector","state_name":"Arkansas","lat":36.26679,"lng":-90.28254,"zip":"72461","miles_from_dt":17.96},{"city":"Marmaduke","state_name":"Arkansas","lat":36.1812,"lng":-90.41037,"zip":"72443","miles_from_dt":18.01},{"city":"Qulin","state_name":"Missouri","lat":36.56848,"lng":-90.2749,"zip":"63961","miles_from_dt":18.18},{"city":"Piggott","state_name":"Arkansas","lat":36.40083,"lng":-90.20623,"zip":"72454","miles_from_dt":18.86},{"city":"Fairdealing","state_name":"Missouri","lat":36.68456,"lng":-90.68253,"zip":"63939","miles_from_dt":19.87},{"city":"Greenway","state_name":"Arkansas","lat":36.336,"lng":-90.17366,"zip":"72430","miles_from_dt":21.42},{"city":"Beech Grove","state_name":"Arkansas","lat":36.12572,"lng":-90.69172,"zip":"72412","miles_from_dt":21.84},{"city":"Saint Francis","state_name":"Arkansas","lat":36.45405,"lng":-90.1434,"zip":"72464","miles_from_dt":22.44},{"city":"O'Kean","state_name":"Arkansas","lat":36.16662,"lng":-90.81719,"zip":"72449","miles_from_dt":23.14},{"city":"Paragould","state_name":"Arkansas","lat":36.0784,"lng":-90.51695,"zip":"72450","miles_from_dt":23.53},{"city":"Poplar Bluff","state_name":"Missouri","lat":36.7556,"lng":-90.3952,"zip":"63902","miles_from_dt":24.64},{"city":"Poplar Bluff","state_name":"Missouri","lat":36.77168,"lng":-90.45012,"zip":"63901","miles_from_dt":24.88},{"city":"Broseley","state_name":"Missouri","lat":36.6879,"lng":-90.24533,"zip":"63932","miles_from_dt":24.89},{"city":"Paragould","state_name":"Arkansas","lat":36.05879,"lng":-90.49971,"zip":"72451","miles_from_dt":24.95},{"city":"Campbell","state_name":"Missouri","lat":36.52102,"lng":-90.10876,"zip":"63933","miles_from_dt":25.23},{"city":"Walcott","state_name":"Arkansas","lat":36.04462,"lng":-90.67259,"zip":"72474","miles_from_dt":26.79},{"city":"Doniphan","state_name":"Missouri","lat":36.67053,"lng":-90.92055,"zip":"63935","miles_from_dt":27.21},{"city":"Briar","state_name":"Missouri","lat":36.64159,"lng":-90.95927,"zip":"63931","miles_from_dt":27.75},{"city":"Gibson","state_name":"Missouri","lat":36.44271,"lng":-90.03474,"zip":"63847","miles_from_dt":28.41},{"city":"Warm Springs","state_name":"Arkansas","lat":36.46249,"lng":-91.05373,"zip":"72478","miles_from_dt":28.56},{"city":"Pocahontas","state_name":"Arkansas","lat":36.3229,"lng":-91.04909,"zip":"72455","miles_from_dt":28.94},{"city":"Senath","state_name":"Missouri","lat":36.13206,"lng":-90.16487,"zip":"63876","miles_from_dt":28.96},{"city":"Cardwell","state_name":"Missouri","lat":36.03652,"lng":-90.31173,"zip":"63829","miles_from_dt":29.38},{"city":"Whiteoak","state_name":"Missouri","lat":36.32986,"lng":-90.02585,"zip":"63880","miles_from_dt":29.53},{"city":"Holcomb","state_name":"Missouri","lat":36.36748,"lng":-90.01435,"zip":"63852","miles_from_dt":29.73},{"city":"Fisk","state_name":"Missouri","lat":36.77218,"lng":-90.22892,"zip":"63940","miles_from_dt":30}],"targetCityZipCode":"72422","targetCityState":"Arkansas"},"__N_SSG":true}