{"pageProps":{"stateName":"Arkansas","cityName":"gateway","nearbyCities":[{"city":"Garfield","state_name":"Arkansas","lat":36.43187,"lng":-93.95968,"zip":"72732","miles_from_dt":4.01},{"city":"Seligman","state_name":"Missouri","lat":36.52928,"lng":-93.97917,"zip":"65745","miles_from_dt":4.78},{"city":"Eureka Springs","state_name":"Arkansas","lat":36.45146,"lng":-93.79131,"zip":"72631","miles_from_dt":7.38},{"city":"Eagle Rock","state_name":"Missouri","lat":36.5481,"lng":-93.76198,"zip":"65641","miles_from_dt":9.93},{"city":"Washburn","state_name":"Missouri","lat":36.59624,"lng":-94.03479,"zip":"65772","miles_from_dt":10.29},{"city":"Avoca","state_name":"Arkansas","lat":36.3554,"lng":-94.04495,"zip":"72711","miles_from_dt":11.09},{"city":"Pea Ridge","state_name":"Arkansas","lat":36.46255,"lng":-94.11825,"zip":"72751","miles_from_dt":11.16},{"city":"Rogers","state_name":"Arkansas","lat":36.32214,"lng":-93.9922,"zip":"72756","miles_from_dt":11.62},{"city":"Eureka Springs","state_name":"Arkansas","lat":36.37248,"lng":-93.74355,"zip":"72632","miles_from_dt":12.27},{"city":"Cassville","state_name":"Missouri","lat":36.67635,"lng":-93.8174,"zip":"65625","miles_from_dt":14.68},{"city":"Exeter","state_name":"Missouri","lat":36.68968,"lng":-94.00624,"zip":"65647","miles_from_dt":15.26},{"city":"Rogers","state_name":"Arkansas","lat":36.33365,"lng":-94.12731,"zip":"72757","miles_from_dt":15.38},{"city":"Golden","state_name":"Missouri","lat":36.5426,"lng":-93.63984,"zip":"65658","miles_from_dt":16.13},{"city":"Bella Vista","state_name":"Arkansas","lat":36.46841,"lng":-94.21649,"zip":"72714","miles_from_dt":16.58},{"city":"Powell","state_name":"Missouri","lat":36.61549,"lng":-94.17001,"zip":"65730","miles_from_dt":16.81},{"city":"Rogers","state_name":"Arkansas","lat":36.29898,"lng":-94.14099,"zip":"72758","miles_from_dt":17.57},{"city":"Bentonville","state_name":"Arkansas","lat":36.39837,"lng":-94.22196,"zip":"72712","miles_from_dt":17.79},{"city":"Beaver","state_name":"Arkansas","lat":36.38642,"lng":-93.61763,"zip":"72613","miles_from_dt":17.99},{"city":"Bentonville","state_name":"Arkansas","lat":36.32258,"lng":-94.18085,"zip":"72716","miles_from_dt":18.18},{"city":"Butterfield","state_name":"Missouri","lat":36.7489,"lng":-93.90659,"zip":"65623","miles_from_dt":18.56},{"city":"Lowell","state_name":"Arkansas","lat":36.2477,"lng":-94.10046,"zip":"72745","miles_from_dt":18.94},{"city":"Rocky Comfort","state_name":"Missouri","lat":36.6953,"lng":-94.14864,"zip":"64861","miles_from_dt":19.59},{"city":"Pineville","state_name":"Missouri","lat":36.5652,"lng":-94.26346,"zip":"64856","miles_from_dt":20.05},{"city":"Wheaton","state_name":"Missouri","lat":36.75617,"lng":-94.05444,"zip":"64874","miles_from_dt":20.48},{"city":"Shell Knob","state_name":"Missouri","lat":36.60248,"lng":-93.57971,"zip":"65747","miles_from_dt":20.69},{"city":"Bella Vista","state_name":"Arkansas","lat":36.46505,"lng":-94.30545,"zip":"72715","miles_from_dt":21.54},{"city":"Hindsville","state_name":"Arkansas","lat":36.16258,"lng":-93.885,"zip":"72738","miles_from_dt":21.96},{"city":"Berryville","state_name":"Arkansas","lat":36.35047,"lng":-93.55736,"zip":"72616","miles_from_dt":22.04},{"city":"Purdy","state_name":"Missouri","lat":36.79841,"lng":-93.95233,"zip":"65734","miles_from_dt":22.04},{"city":"Springdale","state_name":"Arkansas","lat":36.19589,"lng":-94.1028,"zip":"72765","miles_from_dt":22.1},{"city":"Springdale","state_name":"Arkansas","lat":36.17746,"lng":-94.051,"zip":"72764","miles_from_dt":22.11},{"city":"Centerton","state_name":"Arkansas","lat":36.36837,"lng":-94.29551,"zip":"72719","miles_from_dt":22.34},{"city":"Cave Springs","state_name":"Arkansas","lat":36.26347,"lng":-94.22147,"zip":"72718","miles_from_dt":22.52},{"city":"Hiwasse","state_name":"Arkansas","lat":36.42715,"lng":-94.32801,"zip":"72739","miles_from_dt":23.07},{"city":"Springdale","state_name":"Arkansas","lat":36.18536,"lng":-94.13066,"zip":"72766","miles_from_dt":23.49},{"city":"Bentonville","state_name":"Arkansas","lat":36.30036,"lng":-94.28372,"zip":"72713","miles_from_dt":23.8},{"city":"Fairview","state_name":"Missouri","lat":36.7914,"lng":-94.10427,"zip":"64842","miles_from_dt":23.82},{"city":"Stella","state_name":"Missouri","lat":36.73023,"lng":-94.23316,"zip":"64867","miles_from_dt":24.56},{"city":"Lampe","state_name":"Missouri","lat":36.55211,"lng":-93.46658,"zip":"65681","miles_from_dt":25.67},{"city":"Elm Springs","state_name":"Arkansas","lat":36.20539,"lng":-94.23169,"zip":"72728","miles_from_dt":25.74},{"city":"Fayetteville","state_name":"Arkansas","lat":36.1155,"lng":-94.04897,"zip":"72703","miles_from_dt":26.15},{"city":"Cape Fair","state_name":"Missouri","lat":36.73276,"lng":-93.56241,"zip":"65624","miles_from_dt":26.4},{"city":"Goshen","state_name":"Arkansas","lat":36.10018,"lng":-93.9891,"zip":"72735","miles_from_dt":26.47},{"city":"Tontitown","state_name":"Arkansas","lat":36.18797,"lng":-94.22779,"zip":"72770","miles_from_dt":26.49},{"city":"Springdale","state_name":"Arkansas","lat":36.18747,"lng":-94.22794,"zip":"72762","miles_from_dt":26.52},{"city":"Johnson","state_name":"Arkansas","lat":36.12914,"lng":-94.16412,"zip":"72741","miles_from_dt":27.78},{"city":"Kimberling City","state_name":"Missouri","lat":36.62275,"lng":-93.43625,"zip":"65686","miles_from_dt":28.61},{"city":"Huntsville","state_name":"Arkansas","lat":36.10889,"lng":-93.67599,"zip":"72740","miles_from_dt":28.95},{"city":"Noel","state_name":"Missouri","lat":36.54369,"lng":-94.44144,"zip":"64854","miles_from_dt":29.41},{"city":"Stark City","state_name":"Missouri","lat":36.8677,"lng":-94.14317,"zip":"64866","miles_from_dt":29.5},{"city":"Monett","state_name":"Missouri","lat":36.91048,"lng":-93.90899,"zip":"65708","miles_from_dt":29.7},{"city":"Lanagan","state_name":"Missouri","lat":36.59217,"lng":-94.43863,"zip":"64847","miles_from_dt":29.93}],"targetCityZipCode":"72733","targetCityState":"Arkansas"},"__N_SSG":true}