{"pageProps":{"stateName":"Arkansas","cityName":"higginson","nearbyCities":[{"city":"Garner","state_name":"Arkansas","lat":35.13965,"lng":-91.78097,"zip":"72052","miles_from_dt":3.91},{"city":"Searcy","state_name":"Arkansas","lat":35.2279,"lng":-91.73613,"zip":"72143","miles_from_dt":4.98},{"city":"Kensett","state_name":"Arkansas","lat":35.23713,"lng":-91.66963,"zip":"72082","miles_from_dt":6.06},{"city":"Searcy","state_name":"Arkansas","lat":35.24748,"lng":-91.72668,"zip":"72149","miles_from_dt":6.22},{"city":"West Point","state_name":"Arkansas","lat":35.20381,"lng":-91.61265,"zip":"72178","miles_from_dt":6.63},{"city":"Searcy","state_name":"Arkansas","lat":35.25209,"lng":-91.74286,"zip":"72145","miles_from_dt":6.69},{"city":"McRae","state_name":"Arkansas","lat":35.14556,"lng":-91.83352,"zip":"72102","miles_from_dt":6.74},{"city":"Griffithville","state_name":"Arkansas","lat":35.07609,"lng":-91.57779,"zip":"72060","miles_from_dt":9.61},{"city":"Beebe","state_name":"Arkansas","lat":35.10199,"lng":-91.91789,"zip":"72012","miles_from_dt":12.09},{"city":"Hickory Plains","state_name":"Arkansas","lat":34.98141,"lng":-91.7171,"zip":"72066","miles_from_dt":12.15},{"city":"Ward","state_name":"Arkansas","lat":35.00279,"lng":-91.84212,"zip":"72176","miles_from_dt":12.86},{"city":"Bald Knob","state_name":"Arkansas","lat":35.30555,"lng":-91.52112,"zip":"72010","miles_from_dt":14.99},{"city":"Judsonia","state_name":"Arkansas","lat":35.37827,"lng":-91.66947,"zip":"72081","miles_from_dt":15.43},{"city":"Letona","state_name":"Arkansas","lat":35.36665,"lng":-91.82772,"zip":"72085","miles_from_dt":15.74},{"city":"Des Arc","state_name":"Arkansas","lat":34.96957,"lng":-91.52129,"zip":"72040","miles_from_dt":17.01},{"city":"Romance","state_name":"Arkansas","lat":35.23538,"lng":-92.02129,"zip":"72136","miles_from_dt":18.12},{"city":"Russell","state_name":"Arkansas","lat":35.36212,"lng":-91.50997,"zip":"72139","miles_from_dt":18.27},{"city":"Austin","state_name":"Arkansas","lat":35.0004,"lng":-91.97902,"zip":"72007","miles_from_dt":18.45},{"city":"El Paso","state_name":"Arkansas","lat":35.12618,"lng":-92.05483,"zip":"72045","miles_from_dt":19.34},{"city":"Pangburn","state_name":"Arkansas","lat":35.45561,"lng":-91.78525,"zip":"72121","miles_from_dt":20.92},{"city":"Gregory","state_name":"Arkansas","lat":35.15455,"lng":-91.34209,"zip":"72059","miles_from_dt":21.14},{"city":"Rose Bud","state_name":"Arkansas","lat":35.33756,"lng":-92.02933,"zip":"72137","miles_from_dt":21.65},{"city":"Augusta","state_name":"Arkansas","lat":35.24602,"lng":-91.34495,"zip":"72006","miles_from_dt":21.83},{"city":"Cabot","state_name":"Arkansas","lat":34.95909,"lng":-92.05925,"zip":"72023","miles_from_dt":23.81},{"city":"Mount Vernon","state_name":"Arkansas","lat":35.23688,"lng":-92.13307,"zip":"72111","miles_from_dt":24.25},{"city":"Wilburn","state_name":"Arkansas","lat":35.49773,"lng":-91.86565,"zip":"72179","miles_from_dt":24.93},{"city":"Biscoe","state_name":"Arkansas","lat":34.89215,"lng":-91.40714,"zip":"72017","miles_from_dt":25.31},{"city":"Hazen","state_name":"Arkansas","lat":34.79457,"lng":-91.61226,"zip":"72064","miles_from_dt":25.71},{"city":"Heber Springs","state_name":"Arkansas","lat":35.45528,"lng":-91.99407,"zip":"72543","miles_from_dt":25.86},{"city":"Bradford","state_name":"Arkansas","lat":35.48054,"lng":-91.47669,"zip":"72020","miles_from_dt":26.03},{"city":"Lonoke","state_name":"Arkansas","lat":34.80418,"lng":-91.90619,"zip":"72086","miles_from_dt":26.66},{"city":"Cotton Plant","state_name":"Arkansas","lat":35.00673,"lng":-91.27205,"zip":"72036","miles_from_dt":27.2},{"city":"Patterson","state_name":"Arkansas","lat":35.25774,"lng":-91.23675,"zip":"72123","miles_from_dt":27.95},{"city":"Carlisle","state_name":"Arkansas","lat":34.75168,"lng":-91.74902,"zip":"72024","miles_from_dt":28.05},{"city":"Vilonia","state_name":"Arkansas","lat":35.10001,"lng":-92.20807,"zip":"72173","miles_from_dt":28.18},{"city":"Enola","state_name":"Arkansas","lat":35.22809,"lng":-92.21055,"zip":"72047","miles_from_dt":28.43},{"city":"Pleasant Plains","state_name":"Arkansas","lat":35.56676,"lng":-91.62147,"zip":"72568","miles_from_dt":28.7},{"city":"Jacksonville","state_name":"Arkansas","lat":34.91072,"lng":-92.14303,"zip":"72076","miles_from_dt":29.62},{"city":"Heber Springs","state_name":"Arkansas","lat":35.48791,"lng":-92.05573,"zip":"72545","miles_from_dt":29.8}],"targetCityZipCode":"72068","targetCityState":"Arkansas"},"__N_SSG":true}