{"pageProps":{"stateName":"Kentucky","cityName":"gays-creek","nearbyCities":[{"city":"Buckhorn","state_name":"Kentucky","lat":37.31371,"lng":-83.49949,"zip":"41721","miles_from_dt":4.45},{"city":"Saul","state_name":"Kentucky","lat":37.27792,"lng":-83.48531,"zip":"40981","miles_from_dt":5.56},{"city":"Whick","state_name":"Kentucky","lat":37.41872,"lng":-83.3792,"zip":"41390","miles_from_dt":5.79},{"city":"Chavies","state_name":"Kentucky","lat":37.35624,"lng":-83.32352,"zip":"41727","miles_from_dt":5.84},{"city":"Krypton","state_name":"Kentucky","lat":37.30025,"lng":-83.32459,"zip":"41754","miles_from_dt":6.48},{"city":"Yerkes","state_name":"Kentucky","lat":37.26612,"lng":-83.3223,"zip":"41778","miles_from_dt":7.96},{"city":"Lost Creek","state_name":"Kentucky","lat":37.42577,"lng":-83.31387,"zip":"41348","miles_from_dt":8.44},{"city":"Busy","state_name":"Kentucky","lat":37.25469,"lng":-83.31409,"zip":"41723","miles_from_dt":8.84},{"city":"Mistletoe","state_name":"Kentucky","lat":37.32754,"lng":-83.59363,"zip":"41351","miles_from_dt":9.17},{"city":"Sizerock","state_name":"Kentucky","lat":37.20742,"lng":-83.50077,"zip":"41762","miles_from_dt":10.26},{"city":"Hyden","state_name":"Kentucky","lat":37.19364,"lng":-83.4199,"zip":"41749","miles_from_dt":10.41},{"city":"Bonnyman","state_name":"Kentucky","lat":37.29727,"lng":-83.24526,"zip":"41719","miles_from_dt":10.6},{"city":"Thousandsticks","state_name":"Kentucky","lat":37.18526,"lng":-83.44443,"zip":"41766","miles_from_dt":11.02},{"city":"Rowdy","state_name":"Kentucky","lat":37.4045,"lng":-83.23218,"zip":"41367","miles_from_dt":11.57},{"city":"Avawam","state_name":"Kentucky","lat":37.22703,"lng":-83.27799,"zip":"41713","miles_from_dt":11.59},{"city":"Ricetown","state_name":"Kentucky","lat":37.37569,"lng":-83.64172,"zip":"41364","miles_from_dt":11.93},{"city":"Oneida","state_name":"Kentucky","lat":37.24501,"lng":-83.60692,"zip":"40972","miles_from_dt":11.99},{"city":"Dice","state_name":"Kentucky","lat":37.37707,"lng":-83.20839,"zip":"41736","miles_from_dt":12.32},{"city":"Combs","state_name":"Kentucky","lat":37.2681,"lng":-83.2159,"zip":"41729","miles_from_dt":12.84},{"city":"Bear Branch","state_name":"Kentucky","lat":37.16519,"lng":-83.5075,"zip":"41714","miles_from_dt":13.11},{"city":"Booneville","state_name":"Kentucky","lat":37.44008,"lng":-83.63743,"zip":"41314","miles_from_dt":13.25},{"city":"Hazard","state_name":"Kentucky","lat":37.29778,"lng":-83.18781,"zip":"41701","miles_from_dt":13.64},{"city":"Hazard","state_name":"Kentucky","lat":37.2494,"lng":-83.19137,"zip":"41702","miles_from_dt":14.62},{"city":"Jackson","state_name":"Kentucky","lat":37.53158,"lng":-83.29231,"zip":"41339","miles_from_dt":14.92},{"city":"Clayhole","state_name":"Kentucky","lat":37.46029,"lng":-83.19851,"zip":"41317","miles_from_dt":14.96},{"city":"Wooton","state_name":"Kentucky","lat":37.15933,"lng":-83.28158,"zip":"41776","miles_from_dt":15.12},{"city":"Lone","state_name":"Kentucky","lat":37.53286,"lng":-83.60177,"zip":"41347","miles_from_dt":16.11},{"city":"Ary","state_name":"Kentucky","lat":37.3744,"lng":-83.13751,"zip":"41712","miles_from_dt":16.15},{"city":"Dwarf","state_name":"Kentucky","lat":37.32596,"lng":-83.12802,"zip":"41739","miles_from_dt":16.59},{"city":"Stinnett","state_name":"Kentucky","lat":37.09367,"lng":-83.41638,"zip":"40868","miles_from_dt":17.31},{"city":"Smilax","state_name":"Kentucky","lat":37.12924,"lng":-83.25545,"zip":"41764","miles_from_dt":17.65},{"city":"Fisty","state_name":"Kentucky","lat":37.35498,"lng":-83.1045,"zip":"41743","miles_from_dt":17.85},{"city":"Sextons Creek","state_name":"Kentucky","lat":37.34608,"lng":-83.75339,"zip":"40983","miles_from_dt":17.89},{"city":"Wendover","state_name":"Kentucky","lat":37.09373,"lng":-83.34207,"zip":"41775","miles_from_dt":17.94},{"city":"Bulan","state_name":"Kentucky","lat":37.40441,"lng":-83.10329,"zip":"41722","miles_from_dt":18.37},{"city":"Jeff","state_name":"Kentucky","lat":37.2196,"lng":-83.12659,"zip":"41751","miles_from_dt":18.73},{"city":"Big Creek","state_name":"Kentucky","lat":37.0932,"lng":-83.56154,"zip":"40914","miles_from_dt":18.82},{"city":"Saint Helens","state_name":"Kentucky","lat":37.57933,"lng":-83.64406,"zip":"41368","miles_from_dt":20.07},{"city":"Happy","state_name":"Kentucky","lat":37.21574,"lng":-83.09779,"zip":"41746","miles_from_dt":20.27},{"city":"Essie","state_name":"Kentucky","lat":37.05208,"lng":-83.47187,"zip":"40827","miles_from_dt":20.31},{"city":"Hoskinston","state_name":"Kentucky","lat":37.05506,"lng":-83.35406,"zip":"40844","miles_from_dt":20.38},{"city":"Asher","state_name":"Kentucky","lat":37.04572,"lng":-83.42185,"zip":"40803","miles_from_dt":20.61},{"city":"Viper","state_name":"Kentucky","lat":37.15512,"lng":-83.13847,"zip":"41774","miles_from_dt":20.64},{"city":"Emmalena","state_name":"Kentucky","lat":37.35649,"lng":-83.0467,"zip":"41740","miles_from_dt":21.03},{"city":"Scuddy","state_name":"Kentucky","lat":37.19456,"lng":-83.08588,"zip":"41760","miles_from_dt":21.53},{"city":"Fall Rock","state_name":"Kentucky","lat":37.21991,"lng":-83.78907,"zip":"40932","miles_from_dt":21.65},{"city":"Vancleve","state_name":"Kentucky","lat":37.64998,"lng":-83.33665,"zip":"41385","miles_from_dt":21.66},{"city":"Carrie","state_name":"Kentucky","lat":37.31667,"lng":-83.03244,"zip":"41725","miles_from_dt":21.89},{"city":"Vincent","state_name":"Kentucky","lat":37.47992,"lng":-83.79273,"zip":"41386","miles_from_dt":22.11},{"city":"Manchester","state_name":"Kentucky","lat":37.14912,"lng":-83.74922,"zip":"40962","miles_from_dt":22.23},{"city":"Yeaddiss","state_name":"Kentucky","lat":37.06022,"lng":-83.23276,"zip":"41777","miles_from_dt":22.38},{"city":"Rousseau","state_name":"Kentucky","lat":37.62472,"lng":-83.21959,"zip":"41366","miles_from_dt":22.48},{"city":"Bays","state_name":"Kentucky","lat":37.64068,"lng":-83.25147,"zip":"41310","miles_from_dt":22.62},{"city":"Mozelle","state_name":"Kentucky","lat":37.01592,"lng":-83.40106,"zip":"40858","miles_from_dt":22.71},{"city":"Goose Rock","state_name":"Kentucky","lat":37.09008,"lng":-83.69306,"zip":"40944","miles_from_dt":22.82},{"city":"Beattyville","state_name":"Kentucky","lat":37.57896,"lng":-83.72163,"zip":"41311","miles_from_dt":22.83},{"city":"Garrard","state_name":"Kentucky","lat":37.12981,"lng":-83.74585,"zip":"40941","miles_from_dt":22.92},{"city":"Vest","state_name":"Kentucky","lat":37.4075,"lng":-83.01679,"zip":"41772","miles_from_dt":23.07},{"city":"Chappell","state_name":"Kentucky","lat":37.00879,"lng":-83.3667,"zip":"40816","miles_from_dt":23.4},{"city":"Sassafras","state_name":"Kentucky","lat":37.23211,"lng":-83.02521,"zip":"41759","miles_from_dt":23.53},{"city":"Roark","state_name":"Kentucky","lat":37.00491,"lng":-83.495,"zip":"40979","miles_from_dt":23.7},{"city":"Vicco","state_name":"Kentucky","lat":37.23534,"lng":-83.01721,"zip":"41773","miles_from_dt":23.88},{"city":"Tyner","state_name":"Kentucky","lat":37.37238,"lng":-83.86123,"zip":"40486","miles_from_dt":23.9},{"city":"Hima","state_name":"Kentucky","lat":37.11844,"lng":-83.77473,"zip":"40951","miles_from_dt":24.65},{"city":"Hindman","state_name":"Kentucky","lat":37.31991,"lng":-82.97848,"zip":"41822","miles_from_dt":24.84},{"city":"Warbranch","state_name":"Kentucky","lat":36.98407,"lng":-83.47345,"zip":"40874","miles_from_dt":24.98},{"city":"Big Laurel","state_name":"Kentucky","lat":36.9995,"lng":-83.2801,"zip":"40808","miles_from_dt":25.16},{"city":"Cornettsville","state_name":"Kentucky","lat":37.10312,"lng":-83.08393,"zip":"41731","miles_from_dt":25.26},{"city":"Zoe","state_name":"Kentucky","lat":37.66683,"lng":-83.67709,"zip":"41397","miles_from_dt":26.09},{"city":"Campton","state_name":"Kentucky","lat":37.72121,"lng":-83.48941,"zip":"41301","miles_from_dt":26.19},{"city":"Slemp","state_name":"Kentucky","lat":37.05439,"lng":-83.12157,"zip":"41763","miles_from_dt":26.21},{"city":"Leburn","state_name":"Kentucky","lat":37.38531,"lng":-82.94633,"zip":"41831","miles_from_dt":26.69},{"city":"Littcarr","state_name":"Kentucky","lat":37.26585,"lng":-82.94661,"zip":"41834","miles_from_dt":27.09},{"city":"Redfox","state_name":"Kentucky","lat":37.20823,"lng":-82.95961,"zip":"41847","miles_from_dt":27.49},{"city":"Helton","state_name":"Kentucky","lat":36.9457,"lng":-83.41854,"zip":"40840","miles_from_dt":27.51},{"city":"Rogers","state_name":"Kentucky","lat":37.71117,"lng":-83.62663,"zip":"41365","miles_from_dt":27.53},{"city":"Blackey","state_name":"Kentucky","lat":37.14923,"lng":-82.98993,"zip":"41804","miles_from_dt":27.67},{"city":"Beverly","state_name":"Kentucky","lat":36.94986,"lng":-83.54367,"zip":"40913","miles_from_dt":27.95},{"city":"Gray Hawk","state_name":"Kentucky","lat":37.39364,"lng":-83.93949,"zip":"40434","miles_from_dt":28.33},{"city":"Delphia","state_name":"Kentucky","lat":37.01793,"lng":-83.09963,"zip":"41735","miles_from_dt":28.92},{"city":"Hueysville","state_name":"Kentucky","lat":37.47649,"lng":-82.92643,"zip":"41640","miles_from_dt":29.08},{"city":"Garner","state_name":"Kentucky","lat":37.35922,"lng":-82.90038,"zip":"41817","miles_from_dt":29.09},{"city":"Mallie","state_name":"Kentucky","lat":37.25839,"lng":-82.90887,"zip":"41836","miles_from_dt":29.23},{"city":"Bledsoe","state_name":"Kentucky","lat":36.93176,"lng":-83.30451,"zip":"40810","miles_from_dt":29.27},{"city":"Letcher","state_name":"Kentucky","lat":37.15286,"lng":-82.9548,"zip":"41832","miles_from_dt":29.27},{"city":"Hallie","state_name":"Kentucky","lat":37.07563,"lng":-83.00711,"zip":"41821","miles_from_dt":29.73},{"city":"Gunlock","state_name":"Kentucky","lat":37.55029,"lng":-82.94982,"zip":"41632","miles_from_dt":29.9}],"targetCityZipCode":"41745","targetCityState":"Kentucky"},"__N_SSG":true}