{"pageProps":{"stateName":"Pennsylvania","cityName":"waterville","nearbyCities":[{"city":"Jersey Mills","state_name":"Pennsylvania","lat":41.41289,"lng":-77.40156,"zip":"17739","miles_from_dt":4.63},{"city":"Cammal","state_name":"Pennsylvania","lat":41.43125,"lng":-77.45629,"zip":"17723","miles_from_dt":7.53},{"city":"Morris","state_name":"Pennsylvania","lat":41.56935,"lng":-77.34487,"zip":"16938","miles_from_dt":10.64},{"city":"Slate Run","state_name":"Pennsylvania","lat":41.49939,"lng":-77.50073,"zip":"17769","miles_from_dt":11.3},{"city":"Cedar Run","state_name":"Pennsylvania","lat":41.53904,"lng":-77.47914,"zip":"17727","miles_from_dt":12.07},{"city":"Lock Haven","state_name":"Pennsylvania","lat":41.28589,"lng":-77.48097,"zip":"17745","miles_from_dt":12.59},{"city":"Jersey Shore","state_name":"Pennsylvania","lat":41.2342,"lng":-77.26171,"zip":"17740","miles_from_dt":12.89},{"city":"Cogan Station","state_name":"Pennsylvania","lat":41.32546,"lng":-77.08215,"zip":"17728","miles_from_dt":13.54},{"city":"Trout Run","state_name":"Pennsylvania","lat":41.43137,"lng":-77.04524,"zip":"17771","miles_from_dt":13.92},{"city":"Liberty","state_name":"Pennsylvania","lat":41.57693,"lng":-77.14021,"zip":"16930","miles_from_dt":14.2},{"city":"Linden","state_name":"Pennsylvania","lat":41.24397,"lng":-77.16139,"zip":"17744","miles_from_dt":14.3},{"city":"Woolrich","state_name":"Pennsylvania","lat":41.20551,"lng":-77.38019,"zip":"17779","miles_from_dt":15.02},{"city":"Avis","state_name":"Pennsylvania","lat":41.18155,"lng":-77.31927,"zip":"17721","miles_from_dt":16.25},{"city":"Antes Fort","state_name":"Pennsylvania","lat":41.18046,"lng":-77.20503,"zip":"17720","miles_from_dt":17.26},{"city":"North Bend","state_name":"Pennsylvania","lat":41.3966,"lng":-77.66602,"zip":"17760","miles_from_dt":18.42},{"city":"McElhattan","state_name":"Pennsylvania","lat":41.15147,"lng":-77.35043,"zip":"17748","miles_from_dt":18.43},{"city":"Williamsport","state_name":"Pennsylvania","lat":41.24061,"lng":-77.03912,"zip":"17705","miles_from_dt":18.72},{"city":"Williamsport","state_name":"Pennsylvania","lat":41.18215,"lng":-77.07728,"zip":"17702","miles_from_dt":20.31},{"city":"Williamsport","state_name":"Pennsylvania","lat":41.24,"lng":-77.00002,"zip":"17703","miles_from_dt":20.34},{"city":"Roaring Branch","state_name":"Pennsylvania","lat":41.57591,"lng":-76.97168,"zip":"17765","miles_from_dt":20.81},{"city":"Arnot","state_name":"Pennsylvania","lat":41.67787,"lng":-77.10392,"zip":"16911","miles_from_dt":21},{"city":"Castanea","state_name":"Pennsylvania","lat":41.12197,"lng":-77.4338,"zip":"17726","miles_from_dt":21.32},{"city":"Wellsboro","state_name":"Pennsylvania","lat":41.73038,"lng":-77.31841,"zip":"16901","miles_from_dt":21.63},{"city":"Ralston","state_name":"Pennsylvania","lat":41.50999,"lng":-76.91388,"zip":"17763","miles_from_dt":21.67},{"city":"Blossburg","state_name":"Pennsylvania","lat":41.66803,"lng":-77.05845,"zip":"16912","miles_from_dt":21.76},{"city":"Williamsport","state_name":"Pennsylvania","lat":41.34206,"lng":-76.88821,"zip":"17701","miles_from_dt":22.66},{"city":"Gaines","state_name":"Pennsylvania","lat":41.69614,"lng":-77.54654,"zip":"16921","miles_from_dt":22.76},{"city":"Mill Hall","state_name":"Pennsylvania","lat":41.13086,"lng":-77.53201,"zip":"17751","miles_from_dt":22.82},{"city":"Cross Fork","state_name":"Pennsylvania","lat":41.49798,"lng":-77.74106,"zip":"17729","miles_from_dt":22.94},{"city":"Montoursville","state_name":"Pennsylvania","lat":41.31108,"lng":-76.88421,"zip":"17754","miles_from_dt":23.44},{"city":"Morris Run","state_name":"Pennsylvania","lat":41.68097,"lng":-77.0141,"zip":"16939","miles_from_dt":23.9},{"city":"Covington","state_name":"Pennsylvania","lat":41.723,"lng":-77.05519,"zip":"16917","miles_from_dt":24.98},{"city":"Allenwood","state_name":"Pennsylvania","lat":41.1123,"lng":-77.02543,"zip":"17810","miles_from_dt":25.8},{"city":"Montgomery","state_name":"Pennsylvania","lat":41.18244,"lng":-76.92144,"zip":"17752","miles_from_dt":26.01},{"city":"Loganton","state_name":"Pennsylvania","lat":41.03847,"lng":-77.31497,"zip":"17747","miles_from_dt":26.12},{"city":"Mackeyville","state_name":"Pennsylvania","lat":41.05517,"lng":-77.47805,"zip":"17750","miles_from_dt":26.42},{"city":"Galeton","state_name":"Pennsylvania","lat":41.67191,"lng":-77.70064,"zip":"16922","miles_from_dt":26.72},{"city":"Grover","state_name":"Pennsylvania","lat":41.61486,"lng":-76.86716,"zip":"17735","miles_from_dt":26.84},{"city":"Renovo","state_name":"Pennsylvania","lat":41.34316,"lng":-77.82735,"zip":"17764","miles_from_dt":27.24},{"city":"Beech Creek","state_name":"Pennsylvania","lat":41.15813,"lng":-77.71441,"zip":"16822","miles_from_dt":27.51},{"city":"Blanchard","state_name":"Pennsylvania","lat":41.06199,"lng":-77.58598,"zip":"16826","miles_from_dt":28.34}],"targetCityZipCode":"17776","targetCityState":"Pennsylvania"},"__N_SSG":true}