{"pageProps":{"stateName":"Connecticut","cityName":"northfield","nearbyCities":[{"city":"Thomaston","state_name":"Connecticut","lat":41.67033,"lng":-73.08568,"zip":"06787","miles_from_dt":3.21},{"city":"Harwinton","state_name":"Connecticut","lat":41.75509,"lng":-73.05838,"zip":"06791","miles_from_dt":3.67},{"city":"Torrington","state_name":"Connecticut","lat":41.77,"lng":-73.06219,"zip":"06792","miles_from_dt":4.4},{"city":"Pequabuck","state_name":"Connecticut","lat":41.67173,"lng":-73.03229,"zip":"06781","miles_from_dt":4.77},{"city":"Plymouth","state_name":"Connecticut","lat":41.65448,"lng":-73.04731,"zip":"06782","miles_from_dt":5.1},{"city":"Morris","state_name":"Connecticut","lat":41.69027,"lng":-73.20714,"zip":"06763","miles_from_dt":5.57},{"city":"Terryville","state_name":"Connecticut","lat":41.66912,"lng":-73.01502,"zip":"06786","miles_from_dt":5.6},{"city":"Litchfield","state_name":"Connecticut","lat":41.75757,"lng":-73.21544,"zip":"06759","miles_from_dt":6.45},{"city":"Watertown","state_name":"Connecticut","lat":41.61873,"lng":-73.12336,"zip":"06795","miles_from_dt":6.69},{"city":"Lakeside","state_name":"Connecticut","lat":41.67672,"lng":-73.2286,"zip":"06758","miles_from_dt":6.93},{"city":"Bethlehem","state_name":"Connecticut","lat":41.63792,"lng":-73.2122,"zip":"06751","miles_from_dt":7.69},{"city":"Burlington","state_name":"Connecticut","lat":41.7598,"lng":-72.95895,"zip":"06013","miles_from_dt":8.15},{"city":"Bantam","state_name":"Connecticut","lat":41.72327,"lng":-73.2624,"zip":"06750","miles_from_dt":8.18},{"city":"Oakville","state_name":"Connecticut","lat":41.59562,"lng":-73.08058,"zip":"06779","miles_from_dt":8.31},{"city":"Torrington","state_name":"Connecticut","lat":41.83747,"lng":-73.12874,"zip":"06790","miles_from_dt":8.57},{"city":"Bristol","state_name":"Connecticut","lat":41.67746,"lng":-72.94628,"zip":"06011","miles_from_dt":8.58},{"city":"Bristol","state_name":"Connecticut","lat":41.681,"lng":-72.94065,"zip":"06010","miles_from_dt":8.79},{"city":"Waterbury","state_name":"Connecticut","lat":41.58601,"lng":-73.03296,"zip":"06704","miles_from_dt":9.62},{"city":"New Hartford","state_name":"Connecticut","lat":41.84417,"lng":-73.00552,"zip":"06057","miles_from_dt":10.3},{"city":"Wolcott","state_name":"Connecticut","lat":41.60102,"lng":-72.97325,"zip":"06716","miles_from_dt":10.38},{"city":"Waterbury","state_name":"Connecticut","lat":41.56958,"lng":-73.04598,"zip":"06710","miles_from_dt":10.46},{"city":"Waterbury","state_name":"Connecticut","lat":41.55985,"lng":-73.05903,"zip":"06721","miles_from_dt":10.94},{"city":"Waterbury","state_name":"Connecticut","lat":41.55876,"lng":-73.05218,"zip":"06701","miles_from_dt":11.1},{"city":"Washington","state_name":"Connecticut","lat":41.63089,"lng":-73.28835,"zip":"06793","miles_from_dt":11.13},{"city":"Waterbury","state_name":"Connecticut","lat":41.55961,"lng":-73.04141,"zip":"06724","miles_from_dt":11.19},{"city":"Waterbury","state_name":"Connecticut","lat":41.55713,"lng":-73.04539,"zip":"06702","miles_from_dt":11.3},{"city":"Unionville","state_name":"Connecticut","lat":41.74717,"lng":-72.88883,"zip":"06085","miles_from_dt":11.38},{"city":"Waterbury","state_name":"Connecticut","lat":41.55703,"lng":-73.03805,"zip":"06720","miles_from_dt":11.41},{"city":"Goshen","state_name":"Connecticut","lat":41.84714,"lng":-73.23715,"zip":"06756","miles_from_dt":11.42},{"city":"Waterbury","state_name":"Connecticut","lat":41.55707,"lng":-73.03674,"zip":"06723","miles_from_dt":11.43},{"city":"Waterbury","state_name":"Connecticut","lat":41.55647,"lng":-73.03858,"zip":"06722","miles_from_dt":11.44},{"city":"Waterbury","state_name":"Connecticut","lat":41.55503,"lng":-73.03798,"zip":"06726","miles_from_dt":11.55},{"city":"Waterbury","state_name":"Connecticut","lat":41.54939,"lng":-73.06738,"zip":"06708","miles_from_dt":11.57},{"city":"Waterbury","state_name":"Connecticut","lat":41.55266,"lng":-73.04093,"zip":"06725","miles_from_dt":11.66},{"city":"Woodbury","state_name":"Connecticut","lat":41.56149,"lng":-73.20703,"zip":"06798","miles_from_dt":11.83},{"city":"Farmington","state_name":"Connecticut","lat":41.70891,"lng":-72.87348,"zip":"06034","miles_from_dt":11.96},{"city":"New Preston Marble Dale","state_name":"Connecticut","lat":41.69412,"lng":-73.33931,"zip":"06777","miles_from_dt":12.22},{"city":"Washington Depot","state_name":"Connecticut","lat":41.64932,"lng":-73.32511,"zip":"06794","miles_from_dt":12.27},{"city":"Waterbury","state_name":"Connecticut","lat":41.549,"lng":-72.992,"zip":"06705","miles_from_dt":12.84},{"city":"Plainville","state_name":"Connecticut","lat":41.67338,"lng":-72.86079,"zip":"06062","miles_from_dt":12.93},{"city":"Middlebury","state_name":"Connecticut","lat":41.5271,"lng":-73.1228,"zip":"06762","miles_from_dt":12.98},{"city":"Winchester Center","state_name":"Connecticut","lat":41.90188,"lng":-73.1423,"zip":"06094","miles_from_dt":13.06},{"city":"Pine Meadow","state_name":"Connecticut","lat":41.87524,"lng":-72.96716,"zip":"06061","miles_from_dt":13.16},{"city":"Waterbury","state_name":"Connecticut","lat":41.53285,"lng":-73.02389,"zip":"06706","miles_from_dt":13.23},{"city":"Farmington","state_name":"Connecticut","lat":41.71177,"lng":-72.83934,"zip":"06030","miles_from_dt":13.72},{"city":"Waterbury","state_name":"Connecticut","lat":41.52891,"lng":-73.00787,"zip":"06703","miles_from_dt":13.76},{"city":"Cornwall Bridge","state_name":"Connecticut","lat":41.76841,"lng":-73.36127,"zip":"06754","miles_from_dt":13.78},{"city":"Marion","state_name":"Connecticut","lat":41.5634,"lng":-72.93038,"zip":"06444","miles_from_dt":13.8},{"city":"Collinsville","state_name":"Connecticut","lat":41.86595,"lng":-72.92749,"zip":"06022","miles_from_dt":13.88},{"city":"Southington","state_name":"Connecticut","lat":41.61312,"lng":-72.87233,"zip":"06489","miles_from_dt":13.91},{"city":"Plantsville","state_name":"Connecticut","lat":41.57799,"lng":-72.90398,"zip":"06479","miles_from_dt":14.03},{"city":"Farmington","state_name":"Connecticut","lat":41.72528,"lng":-72.83147,"zip":"06032","miles_from_dt":14.14},{"city":"Avon","state_name":"Connecticut","lat":41.79185,"lng":-72.85107,"zip":"06001","miles_from_dt":14.14},{"city":"Canton","state_name":"Connecticut","lat":41.8592,"lng":-72.90717,"zip":"06019","miles_from_dt":14.26},{"city":"Canton Center","state_name":"Connecticut","lat":41.86283,"lng":-72.90991,"zip":"06020","miles_from_dt":14.34},{"city":"Winsted","state_name":"Connecticut","lat":41.92379,"lng":-73.10003,"zip":"06098","miles_from_dt":14.43},{"city":"Cornwall","state_name":"Connecticut","lat":41.82514,"lng":-73.34471,"zip":"06753","miles_from_dt":14.56},{"city":"Waterbury","state_name":"Connecticut","lat":41.50498,"lng":-73.15243,"zip":"06749","miles_from_dt":14.68},{"city":"Milldale","state_name":"Connecticut","lat":41.56548,"lng":-72.90022,"zip":"06467","miles_from_dt":14.76},{"city":"Roxbury","state_name":"Connecticut","lat":41.55424,"lng":-73.29998,"zip":"06783","miles_from_dt":15},{"city":"West Hartford","state_name":"Connecticut","lat":41.58449,"lng":-72.86534,"zip":"06137","miles_from_dt":15.3},{"city":"Naugatuck","state_name":"Connecticut","lat":41.48913,"lng":-73.05181,"zip":"06770","miles_from_dt":15.8},{"city":"New Britain","state_name":"Connecticut","lat":41.65736,"lng":-72.80506,"zip":"06052","miles_from_dt":15.99},{"city":"New Britain","state_name":"Connecticut","lat":41.68874,"lng":-72.7941,"zip":"06053","miles_from_dt":16.16},{"city":"West Cornwall","state_name":"Connecticut","lat":41.87595,"lng":-73.33255,"zip":"06796","miles_from_dt":16.2},{"city":"Prospect","state_name":"Connecticut","lat":41.49927,"lng":-72.97609,"zip":"06712","miles_from_dt":16.29},{"city":"Barkhamsted","state_name":"Connecticut","lat":41.93053,"lng":-72.97096,"zip":"06063","miles_from_dt":16.42},{"city":"North Canton","state_name":"Connecticut","lat":41.89054,"lng":-72.88833,"zip":"06059","miles_from_dt":16.49},{"city":"West Simsbury","state_name":"Connecticut","lat":41.87266,"lng":-72.86101,"zip":"06092","miles_from_dt":16.65},{"city":"Weatogue","state_name":"Connecticut","lat":41.83801,"lng":-72.82343,"zip":"06089","miles_from_dt":16.83},{"city":"New Britain","state_name":"Connecticut","lat":41.67363,"lng":-72.77882,"zip":"06050","miles_from_dt":17.09},{"city":"South Kent","state_name":"Connecticut","lat":41.70491,"lng":-73.43815,"zip":"06785","miles_from_dt":17.26},{"city":"Cheshire","state_name":"Connecticut","lat":41.51183,"lng":-72.90441,"zip":"06410","miles_from_dt":17.42},{"city":"New Britain","state_name":"Connecticut","lat":41.66519,"lng":-72.76983,"zip":"06051","miles_from_dt":17.65},{"city":"Hartford","state_name":"Connecticut","lat":41.75757,"lng":-72.76472,"zip":"06180","miles_from_dt":17.82},{"city":"Southbury","state_name":"Connecticut","lat":41.47451,"lng":-73.23288,"zip":"06488","miles_from_dt":17.86},{"city":"New Milford","state_name":"Connecticut","lat":41.60011,"lng":-73.4162,"zip":"06776","miles_from_dt":17.96},{"city":"West Hartford","state_name":"Connecticut","lat":41.75375,"lng":-72.75966,"zip":"06107","miles_from_dt":18.03},{"city":"Cheshire","state_name":"Connecticut","lat":41.4997,"lng":-72.90181,"zip":"06411","miles_from_dt":18.18},{"city":"Cheshire","state_name":"Connecticut","lat":41.49889,"lng":-72.90111,"zip":"06408","miles_from_dt":18.25},{"city":"Norfolk","state_name":"Connecticut","lat":41.97186,"lng":-73.1958,"zip":"06058","miles_from_dt":18.36},{"city":"Berlin","state_name":"Connecticut","lat":41.61148,"lng":-72.7775,"zip":"06037","miles_from_dt":18.37},{"city":"West Hartford","state_name":"Connecticut","lat":41.7875,"lng":-72.76203,"zip":"06117","miles_from_dt":18.4},{"city":"South Britain","state_name":"Connecticut","lat":41.46967,"lng":-73.25173,"zip":"06487","miles_from_dt":18.55},{"city":"Simsbury","state_name":"Connecticut","lat":41.87674,"lng":-72.81626,"zip":"06070","miles_from_dt":18.62},{"city":"Kent","state_name":"Connecticut","lat":41.73951,"lng":-73.46637,"zip":"06757","miles_from_dt":18.78},{"city":"Bridgewater","state_name":"Connecticut","lat":41.52082,"lng":-73.35965,"zip":"06752","miles_from_dt":18.8},{"city":"Meriden","state_name":"Connecticut","lat":41.54203,"lng":-72.82364,"zip":"06451","miles_from_dt":18.8},{"city":"Hartford","state_name":"Connecticut","lat":41.75716,"lng":-72.74358,"zip":"06155","miles_from_dt":18.89},{"city":"Riverton","state_name":"Connecticut","lat":41.97795,"lng":-73.00054,"zip":"06065","miles_from_dt":18.95},{"city":"Beacon Falls","state_name":"Connecticut","lat":41.43902,"lng":-73.05679,"zip":"06403","miles_from_dt":19.19},{"city":"West Hartford","state_name":"Connecticut","lat":41.73247,"lng":-72.73378,"zip":"06110","miles_from_dt":19.21},{"city":"Newington","state_name":"Connecticut","lat":41.68677,"lng":-72.73057,"zip":"06111","miles_from_dt":19.44},{"city":"Newington","state_name":"Connecticut","lat":41.68869,"lng":-72.72981,"zip":"06131","miles_from_dt":19.47},{"city":"Hartford","state_name":"Connecticut","lat":41.75895,"lng":-72.73209,"zip":"06156","miles_from_dt":19.5},{"city":"Hartford","state_name":"Connecticut","lat":41.68815,"lng":-72.72886,"zip":"06153","miles_from_dt":19.52},{"city":"Oxford","state_name":"Connecticut","lat":41.43133,"lng":-73.13499,"zip":"06478","miles_from_dt":19.62},{"city":"West Hartford","state_name":"Connecticut","lat":41.76351,"lng":-72.72711,"zip":"06119","miles_from_dt":19.8},{"city":"Colebrook","state_name":"Connecticut","lat":42.00152,"lng":-73.08078,"zip":"06021","miles_from_dt":19.83},{"city":"Gaylordsville","state_name":"Connecticut","lat":41.64915,"lng":-73.48143,"zip":"06755","miles_from_dt":20.01},{"city":"Sharon","state_name":"Connecticut","lat":41.85392,"lng":-73.4448,"zip":"06069","miles_from_dt":20.03},{"city":"Falls Village","state_name":"Connecticut","lat":41.95788,"lng":-73.31733,"zip":"06031","miles_from_dt":20.06},{"city":"West Granby","state_name":"Connecticut","lat":41.94685,"lng":-72.86403,"zip":"06090","miles_from_dt":20.27},{"city":"Bethany","state_name":"Connecticut","lat":41.42606,"lng":-72.99308,"zip":"06524","miles_from_dt":20.74},{"city":"West Hartford","state_name":"Connecticut","lat":41.75322,"lng":-72.70404,"zip":"06133","miles_from_dt":20.88},{"city":"Hartford","state_name":"Connecticut","lat":41.77149,"lng":-72.70781,"zip":"06160","miles_from_dt":20.88},{"city":"Hartford","state_name":"Connecticut","lat":41.77312,"lng":-72.70705,"zip":"06154","miles_from_dt":20.94},{"city":"Bloomfield","state_name":"Connecticut","lat":41.84286,"lng":-72.73714,"zip":"06002","miles_from_dt":20.94},{"city":"East Berlin","state_name":"Connecticut","lat":41.61355,"lng":-72.72072,"zip":"06023","miles_from_dt":21.06},{"city":"Hartford","state_name":"Connecticut","lat":41.77322,"lng":-72.70442,"zip":"06105","miles_from_dt":21.07},{"city":"Meriden","state_name":"Connecticut","lat":41.53332,"lng":-72.77399,"zip":"06450","miles_from_dt":21.21},{"city":"Hartford","state_name":"Connecticut","lat":41.74818,"lng":-72.69683,"zip":"06106","miles_from_dt":21.21},{"city":"Wallingford","state_name":"Connecticut","lat":41.4868,"lng":-72.82276,"zip":"06493","miles_from_dt":21.46},{"city":"Hartford","state_name":"Connecticut","lat":41.776,"lng":-72.69747,"zip":"06142","miles_from_dt":21.46},{"city":"Hartford","state_name":"Connecticut","lat":41.75706,"lng":-72.68864,"zip":"06152","miles_from_dt":21.7},{"city":"Hartford","state_name":"Connecticut","lat":41.79317,"lng":-72.69741,"zip":"06112","miles_from_dt":21.73},{"city":"West Hartland","state_name":"Connecticut","lat":42.01419,"lng":-72.97423,"zip":"06091","miles_from_dt":21.74},{"city":"Tariffville","state_name":"Connecticut","lat":41.90708,"lng":-72.76839,"zip":"06081","miles_from_dt":21.85},{"city":"Hartford","state_name":"Connecticut","lat":41.76401,"lng":-72.68595,"zip":"06183","miles_from_dt":21.91},{"city":"Hartford","state_name":"Connecticut","lat":41.76565,"lng":-72.68609,"zip":"06123","miles_from_dt":21.92},{"city":"New Haven","state_name":"Connecticut","lat":41.43221,"lng":-72.90928,"zip":"06538","miles_from_dt":21.97},{"city":"New Haven","state_name":"Connecticut","lat":41.43143,"lng":-72.91048,"zip":"06537","miles_from_dt":21.98},{"city":"Hartford","state_name":"Connecticut","lat":41.7687,"lng":-72.68351,"zip":"06132","miles_from_dt":22.08},{"city":"Hartford","state_name":"Connecticut","lat":41.76646,"lng":-72.6827,"zip":"06134","miles_from_dt":22.1},{"city":"Hartford","state_name":"Connecticut","lat":41.76832,"lng":-72.68292,"zip":"06167","miles_from_dt":22.11},{"city":"West Hartford","state_name":"Connecticut","lat":41.76671,"lng":-72.68228,"zip":"06127","miles_from_dt":22.12},{"city":"Hamden","state_name":"Connecticut","lat":41.42744,"lng":-72.91339,"zip":"06518","miles_from_dt":22.16},{"city":"Hartford","state_name":"Connecticut","lat":41.76651,"lng":-72.67999,"zip":"06126","miles_from_dt":22.24},{"city":"East Canaan","state_name":"Connecticut","lat":42.00812,"lng":-73.28374,"zip":"06024","miles_from_dt":22.26},{"city":"East Hartland","state_name":"Connecticut","lat":42.00403,"lng":-72.91112,"zip":"06027","miles_from_dt":22.32},{"city":"Sherman","state_name":"Connecticut","lat":41.58018,"lng":-73.49853,"zip":"06784","miles_from_dt":22.41},{"city":"Sandy Hook","state_name":"Connecticut","lat":41.4067,"lng":-73.24474,"zip":"06482","miles_from_dt":22.46},{"city":"Hartford","state_name":"Connecticut","lat":41.76567,"lng":-72.67516,"zip":"06150","miles_from_dt":22.47},{"city":"Wethersfield","state_name":"Connecticut","lat":41.70131,"lng":-72.67035,"zip":"06109","miles_from_dt":22.48},{"city":"Hartford","state_name":"Connecticut","lat":41.76056,"lng":-72.67405,"zip":"06115","miles_from_dt":22.48},{"city":"Wallingford","state_name":"Connecticut","lat":41.46962,"lng":-72.81805,"zip":"06494","miles_from_dt":22.5},{"city":"Hartford","state_name":"Connecticut","lat":41.7394,"lng":-72.66949,"zip":"06114","miles_from_dt":22.56},{"city":"Hartford","state_name":"Connecticut","lat":41.7663,"lng":-72.67312,"zip":"06151","miles_from_dt":22.59},{"city":"Hartford","state_name":"Connecticut","lat":41.70107,"lng":-72.66746,"zip":"06161","miles_from_dt":22.63},{"city":"Brookfield","state_name":"Connecticut","lat":41.46731,"lng":-73.39232,"zip":"06804","miles_from_dt":22.66},{"city":"Hartford","state_name":"Connecticut","lat":41.76477,"lng":-72.67012,"zip":"06103","miles_from_dt":22.72},{"city":"Hartford","state_name":"Connecticut","lat":41.76595,"lng":-72.67006,"zip":"06102","miles_from_dt":22.74},{"city":"Hartford","state_name":"Connecticut","lat":41.76841,"lng":-72.66918,"zip":"06176","miles_from_dt":22.81},{"city":"Wethersfield","state_name":"Connecticut","lat":41.70859,"lng":-72.65977,"zip":"06129","miles_from_dt":23.01},{"city":"Seymour","state_name":"Connecticut","lat":41.381,"lng":-73.08726,"zip":"06483","miles_from_dt":23.05},{"city":"Hartford","state_name":"Connecticut","lat":41.79073,"lng":-72.66999,"zip":"06144","miles_from_dt":23.07},{"city":"Granby","state_name":"Connecticut","lat":41.9608,"lng":-72.80179,"zip":"06035","miles_from_dt":23.08},{"city":"Hartford","state_name":"Connecticut","lat":41.79084,"lng":-72.66892,"zip":"06143","miles_from_dt":23.12},{"city":"Hartford","state_name":"Connecticut","lat":41.79111,"lng":-72.66868,"zip":"06147","miles_from_dt":23.14},{"city":"Hartford","state_name":"Connecticut","lat":41.79182,"lng":-72.66828,"zip":"06145","miles_from_dt":23.17},{"city":"Rocky Hill","state_name":"Connecticut","lat":41.6574,"lng":-72.66259,"zip":"06067","miles_from_dt":23.21},{"city":"Hartford","state_name":"Connecticut","lat":41.78822,"lng":-72.66567,"zip":"06101","miles_from_dt":23.24},{"city":"Hartford","state_name":"Connecticut","lat":41.7889,"lng":-72.66525,"zip":"06104","miles_from_dt":23.28},{"city":"Hartford","state_name":"Connecticut","lat":41.78944,"lng":-72.66523,"zip":"06120","miles_from_dt":23.28},{"city":"Hartford","state_name":"Connecticut","lat":41.78857,"lng":-72.66512,"zip":"06146","miles_from_dt":23.28},{"city":"Hartford","state_name":"Connecticut","lat":41.79222,"lng":-72.66532,"zip":"06141","miles_from_dt":23.32},{"city":"Hawleyville","state_name":"Connecticut","lat":41.43302,"lng":-73.35369,"zip":"06440","miles_from_dt":23.33},{"city":"Hartford","state_name":"Connecticut","lat":41.78982,"lng":-72.6637,"zip":"06140","miles_from_dt":23.37},{"city":"Stevenson","state_name":"Connecticut","lat":41.3814,"lng":-73.18774,"zip":"06491","miles_from_dt":23.4},{"city":"Wallingford","state_name":"Connecticut","lat":41.45927,"lng":-72.80473,"zip":"06492","miles_from_dt":23.5},{"city":"Wallingford","state_name":"Connecticut","lat":41.46,"lng":-72.80219,"zip":"06495","miles_from_dt":23.55},{"city":"Wassaic","state_name":"New York","lat":41.78601,"lng":-73.5528,"zip":"12592","miles_from_dt":23.68},{"city":"Canaan","state_name":"Connecticut","lat":42.02872,"lng":-73.29807,"zip":"06018","miles_from_dt":23.86},{"city":"Wingdale","state_name":"New York","lat":41.66049,"lng":-73.56004,"zip":"12594","miles_from_dt":23.86},{"city":"Cromwell","state_name":"Connecticut","lat":41.61218,"lng":-72.66382,"zip":"06416","miles_from_dt":23.88},{"city":"Lakeville","state_name":"Connecticut","lat":41.95001,"lng":-73.44379,"zip":"06039","miles_from_dt":23.88},{"city":"North Granby","state_name":"Connecticut","lat":42.00687,"lng":-72.84594,"zip":"06060","miles_from_dt":24.18},{"city":"Rockfall","state_name":"Connecticut","lat":41.53435,"lng":-72.70067,"zip":"06481","miles_from_dt":24.34},{"city":"Middlefield","state_name":"Connecticut","lat":41.51468,"lng":-72.71732,"zip":"06455","miles_from_dt":24.35},{"city":"East Granby","state_name":"Connecticut","lat":41.94242,"lng":-72.74093,"zip":"06026","miles_from_dt":24.48},{"city":"Newtown","state_name":"Connecticut","lat":41.3943,"lng":-73.31918,"zip":"06470","miles_from_dt":24.75},{"city":"Windsor","state_name":"Connecticut","lat":41.87229,"lng":-72.67348,"zip":"06095","miles_from_dt":24.78},{"city":"Botsford","state_name":"Connecticut","lat":41.36182,"lng":-73.21362,"zip":"06404","miles_from_dt":25},{"city":"Hamden","state_name":"Connecticut","lat":41.3729,"lng":-72.94159,"zip":"06514","miles_from_dt":25.06},{"city":"Dover Plains","state_name":"New York","lat":41.72693,"lng":-73.58893,"zip":"12522","miles_from_dt":25.06},{"city":"Woodbridge","state_name":"Connecticut","lat":41.35662,"lng":-73.01017,"zip":"06525","miles_from_dt":25.19},{"city":"New Fairfield","state_name":"Connecticut","lat":41.48796,"lng":-73.48827,"zip":"06812","miles_from_dt":25.3},{"city":"East Hartford","state_name":"Connecticut","lat":41.78177,"lng":-72.62246,"zip":"06128","miles_from_dt":25.34},{"city":"East Hartford","state_name":"Connecticut","lat":41.78078,"lng":-72.62165,"zip":"06108","miles_from_dt":25.37},{"city":"Amenia","state_name":"New York","lat":41.85664,"lng":-73.55953,"zip":"12501","miles_from_dt":25.46},{"city":"Poquonock","state_name":"Connecticut","lat":41.90596,"lng":-72.68268,"zip":"06064","miles_from_dt":25.47},{"city":"Southfield","state_name":"Massachusetts","lat":42.07316,"lng":-73.23282,"zip":"01259","miles_from_dt":25.61},{"city":"Middletown","state_name":"Connecticut","lat":41.5516,"lng":-72.66017,"zip":"06459","miles_from_dt":25.62},{"city":"Ansonia","state_name":"Connecticut","lat":41.34424,"lng":-73.06896,"zip":"06401","miles_from_dt":25.63},{"city":"East Hartford","state_name":"Connecticut","lat":41.76168,"lng":-72.61261,"zip":"06138","miles_from_dt":25.64},{"city":"Windsor","state_name":"Connecticut","lat":41.85424,"lng":-72.64405,"zip":"06006","miles_from_dt":25.66},{"city":"East Hartford","state_name":"Connecticut","lat":41.74871,"lng":-72.60976,"zip":"06118","miles_from_dt":25.69},{"city":"Middletown","state_name":"Connecticut","lat":41.54759,"lng":-72.65484,"zip":"06457","miles_from_dt":25.99},{"city":"Salisbury","state_name":"Connecticut","lat":42.01404,"lng":-73.42121,"zip":"06068","miles_from_dt":26.34},{"city":"North Haven","state_name":"Connecticut","lat":41.38069,"lng":-72.85598,"zip":"06473","miles_from_dt":26.41},{"city":"Ashley Falls","state_name":"Massachusetts","lat":42.06242,"lng":-73.32146,"zip":"01222","miles_from_dt":26.48},{"city":"Granville","state_name":"Massachusetts","lat":42.0826,"lng":-72.95611,"zip":"01034","miles_from_dt":26.52},{"city":"Pawling","state_name":"New York","lat":41.57827,"lng":-73.5862,"zip":"12564","miles_from_dt":26.65},{"city":"Monroe","state_name":"Connecticut","lat":41.33791,"lng":-73.22499,"zip":"06468","miles_from_dt":26.74},{"city":"Derby","state_name":"Connecticut","lat":41.32647,"lng":-73.08324,"zip":"06418","miles_from_dt":26.81},{"city":"Sandisfield","state_name":"Massachusetts","lat":42.1068,"lng":-73.12213,"zip":"01255","miles_from_dt":27.08},{"city":"Taconic","state_name":"Connecticut","lat":42.04174,"lng":-73.39755,"zip":"06079","miles_from_dt":27.16},{"city":"Hamden","state_name":"Connecticut","lat":41.34834,"lng":-72.90494,"zip":"06517","miles_from_dt":27.32},{"city":"Windsor Locks","state_name":"Connecticut","lat":41.92671,"lng":-72.65443,"zip":"06096","miles_from_dt":27.46},{"city":"Hartford","state_name":"Connecticut","lat":41.92683,"lng":-72.65442,"zip":"06199","miles_from_dt":27.47},{"city":"New Haven","state_name":"Connecticut","lat":41.32794,"lng":-72.96954,"zip":"06515","miles_from_dt":27.59},{"city":"Bethel","state_name":"Connecticut","lat":41.37468,"lng":-73.39275,"zip":"06801","miles_from_dt":27.82},{"city":"Portland","state_name":"Connecticut","lat":41.59885,"lng":-72.5893,"zip":"06480","miles_from_dt":27.84},{"city":"Durham","state_name":"Connecticut","lat":41.46221,"lng":-72.68285,"zip":"06422","miles_from_dt":27.95},{"city":"West Suffield","state_name":"Connecticut","lat":42.00265,"lng":-72.72285,"zip":"06093","miles_from_dt":27.98},{"city":"Danbury","state_name":"Connecticut","lat":41.42427,"lng":-73.4821,"zip":"06811","miles_from_dt":28.01},{"city":"East Windsor Hill","state_name":"Connecticut","lat":41.86415,"lng":-72.5999,"zip":"06028","miles_from_dt":28.03},{"city":"South Glastonbury","state_name":"Connecticut","lat":41.65753,"lng":-72.56742,"zip":"06073","miles_from_dt":28.07},{"city":"Millerton","state_name":"New York","lat":41.96627,"lng":-73.53313,"zip":"12546","miles_from_dt":28.12},{"city":"Shelton","state_name":"Connecticut","lat":41.30601,"lng":-73.13828,"zip":"06484","miles_from_dt":28.26},{"city":"Northford","state_name":"Connecticut","lat":41.38416,"lng":-72.77911,"zip":"06472","miles_from_dt":28.37},{"city":"Danbury","state_name":"Connecticut","lat":41.39777,"lng":-73.45523,"zip":"06813","miles_from_dt":28.44},{"city":"Mill River","state_name":"Massachusetts","lat":42.10924,"lng":-73.27475,"zip":"01244","miles_from_dt":28.61},{"city":"South Windsor","state_name":"Connecticut","lat":41.83528,"lng":-72.57332,"zip":"06074","miles_from_dt":28.68},{"city":"New Haven","state_name":"Connecticut","lat":41.31921,"lng":-72.92657,"zip":"06532","miles_from_dt":28.81},{"city":"New Haven","state_name":"Connecticut","lat":41.319,"lng":-72.92712,"zip":"06509","miles_from_dt":28.82},{"city":"New Haven","state_name":"Connecticut","lat":41.31819,"lng":-72.92949,"zip":"06531","miles_from_dt":28.83},{"city":"New Haven","state_name":"Connecticut","lat":41.31858,"lng":-72.92751,"zip":"06534","miles_from_dt":28.84},{"city":"Southwick","state_name":"Massachusetts","lat":42.05441,"lng":-72.77851,"zip":"01077","miles_from_dt":28.85},{"city":"New Haven","state_name":"Connecticut","lat":41.31773,"lng":-72.92921,"zip":"06533","miles_from_dt":28.87},{"city":"New Haven","state_name":"Connecticut","lat":41.31818,"lng":-72.92392,"zip":"06530","miles_from_dt":28.92},{"city":"New Haven","state_name":"Connecticut","lat":41.31739,"lng":-72.92672,"zip":"06536","miles_from_dt":28.93},{"city":"New Haven","state_name":"Connecticut","lat":41.31663,"lng":-72.92587,"zip":"06511","miles_from_dt":28.99},{"city":"New Haven","state_name":"Connecticut","lat":41.31432,"lng":-72.92901,"zip":"06535","miles_from_dt":29.09},{"city":"Suffield","state_name":"Connecticut","lat":41.95044,"lng":-72.63519,"zip":"06080","miles_from_dt":29.18},{"city":"Glastonbury","state_name":"Connecticut","lat":41.70593,"lng":-72.53915,"zip":"06033","miles_from_dt":29.25},{"city":"Patterson","state_name":"New York","lat":41.49417,"lng":-73.5891,"zip":"12563","miles_from_dt":29.35},{"city":"East Windsor","state_name":"Connecticut","lat":41.9058,"lng":-72.59646,"zip":"06088","miles_from_dt":29.37},{"city":"New Haven","state_name":"Connecticut","lat":41.31008,"lng":-72.92631,"zip":"06501","miles_from_dt":29.41},{"city":"New Haven","state_name":"Connecticut","lat":41.30998,"lng":-72.9264,"zip":"06521","miles_from_dt":29.42},{"city":"New Haven","state_name":"Connecticut","lat":41.30937,"lng":-72.92819,"zip":"06503","miles_from_dt":29.43},{"city":"New Haven","state_name":"Connecticut","lat":41.30947,"lng":-72.92532,"zip":"06506","miles_from_dt":29.47},{"city":"New Haven","state_name":"Connecticut","lat":41.31001,"lng":-72.92146,"zip":"06540","miles_from_dt":29.5},{"city":"East Glastonbury","state_name":"Connecticut","lat":41.69089,"lng":-72.53492,"zip":"06025","miles_from_dt":29.51},{"city":"New Haven","state_name":"Connecticut","lat":41.30863,"lng":-72.92578,"zip":"06520","miles_from_dt":29.52},{"city":"New Haven","state_name":"Connecticut","lat":41.30868,"lng":-72.92444,"zip":"06502","miles_from_dt":29.54},{"city":"New Haven","state_name":"Connecticut","lat":41.30781,"lng":-72.92306,"zip":"06505","miles_from_dt":29.62},{"city":"New Haven","state_name":"Connecticut","lat":41.30703,"lng":-72.92335,"zip":"06508","miles_from_dt":29.66},{"city":"New Haven","state_name":"Connecticut","lat":41.3062,"lng":-72.92652,"zip":"06510","miles_from_dt":29.67},{"city":"Danbury","state_name":"Connecticut","lat":41.37627,"lng":-73.45904,"zip":"06810","miles_from_dt":29.72},{"city":"New Haven","state_name":"Connecticut","lat":41.30552,"lng":-72.92283,"zip":"06507","miles_from_dt":29.77},{"city":"Millbrook","state_name":"New York","lat":41.7914,"lng":-73.67251,"zip":"12545","miles_from_dt":29.82},{"city":"Sheffield","state_name":"Massachusetts","lat":42.0976,"lng":-73.37241,"zip":"01257","miles_from_dt":29.82},{"city":"New Haven","state_name":"Connecticut","lat":41.31953,"lng":-72.86856,"zip":"06513","miles_from_dt":29.89},{"city":"Poughquag","state_name":"New York","lat":41.62377,"lng":-73.66983,"zip":"12570","miles_from_dt":29.91}],"targetCityZipCode":"06778","targetCityState":"Connecticut"},"__N_SSG":true}