{"pageProps":{"stateName":"Connecticut","cityName":"south-woodstock","nearbyCities":[{"city":"Pomfret","state_name":"Connecticut","lat":41.88554,"lng":-71.96353,"zip":"06258","miles_from_dt":3.09},{"city":"East Woodstock","state_name":"Connecticut","lat":41.98632,"lng":-71.97448,"zip":"06244","miles_from_dt":3.95},{"city":"Woodstock","state_name":"Connecticut","lat":41.97253,"lng":-72.01458,"zip":"06281","miles_from_dt":4.09},{"city":"Grosvenor Dale","state_name":"Connecticut","lat":41.96956,"lng":-71.8943,"zip":"06246","miles_from_dt":4.3},{"city":"Pomfret Center","state_name":"Connecticut","lat":41.8703,"lng":-71.99248,"zip":"06259","miles_from_dt":4.48},{"city":"Putnam","state_name":"Connecticut","lat":41.90898,"lng":-71.87181,"zip":"06260","miles_from_dt":4.73},{"city":"North Grosvenordale","state_name":"Connecticut","lat":41.98791,"lng":-71.90299,"zip":"06255","miles_from_dt":4.92},{"city":"Fabyan","state_name":"Connecticut","lat":42.01424,"lng":-71.93716,"zip":"06245","miles_from_dt":5.91},{"city":"Quinebaug","state_name":"Connecticut","lat":42.01871,"lng":-71.94959,"zip":"06262","miles_from_dt":6.13},{"city":"Woodstock Valley","state_name":"Connecticut","lat":41.94556,"lng":-72.07928,"zip":"06282","miles_from_dt":6.29},{"city":"Ballouville","state_name":"Connecticut","lat":41.87311,"lng":-71.8635,"zip":"06233","miles_from_dt":6.31},{"city":"Abington","state_name":"Connecticut","lat":41.84652,"lng":-72.01367,"zip":"06230","miles_from_dt":6.43},{"city":"Thompson","state_name":"Connecticut","lat":41.96895,"lng":-71.83927,"zip":"06277","miles_from_dt":6.72},{"city":"Rogers","state_name":"Connecticut","lat":41.83738,"lng":-71.90444,"zip":"06263","miles_from_dt":7},{"city":"Eastford","state_name":"Connecticut","lat":41.89326,"lng":-72.09706,"zip":"06242","miles_from_dt":7.56},{"city":"Dayville","state_name":"Connecticut","lat":41.85635,"lng":-71.84904,"zip":"06241","miles_from_dt":7.62},{"city":"Dudley","state_name":"Massachusetts","lat":42.05501,"lng":-71.93519,"zip":"01571","miles_from_dt":8.7},{"city":"East Killingly","state_name":"Connecticut","lat":41.84743,"lng":-71.80701,"zip":"06243","miles_from_dt":9.7},{"city":"Brooklyn","state_name":"Connecticut","lat":41.78938,"lng":-71.95266,"zip":"06234","miles_from_dt":9.72},{"city":"Southbridge","state_name":"Massachusetts","lat":42.06039,"lng":-72.03377,"zip":"01550","miles_from_dt":9.78},{"city":"Webster","state_name":"Massachusetts","lat":42.05206,"lng":-71.8485,"zip":"01570","miles_from_dt":10.15},{"city":"Danielson","state_name":"Connecticut","lat":41.79116,"lng":-71.85711,"zip":"06239","miles_from_dt":10.94},{"city":"Ashford","state_name":"Connecticut","lat":41.89126,"lng":-72.17003,"zip":"06278","miles_from_dt":11.21},{"city":"Pascoag","state_name":"Rhode Island","lat":41.9665,"lng":-71.7464,"zip":"02859","miles_from_dt":11.24},{"city":"Hampton","state_name":"Connecticut","lat":41.76829,"lng":-72.06548,"zip":"06247","miles_from_dt":12.45},{"city":"Chaplin","state_name":"Connecticut","lat":41.79292,"lng":-72.1275,"zip":"06235","miles_from_dt":12.86},{"city":"Wauregan","state_name":"Connecticut","lat":41.74418,"lng":-71.90981,"zip":"06387","miles_from_dt":13.09},{"city":"Sturbridge","state_name":"Massachusetts","lat":42.1047,"lng":-72.07745,"zip":"01566","miles_from_dt":13.5},{"city":"Chepachet","state_name":"Rhode Island","lat":41.89959,"lng":-71.69888,"zip":"02814","miles_from_dt":13.57},{"city":"Douglas","state_name":"Massachusetts","lat":42.0528,"lng":-71.75106,"zip":"01516","miles_from_dt":13.65},{"city":"Oxford","state_name":"Massachusetts","lat":42.11649,"lng":-71.85819,"zip":"01540","miles_from_dt":13.86},{"city":"Holland","state_name":"Massachusetts","lat":42.06012,"lng":-72.16592,"zip":"01521","miles_from_dt":13.93},{"city":"Charlton","state_name":"Massachusetts","lat":42.13509,"lng":-71.96803,"zip":"01507","miles_from_dt":14.15},{"city":"Central Village","state_name":"Connecticut","lat":41.72845,"lng":-71.91008,"zip":"06332","miles_from_dt":14.15},{"city":"Fiskdale","state_name":"Massachusetts","lat":42.11342,"lng":-72.11632,"zip":"01518","miles_from_dt":15.02},{"city":"Charlton City","state_name":"Massachusetts","lat":42.15139,"lng":-71.9896,"zip":"01508","miles_from_dt":15.35},{"city":"Manchaug","state_name":"Massachusetts","lat":42.08955,"lng":-71.74667,"zip":"01526","miles_from_dt":15.5},{"city":"Willington","state_name":"Connecticut","lat":41.88959,"lng":-72.25933,"zip":"06279","miles_from_dt":15.74},{"city":"Foster","state_name":"Rhode Island","lat":41.78212,"lng":-71.72596,"zip":"02825","miles_from_dt":15.78},{"city":"Sterling","state_name":"Connecticut","lat":41.72708,"lng":-71.81679,"zip":"06377","miles_from_dt":15.82},{"city":"Stafford Springs","state_name":"Connecticut","lat":41.98906,"lng":-72.26224,"zip":"06076","miles_from_dt":16.14},{"city":"Oakland","state_name":"Rhode Island","lat":41.96354,"lng":-71.64893,"zip":"02858","miles_from_dt":16.14},{"city":"Staffordville","state_name":"Connecticut","lat":41.99494,"lng":-72.26029,"zip":"06077","miles_from_dt":16.15},{"city":"Mapleville","state_name":"Rhode Island","lat":41.9433,"lng":-71.64581,"zip":"02839","miles_from_dt":16.16},{"city":"Canterbury","state_name":"Connecticut","lat":41.69717,"lng":-72.00109,"zip":"06331","miles_from_dt":16.23},{"city":"Mansfield Center","state_name":"Connecticut","lat":41.77434,"lng":-72.19669,"zip":"06250","miles_from_dt":16.31},{"city":"North Oxford","state_name":"Massachusetts","lat":42.16177,"lng":-71.89217,"zip":"01537","miles_from_dt":16.35},{"city":"Harrisville","state_name":"Rhode Island","lat":41.98016,"lng":-71.6484,"zip":"02830","miles_from_dt":16.37},{"city":"Glendale","state_name":"Rhode Island","lat":41.98248,"lng":-71.64539,"zip":"02826","miles_from_dt":16.55},{"city":"Wales","state_name":"Massachusetts","lat":42.06232,"lng":-72.23085,"zip":"01081","miles_from_dt":16.71},{"city":"Charlton Depot","state_name":"Massachusetts","lat":42.173,"lng":-71.97562,"zip":"01509","miles_from_dt":16.78},{"city":"North Windham","state_name":"Connecticut","lat":41.73699,"lng":-72.15723,"zip":"06256","miles_from_dt":16.81},{"city":"Moosup","state_name":"Connecticut","lat":41.69836,"lng":-71.85016,"zip":"06354","miles_from_dt":16.96},{"city":"Storrs Mansfield","state_name":"Connecticut","lat":41.80998,"lng":-72.25283,"zip":"06269","miles_from_dt":17.28},{"city":"Stafford","state_name":"Connecticut","lat":41.98793,"lng":-72.28708,"zip":"06075","miles_from_dt":17.37},{"city":"Plainfield","state_name":"Connecticut","lat":41.6798,"lng":-71.91441,"zip":"06374","miles_from_dt":17.43},{"city":"Storrs Mansfield","state_name":"Connecticut","lat":41.79852,"lng":-72.24843,"zip":"06268","miles_from_dt":17.48},{"city":"Sutton","state_name":"Massachusetts","lat":42.13387,"lng":-71.75179,"zip":"01590","miles_from_dt":17.64},{"city":"Scotland","state_name":"Connecticut","lat":41.69869,"lng":-72.10487,"zip":"06264","miles_from_dt":17.66},{"city":"North Scituate","state_name":"Rhode Island","lat":41.82705,"lng":-71.63083,"zip":"02857","miles_from_dt":18.36},{"city":"South Willington","state_name":"Connecticut","lat":41.85452,"lng":-72.30189,"zip":"06265","miles_from_dt":18.44},{"city":"Mansfield Depot","state_name":"Connecticut","lat":41.81589,"lng":-72.286,"zip":"06251","miles_from_dt":18.62},{"city":"Clayville","state_name":"Rhode Island","lat":41.77723,"lng":-71.66177,"zip":"02815","miles_from_dt":18.62},{"city":"Brimfield","state_name":"Massachusetts","lat":42.12904,"lng":-72.20597,"zip":"01010","miles_from_dt":18.71},{"city":"Uxbridge","state_name":"Massachusetts","lat":42.05895,"lng":-71.63741,"zip":"01569","miles_from_dt":18.79},{"city":"Windham","state_name":"Connecticut","lat":41.69237,"lng":-72.13829,"zip":"06280","miles_from_dt":18.85},{"city":"Oneco","state_name":"Connecticut","lat":41.68394,"lng":-71.79881,"zip":"06373","miles_from_dt":18.9},{"city":"Rochdale","state_name":"Massachusetts","lat":42.20241,"lng":-71.90995,"zip":"01542","miles_from_dt":18.96},{"city":"Harmony","state_name":"Rhode Island","lat":41.89377,"lng":-71.59129,"zip":"02829","miles_from_dt":19.12},{"city":"Auburn","state_name":"Massachusetts","lat":42.19689,"lng":-71.84549,"zip":"01501","miles_from_dt":19.31},{"city":"East Brookfield","state_name":"Massachusetts","lat":42.20328,"lng":-72.04669,"zip":"01515","miles_from_dt":19.38},{"city":"Greene","state_name":"Rhode Island","lat":41.69792,"lng":-71.73847,"zip":"02827","miles_from_dt":19.66},{"city":"Brookfield","state_name":"Massachusetts","lat":42.19364,"lng":-72.10441,"zip":"01506","miles_from_dt":19.66},{"city":"North Uxbridge","state_name":"Massachusetts","lat":42.09026,"lng":-71.63989,"zip":"01538","miles_from_dt":19.79},{"city":"Whitinsville","state_name":"Massachusetts","lat":42.11837,"lng":-71.66836,"zip":"01588","miles_from_dt":19.81},{"city":"Slatersville","state_name":"Rhode Island","lat":41.99801,"lng":-71.58301,"zip":"02876","miles_from_dt":19.92},{"city":"Willimantic","state_name":"Connecticut","lat":41.70816,"lng":-72.20731,"zip":"06226","miles_from_dt":19.98},{"city":"Linwood","state_name":"Massachusetts","lat":42.09899,"lng":-71.64296,"zip":"01525","miles_from_dt":20.01},{"city":"Hanover","state_name":"Connecticut","lat":41.64829,"lng":-72.0693,"zip":"06350","miles_from_dt":20.27},{"city":"Millbury","state_name":"Massachusetts","lat":42.19228,"lng":-71.77397,"zip":"01527","miles_from_dt":20.44},{"city":"Baltic","state_name":"Connecticut","lat":41.64199,"lng":-72.07541,"zip":"06330","miles_from_dt":20.78},{"city":"Greenville","state_name":"Rhode Island","lat":41.87672,"lng":-71.56065,"zip":"02828","miles_from_dt":20.87},{"city":"Forestdale","state_name":"Rhode Island","lat":41.99934,"lng":-71.56322,"zip":"02824","miles_from_dt":20.94},{"city":"South Windham","state_name":"Connecticut","lat":41.67136,"lng":-72.17048,"zip":"06266","miles_from_dt":20.94},{"city":"Millville","state_name":"Massachusetts","lat":42.03906,"lng":-71.57767,"zip":"01529","miles_from_dt":21.02},{"city":"West Millbury","state_name":"Massachusetts","lat":42.12631,"lng":-71.64613,"zip":"01586","miles_from_dt":21.03},{"city":"Tolland","state_name":"Connecticut","lat":41.87917,"lng":-72.36443,"zip":"06084","miles_from_dt":21.2},{"city":"North Smithfield","state_name":"Rhode Island","lat":41.97285,"lng":-71.55027,"zip":"02896","miles_from_dt":21.26},{"city":"Northbridge","state_name":"Massachusetts","lat":42.13991,"lng":-71.64433,"zip":"01534","miles_from_dt":21.72},{"city":"Cherry Valley","state_name":"Massachusetts","lat":42.23945,"lng":-71.87702,"zip":"01611","miles_from_dt":21.76},{"city":"Monson","state_name":"Massachusetts","lat":42.09118,"lng":-72.32392,"zip":"01057","miles_from_dt":21.82},{"city":"Spencer","state_name":"Massachusetts","lat":42.24715,"lng":-71.99189,"zip":"01562","miles_from_dt":21.94},{"city":"Leicester","state_name":"Massachusetts","lat":42.24919,"lng":-71.91989,"zip":"01524","miles_from_dt":22.11},{"city":"Coventry","state_name":"Connecticut","lat":41.78281,"lng":-72.33941,"zip":"06238","miles_from_dt":22.11},{"city":"Worcester","state_name":"Massachusetts","lat":42.22684,"lng":-71.79037,"zip":"01607","miles_from_dt":22.23},{"city":"South Grafton","state_name":"Massachusetts","lat":42.17496,"lng":-71.67762,"zip":"01560","miles_from_dt":22.24},{"city":"Worcester","state_name":"Massachusetts","lat":42.24373,"lng":-71.84429,"zip":"01603","miles_from_dt":22.43},{"city":"Smithfield","state_name":"Rhode Island","lat":41.90615,"lng":-71.52365,"zip":"02917","miles_from_dt":22.5},{"city":"Warren","state_name":"Massachusetts","lat":42.20652,"lng":-72.19906,"zip":"01083","miles_from_dt":22.72},{"city":"Worcester","state_name":"Massachusetts","lat":42.24645,"lng":-71.80968,"zip":"01610","miles_from_dt":23.14},{"city":"Versailles","state_name":"Connecticut","lat":41.60059,"lng":-72.04304,"zip":"06383","miles_from_dt":23.16},{"city":"Hope","state_name":"Rhode Island","lat":41.74461,"lng":-71.58442,"zip":"02831","miles_from_dt":23.19},{"city":"Blackstone","state_name":"Massachusetts","lat":42.0399,"lng":-71.53125,"zip":"01504","miles_from_dt":23.29},{"city":"West Warren","state_name":"Massachusetts","lat":42.20008,"lng":-72.23715,"zip":"01092","miles_from_dt":23.49},{"city":"Jewett City","state_name":"Connecticut","lat":41.58873,"lng":-71.94854,"zip":"06351","miles_from_dt":23.57},{"city":"Grafton","state_name":"Massachusetts","lat":42.20077,"lng":-71.67892,"zip":"01519","miles_from_dt":23.58},{"city":"West Brookfield","state_name":"Massachusetts","lat":42.23762,"lng":-72.16311,"zip":"01585","miles_from_dt":23.67},{"city":"North Franklin","state_name":"Connecticut","lat":41.61585,"lng":-72.14313,"zip":"06254","miles_from_dt":23.69},{"city":"Johnston","state_name":"Rhode Island","lat":41.82733,"lng":-71.52002,"zip":"02919","miles_from_dt":23.73},{"city":"Mendon","state_name":"Massachusetts","lat":42.09301,"lng":-71.55146,"zip":"01756","miles_from_dt":23.8},{"city":"Coventry","state_name":"Rhode Island","lat":41.69035,"lng":-71.61954,"zip":"02816","miles_from_dt":24.11},{"city":"Woonsocket","state_name":"Rhode Island","lat":42.00103,"lng":-71.49923,"zip":"02895","miles_from_dt":24.18},{"city":"Worcester","state_name":"Massachusetts","lat":42.25085,"lng":-71.7683,"zip":"01604","miles_from_dt":24.2},{"city":"North Brookfield","state_name":"Massachusetts","lat":42.2695,"lng":-72.07794,"zip":"01535","miles_from_dt":24.2},{"city":"Worcester","state_name":"Massachusetts","lat":42.26092,"lng":-71.79949,"zip":"01614","miles_from_dt":24.25},{"city":"Worcester","state_name":"Massachusetts","lat":42.27219,"lng":-71.84946,"zip":"01602","miles_from_dt":24.27},{"city":"Columbia","state_name":"Connecticut","lat":41.69387,"lng":-72.30722,"zip":"06237","miles_from_dt":24.28},{"city":"Worcester","state_name":"Massachusetts","lat":42.2621,"lng":-71.80145,"zip":"01608","miles_from_dt":24.3},{"city":"Worcester","state_name":"Massachusetts","lat":42.26574,"lng":-71.79653,"zip":"01613","miles_from_dt":24.62},{"city":"Worcester","state_name":"Massachusetts","lat":42.27022,"lng":-71.80933,"zip":"01615","miles_from_dt":24.7},{"city":"Worcester","state_name":"Massachusetts","lat":42.2711,"lng":-71.80974,"zip":"01601","miles_from_dt":24.75},{"city":"Upton","state_name":"Massachusetts","lat":42.17694,"lng":-71.60516,"zip":"01568","miles_from_dt":24.92},{"city":"Voluntown","state_name":"Connecticut","lat":41.58188,"lng":-71.83139,"zip":"06384","miles_from_dt":24.93},{"city":"North Grafton","state_name":"Massachusetts","lat":42.23189,"lng":-71.69219,"zip":"01536","miles_from_dt":24.93},{"city":"Manville","state_name":"Rhode Island","lat":41.96552,"lng":-71.47628,"zip":"02838","miles_from_dt":24.99},{"city":"Palmer","state_name":"Massachusetts","lat":42.18798,"lng":-72.30578,"zip":"01069","miles_from_dt":25.19},{"city":"Lebanon","state_name":"Connecticut","lat":41.63128,"lng":-72.24019,"zip":"06249","miles_from_dt":25.23},{"city":"Hampden","state_name":"Massachusetts","lat":42.0638,"lng":-72.4157,"zip":"01036","miles_from_dt":25.26},{"city":"Fiskeville","state_name":"Rhode Island","lat":41.73328,"lng":-71.54479,"zip":"02823","miles_from_dt":25.33},{"city":"Worcester","state_name":"Massachusetts","lat":42.28592,"lng":-71.82853,"zip":"01609","miles_from_dt":25.45},{"city":"Andover","state_name":"Connecticut","lat":41.73309,"lng":-72.37603,"zip":"06232","miles_from_dt":25.47},{"city":"Ellington","state_name":"Connecticut","lat":41.91439,"lng":-72.4535,"zip":"06029","miles_from_dt":25.51},{"city":"North Providence","state_name":"Rhode Island","lat":41.85467,"lng":-71.47325,"zip":"02911","miles_from_dt":25.58},{"city":"Hopedale","state_name":"Massachusetts","lat":42.12477,"lng":-71.535,"zip":"01747","miles_from_dt":25.62},{"city":"Cranston","state_name":"Rhode Island","lat":41.76292,"lng":-71.51571,"zip":"02921","miles_from_dt":25.62},{"city":"Taftville","state_name":"Connecticut","lat":41.56533,"lng":-72.05308,"zip":"06380","miles_from_dt":25.65},{"city":"West Greenwich","state_name":"Rhode Island","lat":41.6291,"lng":-71.66711,"zip":"02817","miles_from_dt":25.67},{"city":"Somers","state_name":"Connecticut","lat":41.99489,"lng":-72.45213,"zip":"06071","miles_from_dt":25.79},{"city":"Albion","state_name":"Rhode Island","lat":41.95221,"lng":-71.4559,"zip":"02802","miles_from_dt":25.97},{"city":"Worcester","state_name":"Massachusetts","lat":42.27687,"lng":-71.76122,"zip":"01655","miles_from_dt":26},{"city":"Thorndike","state_name":"Massachusetts","lat":42.18508,"lng":-72.33406,"zip":"01079","miles_from_dt":26.11},{"city":"Paxton","state_name":"Massachusetts","lat":42.31037,"lng":-71.93095,"zip":"01612","miles_from_dt":26.28},{"city":"Worcester","state_name":"Massachusetts","lat":42.28979,"lng":-71.78802,"zip":"01605","miles_from_dt":26.33},{"city":"Lincoln","state_name":"Rhode Island","lat":41.91251,"lng":-71.44822,"zip":"02865","miles_from_dt":26.35},{"city":"Vernon Rockville","state_name":"Connecticut","lat":41.83641,"lng":-72.46063,"zip":"06066","miles_from_dt":26.67},{"city":"Worcester","state_name":"Massachusetts","lat":42.2927,"lng":-71.77904,"zip":"01653","miles_from_dt":26.67},{"city":"Yantic","state_name":"Connecticut","lat":41.56036,"lng":-72.12338,"zip":"06389","miles_from_dt":26.9},{"city":"Bellingham","state_name":"Massachusetts","lat":42.0777,"lng":-71.47407,"zip":"02019","miles_from_dt":26.96},{"city":"Gilman","state_name":"Connecticut","lat":41.57934,"lng":-72.19505,"zip":"06336","miles_from_dt":27.11},{"city":"Norwich","state_name":"Connecticut","lat":41.54883,"lng":-72.08914,"zip":"06360","miles_from_dt":27.17},{"city":"Three Rivers","state_name":"Massachusetts","lat":42.18228,"lng":-72.36515,"zip":"01080","miles_from_dt":27.19},{"city":"Bolton","state_name":"Connecticut","lat":41.76647,"lng":-72.43903,"zip":"06043","miles_from_dt":27.23},{"city":"Shrewsbury","state_name":"Massachusetts","lat":42.29182,"lng":-71.74599,"zip":"01546","miles_from_dt":27.25},{"city":"Providence","state_name":"Rhode Island","lat":41.81825,"lng":-71.45078,"zip":"02909","miles_from_dt":27.33},{"city":"Providence","state_name":"Rhode Island","lat":41.86058,"lng":-71.43539,"zip":"02904","miles_from_dt":27.42},{"city":"Shrewsbury","state_name":"Massachusetts","lat":42.28419,"lng":-71.71558,"zip":"01545","miles_from_dt":27.45},{"city":"Somersville","state_name":"Connecticut","lat":41.98465,"lng":-72.4876,"zip":"06072","miles_from_dt":27.49},{"city":"Milford","state_name":"Massachusetts","lat":42.15723,"lng":-71.51978,"zip":"01757","miles_from_dt":27.5},{"city":"Providence","state_name":"Rhode Island","lat":41.83877,"lng":-71.43926,"zip":"02908","miles_from_dt":27.54},{"city":"Bondsville","state_name":"Massachusetts","lat":42.21133,"lng":-72.34189,"zip":"01009","miles_from_dt":27.64},{"city":"Providence","state_name":"Rhode Island","lat":41.84386,"lng":-71.43499,"zip":"02918","miles_from_dt":27.67},{"city":"Worcester","state_name":"Massachusetts","lat":42.31367,"lng":-71.79614,"zip":"01606","miles_from_dt":27.76},{"city":"Wilbraham","state_name":"Massachusetts","lat":42.12763,"lng":-72.42994,"zip":"01095","miles_from_dt":27.8},{"city":"Cranston","state_name":"Rhode Island","lat":41.76719,"lng":-71.4655,"zip":"02920","miles_from_dt":27.84},{"city":"West Warwick","state_name":"Rhode Island","lat":41.69856,"lng":-71.51566,"zip":"02893","miles_from_dt":27.92},{"city":"Cumberland","state_name":"Rhode Island","lat":41.97025,"lng":-71.41978,"zip":"02864","miles_from_dt":27.92},{"city":"Preston","state_name":"Connecticut","lat":41.52281,"lng":-72.00072,"zip":"06365","miles_from_dt":28.2},{"city":"New Braintree","state_name":"Massachusetts","lat":42.31929,"lng":-72.12794,"zip":"01531","miles_from_dt":28.22},{"city":"Hebron","state_name":"Connecticut","lat":41.68468,"lng":-72.40523,"zip":"06248","miles_from_dt":28.6},{"city":"Holden","state_name":"Massachusetts","lat":42.33685,"lng":-71.85181,"zip":"01520","miles_from_dt":28.6},{"city":"Providence","state_name":"Rhode Island","lat":41.82272,"lng":-71.42064,"zip":"02940","miles_from_dt":28.74},{"city":"Bozrah","state_name":"Connecticut","lat":41.54431,"lng":-72.17424,"zip":"06334","miles_from_dt":28.86},{"city":"Providence","state_name":"Rhode Island","lat":41.79867,"lng":-71.42581,"zip":"02907","miles_from_dt":28.97},{"city":"Cranston","state_name":"Rhode Island","lat":41.77552,"lng":-71.43564,"zip":"02910","miles_from_dt":29.04},{"city":"Providence","state_name":"Rhode Island","lat":41.82468,"lng":-71.41079,"zip":"02902","miles_from_dt":29.2},{"city":"East Longmeadow","state_name":"Massachusetts","lat":42.05967,"lng":-72.49899,"zip":"01028","miles_from_dt":29.2},{"city":"Woodville","state_name":"Massachusetts","lat":42.23233,"lng":-71.55963,"zip":"01784","miles_from_dt":29.26},{"city":"Central Falls","state_name":"Rhode Island","lat":41.89005,"lng":-71.39336,"zip":"02863","miles_from_dt":29.29},{"city":"Westborough","state_name":"Massachusetts","lat":42.26815,"lng":-71.61402,"zip":"01581","miles_from_dt":29.3},{"city":"Providence","state_name":"Rhode Island","lat":41.82682,"lng":-71.408,"zip":"02901","miles_from_dt":29.3},{"city":"Providence","state_name":"Rhode Island","lat":41.81902,"lng":-71.41003,"zip":"02903","miles_from_dt":29.34},{"city":"Oakham","state_name":"Massachusetts","lat":42.35125,"lng":-72.04776,"zip":"01068","miles_from_dt":29.42},{"city":"Rockville","state_name":"Rhode Island","lat":41.5257,"lng":-71.77734,"zip":"02873","miles_from_dt":29.45},{"city":"Springfield","state_name":"Massachusetts","lat":42.09497,"lng":-72.48806,"zip":"01128","miles_from_dt":29.51},{"city":"Providence","state_name":"Rhode Island","lat":41.82783,"lng":-71.39959,"zip":"02912","miles_from_dt":29.7},{"city":"Pawtucket","state_name":"Rhode Island","lat":41.87036,"lng":-71.38855,"zip":"02860","miles_from_dt":29.7},{"city":"Hopkinton","state_name":"Massachusetts","lat":42.2255,"lng":-71.53781,"zip":"01748","miles_from_dt":29.74},{"city":"Amston","state_name":"Connecticut","lat":41.62512,"lng":-72.37055,"zip":"06231","miles_from_dt":29.92},{"city":"Gilbertville","state_name":"Massachusetts","lat":42.32782,"lng":-72.19191,"zip":"01031","miles_from_dt":29.94},{"city":"Longmeadow","state_name":"Massachusetts","lat":42.06444,"lng":-72.51306,"zip":"01116","miles_from_dt":29.99}],"targetCityZipCode":"06267","targetCityState":"Connecticut"},"__N_SSG":true}