{"pageProps":{"stateName":"Utah","cityName":"monroe","nearbyCities":[{"city":"Elsinore","state_name":"Utah","lat":38.67417,"lng":-112.15015,"zip":"84724","miles_from_dt":5.07},{"city":"Joseph","state_name":"Utah","lat":38.64204,"lng":-112.22299,"zip":"84739","miles_from_dt":6.25},{"city":"Annabella","state_name":"Utah","lat":38.71294,"lng":-112.0606,"zip":"84711","miles_from_dt":8.04},{"city":"Koosharem","state_name":"Utah","lat":38.64207,"lng":-111.93627,"zip":"84744","miles_from_dt":10.13},{"city":"Glenwood","state_name":"Utah","lat":38.74504,"lng":-112.00084,"zip":"84730","miles_from_dt":11.52},{"city":"Sevier","state_name":"Utah","lat":38.59762,"lng":-112.33567,"zip":"84766","miles_from_dt":11.82},{"city":"Marysvale","state_name":"Utah","lat":38.44205,"lng":-112.1947,"zip":"84750","miles_from_dt":12.01},{"city":"Richfield","state_name":"Utah","lat":38.69586,"lng":-111.90474,"zip":"84701","miles_from_dt":13.1},{"city":"Greenwich","state_name":"Utah","lat":38.4453,"lng":-111.90408,"zip":"84732","miles_from_dt":15.98},{"city":"Sigurd","state_name":"Utah","lat":38.81817,"lng":-111.94022,"zip":"84657","miles_from_dt":17.54},{"city":"Kanosh","state_name":"Utah","lat":38.72183,"lng":-112.48706,"zip":"84637","miles_from_dt":21.55},{"city":"Meadow","state_name":"Utah","lat":38.87008,"lng":-112.37511,"zip":"84644","miles_from_dt":22.97},{"city":"Junction","state_name":"Utah","lat":38.27504,"lng":-112.26689,"zip":"84740","miles_from_dt":24.17},{"city":"Aurora","state_name":"Utah","lat":38.92244,"lng":-111.92427,"zip":"84620","miles_from_dt":24.24},{"city":"Kingston","state_name":"Utah","lat":38.20827,"lng":-112.18572,"zip":"84743","miles_from_dt":27.63},{"city":"Loa","state_name":"Utah","lat":38.44628,"lng":-111.63773,"zip":"84747","miles_from_dt":28.21},{"city":"Beaver","state_name":"Utah","lat":38.3292,"lng":-112.54441,"zip":"84713","miles_from_dt":29.97}],"targetCityZipCode":"84754","targetCityState":"Utah"},"__N_SSG":true}