{"pageProps":{"stateName":"Utah","cityName":"salina","nearbyCities":[{"city":"Axtell","state_name":"Utah","lat":39.05109,"lng":-111.82959,"zip":"84621","miles_from_dt":14.86},{"city":"Aurora","state_name":"Utah","lat":38.92244,"lng":-111.92427,"zip":"84620","miles_from_dt":15.23},{"city":"Redmond","state_name":"Utah","lat":39.01706,"lng":-111.8785,"zip":"84652","miles_from_dt":15.3},{"city":"Mayfield","state_name":"Utah","lat":39.12873,"lng":-111.68485,"zip":"84643","miles_from_dt":16.51},{"city":"Sigurd","state_name":"Utah","lat":38.81817,"lng":-111.94022,"zip":"84657","miles_from_dt":16.74},{"city":"Centerfield","state_name":"Utah","lat":39.09816,"lng":-111.81353,"zip":"84622","miles_from_dt":16.92},{"city":"Richfield","state_name":"Utah","lat":38.69586,"lng":-111.90474,"zip":"84701","miles_from_dt":19.48},{"city":"Sterling","state_name":"Utah","lat":39.19527,"lng":-111.66109,"zip":"84665","miles_from_dt":20.98},{"city":"Manti","state_name":"Utah","lat":39.20135,"lng":-111.60893,"zip":"84642","miles_from_dt":21.46},{"city":"Glenwood","state_name":"Utah","lat":38.74504,"lng":-112.00084,"zip":"84730","miles_from_dt":21.72},{"city":"Gunnison","state_name":"Utah","lat":39.18028,"lng":-111.83561,"zip":"84634","miles_from_dt":22.42},{"city":"Koosharem","state_name":"Utah","lat":38.64207,"lng":-111.93627,"zip":"84744","miles_from_dt":23.33},{"city":"Emery","state_name":"Utah","lat":38.90991,"lng":-111.20987,"zip":"84522","miles_from_dt":23.46},{"city":"Annabella","state_name":"Utah","lat":38.71294,"lng":-112.0606,"zip":"84711","miles_from_dt":25.62},{"city":"Ferron","state_name":"Utah","lat":39.0946,"lng":-111.2014,"zip":"84523","miles_from_dt":27.66}],"targetCityZipCode":"84654","targetCityState":"Utah"},"__N_SSG":true}