{"pageProps":{"stateName":"Utah","cityName":"wellington","nearbyCities":[{"city":"Kenilworth","state_name":"Utah","lat":39.71151,"lng":-110.7733,"zip":"84529","miles_from_dt":10.38},{"city":"Sunnyside","state_name":"Utah","lat":39.5761,"lng":-110.4007,"zip":"84539","miles_from_dt":11.59},{"city":"East Carbon","state_name":"Utah","lat":39.53392,"lng":-110.41949,"zip":"84520","miles_from_dt":12.25},{"city":"Price","state_name":"Utah","lat":39.53214,"lng":-110.80393,"zip":"84501","miles_from_dt":13.39},{"city":"Elmo","state_name":"Utah","lat":39.4213,"lng":-110.78709,"zip":"84521","miles_from_dt":18.37},{"city":"Cleveland","state_name":"Utah","lat":39.3917,"lng":-110.88478,"zip":"84518","miles_from_dt":23.17},{"city":"Helper","state_name":"Utah","lat":39.72395,"lng":-111.04571,"zip":"84526","miles_from_dt":24.43},{"city":"Huntington","state_name":"Utah","lat":39.43404,"lng":-111.08778,"zip":"84528","miles_from_dt":29.86}],"targetCityZipCode":"84542","targetCityState":"Utah"},"__N_SSG":true}