{"pageProps":{"stateName":"Massachusetts","cityName":"arlington-heights","nearbyCities":[{"city":"Arlington","state_name":"Massachusetts","lat":42.41597,"lng":-71.17437,"zip":"02476","miles_from_dt":0.45},{"city":"Arlington","state_name":"Massachusetts","lat":42.42053,"lng":-71.15666,"zip":"02474","miles_from_dt":1.24},{"city":"Belmont","state_name":"Massachusetts","lat":42.39602,"lng":-71.17955,"zip":"02478","miles_from_dt":1.67},{"city":"Waverley","state_name":"Massachusetts","lat":42.38898,"lng":-71.18776,"zip":"02479","miles_from_dt":2.19},{"city":"West Medford","state_name":"Massachusetts","lat":42.42433,"lng":-71.13227,"zip":"02156","miles_from_dt":2.5},{"city":"Waltham","state_name":"Massachusetts","lat":42.39365,"lng":-71.2202,"zip":"02452","miles_from_dt":2.72},{"city":"Winchester","state_name":"Massachusetts","lat":42.45177,"lng":-71.14628,"zip":"01890","miles_from_dt":2.81},{"city":"North Waltham","state_name":"Massachusetts","lat":42.39,"lng":-71.22219,"zip":"02455","miles_from_dt":2.97},{"city":"Cambridge","state_name":"Massachusetts","lat":42.39332,"lng":-71.13342,"zip":"02140","miles_from_dt":3.06},{"city":"Lexington","state_name":"Massachusetts","lat":42.438,"lng":-71.23922,"zip":"02421","miles_from_dt":3.22},{"city":"Lexington","state_name":"Massachusetts","lat":42.45821,"lng":-71.21762,"zip":"02420","miles_from_dt":3.22},{"city":"Watertown","state_name":"Massachusetts","lat":42.3772,"lng":-71.15371,"zip":"02477","miles_from_dt":3.28},{"city":"Somerville","state_name":"Massachusetts","lat":42.40088,"lng":-71.122,"zip":"02144","miles_from_dt":3.3},{"city":"Watertown","state_name":"Massachusetts","lat":42.37,"lng":-71.17713,"zip":"02472","miles_from_dt":3.47},{"city":"Watertown","state_name":"Massachusetts","lat":42.36984,"lng":-71.17499,"zip":"02471","miles_from_dt":3.49},{"city":"Medford","state_name":"Massachusetts","lat":42.41902,"lng":-71.10986,"zip":"02153","miles_from_dt":3.64},{"city":"Cambridge","state_name":"Massachusetts","lat":42.37997,"lng":-71.13446,"zip":"02138","miles_from_dt":3.66},{"city":"Medford","state_name":"Massachusetts","lat":42.42324,"lng":-71.10878,"zip":"02155","miles_from_dt":3.7},{"city":"Waltham","state_name":"Massachusetts","lat":42.39859,"lng":-71.2573,"zip":"02451","miles_from_dt":4.18},{"city":"Waltham","state_name":"Massachusetts","lat":42.378,"lng":-71.23988,"zip":"02454","miles_from_dt":4.19},{"city":"Cambridge","state_name":"Massachusetts","lat":42.37407,"lng":-71.11714,"zip":"02238","miles_from_dt":4.56},{"city":"Boston","state_name":"Massachusetts","lat":42.36717,"lng":-71.12509,"zip":"02163","miles_from_dt":4.65},{"city":"Newton","state_name":"Massachusetts","lat":42.35294,"lng":-71.18763,"zip":"02458","miles_from_dt":4.66},{"city":"Waltham","state_name":"Massachusetts","lat":42.36918,"lng":-71.24101,"zip":"02453","miles_from_dt":4.68},{"city":"Woburn","state_name":"Massachusetts","lat":42.48616,"lng":-71.15808,"zip":"01888","miles_from_dt":4.7},{"city":"Woburn","state_name":"Massachusetts","lat":42.48694,"lng":-71.15415,"zip":"01801","miles_from_dt":4.8},{"city":"Newtonville","state_name":"Massachusetts","lat":42.35206,"lng":-71.20835,"zip":"02460","miles_from_dt":4.91},{"city":"Allston","state_name":"Massachusetts","lat":42.35855,"lng":-71.12931,"zip":"02134","miles_from_dt":5.01},{"city":"Brighton","state_name":"Massachusetts","lat":42.34989,"lng":-71.15417,"zip":"02135","miles_from_dt":5.05},{"city":"Somerville","state_name":"Massachusetts","lat":42.39206,"lng":-71.0895,"zip":"02145","miles_from_dt":5.07},{"city":"Somerville","state_name":"Massachusetts","lat":42.38142,"lng":-71.09677,"zip":"02143","miles_from_dt":5.07},{"city":"West Newton","state_name":"Massachusetts","lat":42.34969,"lng":-71.22646,"zip":"02465","miles_from_dt":5.4},{"city":"Stoneham","state_name":"Massachusetts","lat":42.47396,"lng":-71.09705,"zip":"02180","miles_from_dt":5.67},{"city":"Cambridge","state_name":"Massachusetts","lat":42.36224,"lng":-71.10253,"zip":"02139","miles_from_dt":5.67},{"city":"Burlington","state_name":"Massachusetts","lat":42.5028,"lng":-71.20147,"zip":"01803","miles_from_dt":5.79},{"city":"Hanscom Afb","state_name":"Massachusetts","lat":42.46422,"lng":-71.28202,"zip":"01731","miles_from_dt":5.99},{"city":"Burlington","state_name":"Massachusetts","lat":42.50635,"lng":-71.19824,"zip":"01805","miles_from_dt":6.01},{"city":"New Town","state_name":"Massachusetts","lat":42.33357,"lng":-71.20411,"zip":"02456","miles_from_dt":6.1},{"city":"Brookline","state_name":"Massachusetts","lat":42.3435,"lng":-71.12179,"zip":"02446","miles_from_dt":6.1},{"city":"Cambridge","state_name":"Massachusetts","lat":42.37041,"lng":-71.08218,"zip":"02141","miles_from_dt":6.11},{"city":"Auburndale","state_name":"Massachusetts","lat":42.34541,"lng":-71.24759,"zip":"02466","miles_from_dt":6.19},{"city":"Nonantum","state_name":"Massachusetts","lat":42.33205,"lng":-71.20748,"zip":"02495","miles_from_dt":6.24},{"city":"Malden","state_name":"Massachusetts","lat":42.43048,"lng":-71.05762,"zip":"02148","miles_from_dt":6.35},{"city":"Cambridge","state_name":"Massachusetts","lat":42.36295,"lng":-71.08189,"zip":"02142","miles_from_dt":6.43},{"city":"Boston","state_name":"Massachusetts","lat":42.34741,"lng":-71.10276,"zip":"02215","miles_from_dt":6.43},{"city":"Woburn","state_name":"Massachusetts","lat":42.50588,"lng":-71.12715,"zip":"01815","miles_from_dt":6.52},{"city":"Everett","state_name":"Massachusetts","lat":42.40643,"lng":-71.05446,"zip":"02149","miles_from_dt":6.54},{"city":"Lincoln","state_name":"Massachusetts","lat":42.42572,"lng":-71.31013,"zip":"01773","miles_from_dt":6.62},{"city":"Melrose","state_name":"Massachusetts","lat":42.45561,"lng":-71.05901,"zip":"02176","miles_from_dt":6.69},{"city":"Charlestown","state_name":"Massachusetts","lat":42.37975,"lng":-71.06167,"zip":"02129","miles_from_dt":6.71},{"city":"Woburn","state_name":"Massachusetts","lat":42.50824,"lng":-71.1234,"zip":"01813","miles_from_dt":6.75},{"city":"Brookline Village","state_name":"Massachusetts","lat":42.33355,"lng":-71.11875,"zip":"02447","miles_from_dt":6.78},{"city":"Waban","state_name":"Massachusetts","lat":42.32777,"lng":-71.23142,"zip":"02468","miles_from_dt":6.89},{"city":"Boston","state_name":"Massachusetts","lat":42.39503,"lng":-71.05027,"zip":"02204","miles_from_dt":6.91},{"city":"Brookline","state_name":"Massachusetts","lat":42.32581,"lng":-71.13319,"zip":"02445","miles_from_dt":6.96},{"city":"Boston","state_name":"Massachusetts","lat":42.36337,"lng":-71.06686,"zip":"02114","miles_from_dt":7.03},{"city":"Boston","state_name":"Massachusetts","lat":42.34046,"lng":-71.09481,"zip":"02115","miles_from_dt":7.05},{"city":"Boston","state_name":"Massachusetts","lat":42.36237,"lng":-71.06619,"zip":"02222","miles_from_dt":7.1},{"city":"Boston","state_name":"Massachusetts","lat":42.34748,"lng":-71.08199,"zip":"02199","miles_from_dt":7.13},{"city":"Boston","state_name":"Massachusetts","lat":42.35105,"lng":-71.07638,"zip":"02116","miles_from_dt":7.17},{"city":"Chestnut Hill","state_name":"Massachusetts","lat":42.31725,"lng":-71.16096,"zip":"02467","miles_from_dt":7.18},{"city":"Boston","state_name":"Massachusetts","lat":42.34394,"lng":-71.08527,"zip":"02123","miles_from_dt":7.19},{"city":"Newton Lower Falls","state_name":"Massachusetts","lat":42.33102,"lng":-71.25599,"zip":"02462","miles_from_dt":7.26},{"city":"Newton Highlands","state_name":"Massachusetts","lat":42.31693,"lng":-71.20875,"zip":"02461","miles_from_dt":7.27},{"city":"Newton Center","state_name":"Massachusetts","lat":42.31515,"lng":-71.19174,"zip":"02459","miles_from_dt":7.28},{"city":"Boston","state_name":"Massachusetts","lat":42.35838,"lng":-71.06383,"zip":"02133","miles_from_dt":7.36},{"city":"Boston","state_name":"Massachusetts","lat":42.35657,"lng":-71.06516,"zip":"02108","miles_from_dt":7.38},{"city":"Bedford","state_name":"Massachusetts","lat":42.4995,"lng":-71.27799,"zip":"01730","miles_from_dt":7.38},{"city":"Boston","state_name":"Massachusetts","lat":42.34,"lng":-71.08502,"zip":"02298","miles_from_dt":7.4},{"city":"Weston","state_name":"Massachusetts","lat":42.35893,"lng":-71.30009,"zip":"02493","miles_from_dt":7.42},{"city":"Boston","state_name":"Massachusetts","lat":42.34853,"lng":-71.07299,"zip":"02217","miles_from_dt":7.42},{"city":"Boston","state_name":"Massachusetts","lat":42.36144,"lng":-71.05945,"zip":"02203","miles_from_dt":7.42},{"city":"Roxbury Crossing","state_name":"Massachusetts","lat":42.33212,"lng":-71.09654,"zip":"02120","miles_from_dt":7.46},{"city":"Boston","state_name":"Massachusetts","lat":42.36526,"lng":-71.05524,"zip":"02113","miles_from_dt":7.47},{"city":"Boston","state_name":"Massachusetts","lat":42.3582,"lng":-71.06109,"zip":"02293","miles_from_dt":7.48},{"city":"Boston","state_name":"Massachusetts","lat":42.35936,"lng":-71.05953,"zip":"02201","miles_from_dt":7.5},{"city":"Boston","state_name":"Massachusetts","lat":42.36498,"lng":-71.05277,"zip":"02109","miles_from_dt":7.59},{"city":"Pinehurst","state_name":"Massachusetts","lat":42.52539,"lng":-71.22794,"zip":"01866","miles_from_dt":7.64},{"city":"Boston","state_name":"Massachusetts","lat":42.35863,"lng":-71.0567,"zip":"02297","miles_from_dt":7.65},{"city":"Boston","state_name":"Massachusetts","lat":42.35768,"lng":-71.05763,"zip":"02112","miles_from_dt":7.65},{"city":"Boston","state_name":"Massachusetts","lat":42.35807,"lng":-71.05671,"zip":"02211","miles_from_dt":7.67},{"city":"Newton Upper Falls","state_name":"Massachusetts","lat":42.31274,"lng":-71.21981,"zip":"02464","miles_from_dt":7.68},{"city":"Boston","state_name":"Massachusetts","lat":42.34217,"lng":-71.0733,"zip":"02117","miles_from_dt":7.71},{"city":"Boston","state_name":"Massachusetts","lat":42.35486,"lng":-71.05727,"zip":"02241","miles_from_dt":7.77},{"city":"Boston","state_name":"Massachusetts","lat":42.3513,"lng":-71.06086,"zip":"02196","miles_from_dt":7.77},{"city":"Chelsea","state_name":"Massachusetts","lat":42.39587,"lng":-71.03251,"zip":"02150","miles_from_dt":7.78},{"city":"Boston","state_name":"Massachusetts","lat":42.35572,"lng":-71.05577,"zip":"02212","miles_from_dt":7.8},{"city":"Boston","state_name":"Massachusetts","lat":42.35067,"lng":-71.06054,"zip":"02111","miles_from_dt":7.81},{"city":"Boston","state_name":"Massachusetts","lat":42.35797,"lng":-71.05189,"zip":"02110","miles_from_dt":7.88},{"city":"Boston","state_name":"Massachusetts","lat":42.35114,"lng":-71.05706,"zip":"02284","miles_from_dt":7.93},{"city":"Boston","state_name":"Massachusetts","lat":42.33806,"lng":-71.07057,"zip":"02118","miles_from_dt":8.01},{"city":"Boston","state_name":"Massachusetts","lat":42.34875,"lng":-71.05672,"zip":"02283","miles_from_dt":8.05},{"city":"Boston","state_name":"Massachusetts","lat":42.34935,"lng":-71.05564,"zip":"02205","miles_from_dt":8.07},{"city":"Wakefield","state_name":"Massachusetts","lat":42.50348,"lng":-71.06559,"zip":"01880","miles_from_dt":8.23},{"city":"Roxbury","state_name":"Massachusetts","lat":42.32405,"lng":-71.08522,"zip":"02119","miles_from_dt":8.25},{"city":"Jamaica Plain","state_name":"Massachusetts","lat":42.30823,"lng":-71.11515,"zip":"02130","miles_from_dt":8.43},{"city":"Needham Heights","state_name":"Massachusetts","lat":42.29959,"lng":-71.2317,"zip":"02494","miles_from_dt":8.72},{"city":"Boston","state_name":"Massachusetts","lat":42.34815,"lng":-71.03942,"zip":"02210","miles_from_dt":8.79},{"city":"Reading","state_name":"Massachusetts","lat":42.53505,"lng":-71.1055,"zip":"01867","miles_from_dt":8.81},{"city":"Boston","state_name":"Massachusetts","lat":42.34445,"lng":-71.04217,"zip":"02206","miles_from_dt":8.82},{"city":"East Boston","state_name":"Massachusetts","lat":42.37324,"lng":-71.01616,"zip":"02128","miles_from_dt":9.03},{"city":"Wellesley Hills","state_name":"Massachusetts","lat":42.31064,"lng":-71.27779,"zip":"02481","miles_from_dt":9.04},{"city":"Revere","state_name":"Massachusetts","lat":42.41887,"lng":-71.004,"zip":"02151","miles_from_dt":9.05},{"city":"Nutting Lake","state_name":"Massachusetts","lat":42.53471,"lng":-71.26916,"zip":"01865","miles_from_dt":9.1},{"city":"Saugus","state_name":"Massachusetts","lat":42.46922,"lng":-71.01299,"zip":"01906","miles_from_dt":9.23},{"city":"Dorchester","state_name":"Massachusetts","lat":42.3057,"lng":-71.08693,"zip":"02121","miles_from_dt":9.26},{"city":"Billerica","state_name":"Massachusetts","lat":42.54127,"lng":-71.26288,"zip":"01822","miles_from_dt":9.34},{"city":"South Boston","state_name":"Massachusetts","lat":42.33455,"lng":-71.03875,"zip":"02127","miles_from_dt":9.38},{"city":"Babson Park","state_name":"Massachusetts","lat":42.29777,"lng":-71.26887,"zip":"02457","miles_from_dt":9.58},{"city":"Dorchester","state_name":"Massachusetts","lat":42.31578,"lng":-71.0562,"zip":"02125","miles_from_dt":9.63},{"city":"Billerica","state_name":"Massachusetts","lat":42.54999,"lng":-71.25206,"zip":"01821","miles_from_dt":9.66},{"city":"Wilmington","state_name":"Massachusetts","lat":42.56091,"lng":-71.16541,"zip":"01887","miles_from_dt":9.74},{"city":"West Roxbury","state_name":"Massachusetts","lat":42.27931,"lng":-71.16072,"zip":"02132","miles_from_dt":9.78},{"city":"Roslindale","state_name":"Massachusetts","lat":42.28392,"lng":-71.12468,"zip":"02131","miles_from_dt":9.84},{"city":"Concord","state_name":"Massachusetts","lat":42.46221,"lng":-71.36504,"zip":"01742","miles_from_dt":9.85},{"city":"Wayland","state_name":"Massachusetts","lat":42.3583,"lng":-71.35895,"zip":"01778","miles_from_dt":10.06},{"city":"Needham","state_name":"Massachusetts","lat":42.27615,"lng":-71.24387,"zip":"02492","miles_from_dt":10.45},{"city":"Wellesley","state_name":"Massachusetts","lat":42.29455,"lng":-71.29859,"zip":"02482","miles_from_dt":10.56},{"city":"Winthrop","state_name":"Massachusetts","lat":42.37724,"lng":-70.98115,"zip":"02152","miles_from_dt":10.64},{"city":"Lynnfield","state_name":"Massachusetts","lat":42.53523,"lng":-71.03695,"zip":"01940","miles_from_dt":10.82},{"city":"Dorchester Center","state_name":"Massachusetts","lat":42.28583,"lng":-71.07114,"zip":"02124","miles_from_dt":10.85},{"city":"Dorchester","state_name":"Massachusetts","lat":42.29427,"lng":-71.05185,"zip":"02122","miles_from_dt":10.92},{"city":"Mattapan","state_name":"Massachusetts","lat":42.27588,"lng":-71.0918,"zip":"02126","miles_from_dt":10.96},{"city":"Lynn","state_name":"Massachusetts","lat":42.46355,"lng":-70.9733,"zip":"01905","miles_from_dt":11.03},{"city":"North Reading","state_name":"Massachusetts","lat":42.57201,"lng":-71.11123,"zip":"01889","miles_from_dt":11.06},{"city":"Carlisle","state_name":"Massachusetts","lat":42.53001,"lng":-71.35128,"zip":"01741","miles_from_dt":11.54},{"city":"Hyde Park","state_name":"Massachusetts","lat":42.25505,"lng":-71.12662,"zip":"02136","miles_from_dt":11.74},{"city":"Lynn","state_name":"Massachusetts","lat":42.49151,"lng":-70.97166,"zip":"01904","miles_from_dt":11.77},{"city":"Lynn","state_name":"Massachusetts","lat":42.47333,"lng":-70.96131,"zip":"01910","miles_from_dt":11.81},{"city":"Dedham","state_name":"Massachusetts","lat":42.24665,"lng":-71.1777,"zip":"02026","miles_from_dt":11.98},{"city":"Dedham","state_name":"Massachusetts","lat":42.24664,"lng":-71.17992,"zip":"02027","miles_from_dt":11.98},{"city":"North Reading","state_name":"Massachusetts","lat":42.58156,"lng":-71.08759,"zip":"01864","miles_from_dt":12.11},{"city":"North Billerica","state_name":"Massachusetts","lat":42.57427,"lng":-71.29437,"zip":"01862","miles_from_dt":12.11},{"city":"Quincy","state_name":"Massachusetts","lat":42.28709,"lng":-71.02604,"zip":"02171","miles_from_dt":12.14},{"city":"Milton Village","state_name":"Massachusetts","lat":42.26069,"lng":-71.07867,"zip":"02187","miles_from_dt":12.19},{"city":"Lynn","state_name":"Massachusetts","lat":42.46619,"lng":-70.94973,"zip":"01903","miles_from_dt":12.24},{"city":"Lynn","state_name":"Massachusetts","lat":42.46125,"lng":-70.94639,"zip":"01901","miles_from_dt":12.32},{"city":"Sudbury","state_name":"Massachusetts","lat":42.38456,"lng":-71.42316,"zip":"01776","miles_from_dt":12.63},{"city":"Natick","state_name":"Massachusetts","lat":42.28436,"lng":-71.34966,"zip":"01760","miles_from_dt":12.75},{"city":"Lynn","state_name":"Massachusetts","lat":42.4712,"lng":-70.93983,"zip":"01902","miles_from_dt":12.82},{"city":"Readville","state_name":"Massachusetts","lat":42.23508,"lng":-71.13447,"zip":"02137","miles_from_dt":13},{"city":"Nahant","state_name":"Massachusetts","lat":42.42856,"lng":-70.92614,"zip":"01908","miles_from_dt":13.04},{"city":"Peabody","state_name":"Massachusetts","lat":42.53374,"lng":-70.97222,"zip":"01960","miles_from_dt":13.23},{"city":"Peabody","state_name":"Massachusetts","lat":42.53456,"lng":-70.96824,"zip":"01961","miles_from_dt":13.43},{"city":"Tewksbury","state_name":"Massachusetts","lat":42.61206,"lng":-71.22733,"zip":"01876","miles_from_dt":13.45},{"city":"Milton","state_name":"Massachusetts","lat":42.23854,"lng":-71.08464,"zip":"02186","miles_from_dt":13.48},{"city":"Quincy","state_name":"Massachusetts","lat":42.26644,"lng":-71.01621,"zip":"02170","miles_from_dt":13.56},{"city":"Dover","state_name":"Massachusetts","lat":42.2366,"lng":-71.28421,"zip":"02030","miles_from_dt":13.74},{"city":"Acton","state_name":"Massachusetts","lat":42.48397,"lng":-71.43809,"zip":"01720","miles_from_dt":13.86},{"city":"Westwood","state_name":"Massachusetts","lat":42.22024,"lng":-71.21057,"zip":"02090","miles_from_dt":13.89},{"city":"Maynard","state_name":"Massachusetts","lat":42.4264,"lng":-71.45607,"zip":"01754","miles_from_dt":14.08},{"city":"Acton","state_name":"Massachusetts","lat":42.52165,"lng":-71.42983,"zip":"01718","miles_from_dt":14.52},{"city":"Swampscott","state_name":"Massachusetts","lat":42.47572,"lng":-70.90684,"zip":"01907","miles_from_dt":14.53},{"city":"Quincy","state_name":"Massachusetts","lat":42.25139,"lng":-71.00394,"zip":"02269","miles_from_dt":14.76},{"city":"Framingham","state_name":"Massachusetts","lat":42.32195,"lng":-71.43796,"zip":"01701","miles_from_dt":14.8},{"city":"Chelmsford","state_name":"Massachusetts","lat":42.59156,"lng":-71.35553,"zip":"01824","miles_from_dt":14.81},{"city":"Framingham","state_name":"Massachusetts","lat":42.32025,"lng":-71.43949,"zip":"01705","miles_from_dt":14.92},{"city":"Framingham","state_name":"Massachusetts","lat":42.32301,"lng":-71.44179,"zip":"01703","miles_from_dt":14.94},{"city":"Quincy","state_name":"Massachusetts","lat":42.23971,"lng":-71.01802,"zip":"02169","miles_from_dt":15},{"city":"Framingham","state_name":"Massachusetts","lat":42.31823,"lng":-71.44266,"zip":"01704","miles_from_dt":15.13},{"city":"Hathorne","state_name":"Massachusetts","lat":42.58579,"lng":-70.98406,"zip":"01937","miles_from_dt":15.22},{"city":"Middleton","state_name":"Massachusetts","lat":42.6043,"lng":-71.01641,"zip":"01949","miles_from_dt":15.23},{"city":"Salem","state_name":"Massachusetts","lat":42.51298,"lng":-70.90266,"zip":"01970","miles_from_dt":15.59},{"city":"Andover","state_name":"Massachusetts","lat":42.64669,"lng":-71.16517,"zip":"01810","miles_from_dt":15.65},{"city":"Andover","state_name":"Massachusetts","lat":42.64859,"lng":-71.18254,"zip":"01812","miles_from_dt":15.76},{"city":"Lowell","state_name":"Massachusetts","lat":42.63231,"lng":-71.29538,"zip":"01852","miles_from_dt":15.76},{"city":"Andover","state_name":"Massachusetts","lat":42.65037,"lng":-71.18456,"zip":"01899","miles_from_dt":15.88},{"city":"Danvers","state_name":"Massachusetts","lat":42.57398,"lng":-70.94923,"zip":"01923","miles_from_dt":15.9},{"city":"Andover","state_name":"Massachusetts","lat":42.65227,"lng":-71.1835,"zip":"05501","miles_from_dt":16.02},{"city":"Framingham","state_name":"Massachusetts","lat":42.28242,"lng":-71.43428,"zip":"01702","miles_from_dt":16.09},{"city":"North Scituate","state_name":"Massachusetts","lat":42.18687,"lng":-71.20406,"zip":"02060","miles_from_dt":16.15},{"city":"Norwood","state_name":"Massachusetts","lat":42.18563,"lng":-71.19464,"zip":"02062","miles_from_dt":16.21},{"city":"Sherborn","state_name":"Massachusetts","lat":42.23416,"lng":-71.37532,"zip":"01770","miles_from_dt":16.25},{"city":"Lowell","state_name":"Massachusetts","lat":42.62915,"lng":-71.33674,"zip":"01851","miles_from_dt":16.47},{"city":"Stow","state_name":"Massachusetts","lat":42.42983,"lng":-71.51146,"zip":"01775","miles_from_dt":16.91},{"city":"Marblehead","state_name":"Massachusetts","lat":42.49924,"lng":-70.86348,"zip":"01945","miles_from_dt":17.12},{"city":"Canton","state_name":"Massachusetts","lat":42.17504,"lng":-71.12645,"zip":"02021","miles_from_dt":17.15},{"city":"North Weymouth","state_name":"Massachusetts","lat":42.24434,"lng":-70.94378,"zip":"02191","miles_from_dt":17.17},{"city":"Lowell","state_name":"Massachusetts","lat":42.65569,"lng":-71.30292,"zip":"01850","miles_from_dt":17.4},{"city":"Medfield","state_name":"Massachusetts","lat":42.1848,"lng":-71.30501,"zip":"02052","miles_from_dt":17.45},{"city":"Westford","state_name":"Massachusetts","lat":42.58642,"lng":-71.44008,"zip":"01886","miles_from_dt":17.51},{"city":"Braintree","state_name":"Massachusetts","lat":42.20386,"lng":-71.0022,"zip":"02184","miles_from_dt":17.52},{"city":"Braintree","state_name":"Massachusetts","lat":42.20118,"lng":-71.00511,"zip":"02185","miles_from_dt":17.6},{"city":"Salem","state_name":"Massachusetts","lat":42.52757,"lng":-70.86839,"zip":"01971","miles_from_dt":17.6},{"city":"Lowell","state_name":"Massachusetts","lat":42.65859,"lng":-71.30522,"zip":"01853","miles_from_dt":17.63},{"city":"Littleton","state_name":"Massachusetts","lat":42.53503,"lng":-71.4891,"zip":"01460","miles_from_dt":17.63},{"city":"Boxborough","state_name":"Massachusetts","lat":42.48837,"lng":-71.51779,"zip":"01719","miles_from_dt":17.85},{"city":"Hull","state_name":"Massachusetts","lat":42.28437,"lng":-70.88266,"zip":"02045","miles_from_dt":17.92},{"city":"Lowell","state_name":"Massachusetts","lat":42.64939,"lng":-71.34827,"zip":"01854","miles_from_dt":17.98},{"city":"North Andover","state_name":"Massachusetts","lat":42.67132,"lng":-71.08669,"zip":"01845","miles_from_dt":17.99},{"city":"North Chelmsford","state_name":"Massachusetts","lat":42.63274,"lng":-71.39132,"zip":"01863","miles_from_dt":18.18},{"city":"Randolph","state_name":"Massachusetts","lat":42.17506,"lng":-71.05011,"zip":"02368","miles_from_dt":18.2},{"city":"East Walpole","state_name":"Massachusetts","lat":42.15489,"lng":-71.2155,"zip":"02032","miles_from_dt":18.4},{"city":"Ashland","state_name":"Massachusetts","lat":42.25726,"lng":-71.46867,"zip":"01721","miles_from_dt":18.54},{"city":"Weymouth","state_name":"Massachusetts","lat":42.20724,"lng":-70.95764,"zip":"02188","miles_from_dt":18.63},{"city":"Lawrence","state_name":"Massachusetts","lat":42.68985,"lng":-71.16095,"zip":"01843","miles_from_dt":18.64},{"city":"Fayville","state_name":"Massachusetts","lat":42.29155,"lng":-71.50101,"zip":"01745","miles_from_dt":18.64},{"city":"Hudson","state_name":"Massachusetts","lat":42.38868,"lng":-71.54648,"zip":"01749","miles_from_dt":18.83},{"city":"Beverly","state_name":"Massachusetts","lat":42.56841,"lng":-70.8647,"zip":"01915","miles_from_dt":19.12},{"city":"Dracut","state_name":"Massachusetts","lat":42.68323,"lng":-71.30063,"zip":"01826","miles_from_dt":19.15},{"city":"Hingham","state_name":"Massachusetts","lat":42.24248,"lng":-70.89288,"zip":"02044","miles_from_dt":19.19},{"city":"East Weymouth","state_name":"Massachusetts","lat":42.2111,"lng":-70.93135,"zip":"02189","miles_from_dt":19.28},{"city":"Walpole","state_name":"Massachusetts","lat":42.14689,"lng":-71.25916,"zip":"02081","miles_from_dt":19.29},{"city":"Topsfield","state_name":"Massachusetts","lat":42.63728,"lng":-70.94251,"zip":"01983","miles_from_dt":19.3},{"city":"Marlborough","state_name":"Massachusetts","lat":42.3494,"lng":-71.54681,"zip":"01752","miles_from_dt":19.35},{"city":"Millis","state_name":"Massachusetts","lat":42.1693,"lng":-71.36261,"zip":"02054","miles_from_dt":19.66},{"city":"Wenham","state_name":"Massachusetts","lat":42.60078,"lng":-70.8826,"zip":"01984","miles_from_dt":19.68},{"city":"Southborough","state_name":"Massachusetts","lat":42.30144,"lng":-71.5304,"zip":"01772","miles_from_dt":19.68},{"city":"Lawrence","state_name":"Massachusetts","lat":42.70548,"lng":-71.15997,"zip":"01842","miles_from_dt":19.72},{"city":"Lawrence","state_name":"Massachusetts","lat":42.70695,"lng":-71.16014,"zip":"01840","miles_from_dt":19.82},{"city":"Boxford","state_name":"Massachusetts","lat":42.6815,"lng":-71.01887,"zip":"01921","miles_from_dt":19.84},{"city":"Lawrence","state_name":"Massachusetts","lat":42.71077,"lng":-71.16494,"zip":"01841","miles_from_dt":20.07},{"city":"Prides Crossing","state_name":"Massachusetts","lat":42.56294,"lng":-70.82996,"zip":"01965","miles_from_dt":20.46},{"city":"Holliston","state_name":"Massachusetts","lat":42.19775,"lng":-71.44499,"zip":"01746","miles_from_dt":20.47},{"city":"Hingham","state_name":"Massachusetts","lat":42.21678,"lng":-70.88494,"zip":"02043","miles_from_dt":20.67},{"city":"Holbrook","state_name":"Massachusetts","lat":42.14733,"lng":-71.00484,"zip":"02343","miles_from_dt":20.89},{"city":"West Boxford","state_name":"Massachusetts","lat":42.70948,"lng":-71.05848,"zip":"01885","miles_from_dt":20.92},{"city":"Harvard","state_name":"Massachusetts","lat":42.50005,"lng":-71.57754,"zip":"01451","miles_from_dt":21},{"city":"South Weymouth","state_name":"Massachusetts","lat":42.16625,"lng":-70.95253,"zip":"02190","miles_from_dt":21.08},{"city":"Stoughton","state_name":"Massachusetts","lat":42.1192,"lng":-71.10189,"zip":"02072","miles_from_dt":21.17},{"city":"Tyngsboro","state_name":"Massachusetts","lat":42.66626,"lng":-71.42911,"zip":"01879","miles_from_dt":21.18},{"city":"Avon","state_name":"Massachusetts","lat":42.12666,"lng":-71.04922,"zip":"02322","miles_from_dt":21.36},{"city":"Sharon","state_name":"Massachusetts","lat":42.10778,"lng":-71.18183,"zip":"02067","miles_from_dt":21.57},{"city":"Methuen","state_name":"Massachusetts","lat":42.73426,"lng":-71.18858,"zip":"01844","miles_from_dt":21.68},{"city":"South Hamilton","state_name":"Massachusetts","lat":42.62669,"lng":-70.85789,"zip":"01982","miles_from_dt":21.8},{"city":"Bolton","state_name":"Massachusetts","lat":42.43616,"lng":-71.60728,"zip":"01740","miles_from_dt":21.83},{"city":"Ayer","state_name":"Massachusetts","lat":42.56351,"lng":-71.57059,"zip":"01432","miles_from_dt":22.23},{"city":"Hamilton","state_name":"Massachusetts","lat":42.63792,"lng":-70.8594,"zip":"01936","miles_from_dt":22.25},{"city":"South Walpole","state_name":"Massachusetts","lat":42.10392,"lng":-71.27002,"zip":"02071","miles_from_dt":22.31},{"city":"Norfolk","state_name":"Massachusetts","lat":42.11632,"lng":-71.32952,"zip":"02056","miles_from_dt":22.32},{"city":"Medway","state_name":"Massachusetts","lat":42.15352,"lng":-71.42906,"zip":"02053","miles_from_dt":22.37},{"city":"Cohasset","state_name":"Massachusetts","lat":42.23603,"lng":-70.81906,"zip":"02025","miles_from_dt":22.48},{"city":"Accord","state_name":"Massachusetts","lat":42.17568,"lng":-70.88691,"zip":"02018","miles_from_dt":22.63},{"city":"Hopkinton","state_name":"Massachusetts","lat":42.2255,"lng":-71.53781,"zip":"01748","miles_from_dt":22.69},{"city":"Pelham","state_name":"New Hampshire","lat":42.73354,"lng":-71.324,"zip":"03076","miles_from_dt":22.82},{"city":"Still River","state_name":"Massachusetts","lat":42.48365,"lng":-71.62161,"zip":"01467","miles_from_dt":22.95},{"city":"Georgetown","state_name":"Massachusetts","lat":42.72409,"lng":-70.9821,"zip":"01833","miles_from_dt":23.3},{"city":"Woodville","state_name":"Massachusetts","lat":42.23233,"lng":-71.55963,"zip":"01784","miles_from_dt":23.33},{"city":"Berlin","state_name":"Massachusetts","lat":42.38378,"lng":-71.63552,"zip":"01503","miles_from_dt":23.39},{"city":"Haverhill","state_name":"Massachusetts","lat":42.75292,"lng":-71.08602,"zip":"01835","miles_from_dt":23.47},{"city":"Devens","state_name":"Massachusetts","lat":42.53149,"lng":-71.61663,"zip":"01434","miles_from_dt":23.55},{"city":"Groton","state_name":"Massachusetts","lat":42.61368,"lng":-71.56139,"zip":"01450","miles_from_dt":23.57},{"city":"Abington","state_name":"Massachusetts","lat":42.11805,"lng":-70.95905,"zip":"02351","miles_from_dt":23.76},{"city":"Groton","state_name":"Massachusetts","lat":42.60785,"lng":-71.57233,"zip":"01471","miles_from_dt":23.81},{"city":"Manchester","state_name":"Massachusetts","lat":42.58154,"lng":-70.76825,"zip":"01944","miles_from_dt":23.84},{"city":"Dunstable","state_name":"Massachusetts","lat":42.67643,"lng":-71.50052,"zip":"01827","miles_from_dt":24.06},{"city":"Rockland","state_name":"Massachusetts","lat":42.1295,"lng":-70.91002,"zip":"02370","miles_from_dt":24.4},{"city":"Groveland","state_name":"Massachusetts","lat":42.75198,"lng":-71.01486,"zip":"01834","miles_from_dt":24.41},{"city":"Westborough","state_name":"Massachusetts","lat":42.26815,"lng":-71.61402,"zip":"01581","miles_from_dt":24.53},{"city":"Brockton","state_name":"Massachusetts","lat":42.08318,"lng":-71.02462,"zip":"02305","miles_from_dt":24.61},{"city":"Brockton","state_name":"Massachusetts","lat":42.08476,"lng":-71.01516,"zip":"02303","miles_from_dt":24.67},{"city":"Brockton","state_name":"Massachusetts","lat":42.07791,"lng":-71.04223,"zip":"02301","miles_from_dt":24.68},{"city":"Brockton","state_name":"Massachusetts","lat":42.08167,"lng":-71.02597,"zip":"02304","miles_from_dt":24.68},{"city":"Northborough","state_name":"Massachusetts","lat":42.32314,"lng":-71.64621,"zip":"01532","miles_from_dt":24.74},{"city":"Brockton","state_name":"Massachusetts","lat":42.08792,"lng":-70.99864,"zip":"02302","miles_from_dt":24.77},{"city":"Minot","state_name":"Massachusetts","lat":42.23883,"lng":-70.76158,"zip":"02055","miles_from_dt":24.86},{"city":"Foxboro","state_name":"Massachusetts","lat":42.06266,"lng":-71.24613,"zip":"02035","miles_from_dt":24.91},{"city":"Milford","state_name":"Massachusetts","lat":42.15723,"lng":-71.51978,"zip":"01757","miles_from_dt":25.12},{"city":"North Easton","state_name":"Massachusetts","lat":42.06224,"lng":-71.07751,"zip":"02357","miles_from_dt":25.27},{"city":"Ipswich","state_name":"Massachusetts","lat":42.68568,"lng":-70.83989,"zip":"01938","miles_from_dt":25.27},{"city":"North Easton","state_name":"Massachusetts","lat":42.05519,"lng":-71.12071,"zip":"02356","miles_from_dt":25.39},{"city":"Essex","state_name":"Massachusetts","lat":42.63478,"lng":-70.77684,"zip":"01929","miles_from_dt":25.39},{"city":"Salem","state_name":"New Hampshire","lat":42.79023,"lng":-71.22024,"zip":"03079","miles_from_dt":25.62},{"city":"Rowley","state_name":"Massachusetts","lat":42.72235,"lng":-70.88832,"zip":"01969","miles_from_dt":25.65},{"city":"Haverhill","state_name":"Massachusetts","lat":42.78576,"lng":-71.08467,"zip":"01831","miles_from_dt":25.7},{"city":"Haverhill","state_name":"Massachusetts","lat":42.79099,"lng":-71.13133,"zip":"01832","miles_from_dt":25.72},{"city":"Norwell","state_name":"Massachusetts","lat":42.16075,"lng":-70.81772,"zip":"02061","miles_from_dt":25.83},{"city":"Lancaster","state_name":"Massachusetts","lat":42.48176,"lng":-71.68079,"zip":"01523","miles_from_dt":25.9},{"city":"Franklin","state_name":"Massachusetts","lat":42.08622,"lng":-71.41126,"zip":"02038","miles_from_dt":25.9},{"city":"Clinton","state_name":"Massachusetts","lat":42.4119,"lng":-71.68883,"zip":"01510","miles_from_dt":25.98},{"city":"South Lancaster","state_name":"Massachusetts","lat":42.44581,"lng":-71.68845,"zip":"01561","miles_from_dt":26.01},{"city":"Shirley","state_name":"Massachusetts","lat":42.57411,"lng":-71.6475,"zip":"01464","miles_from_dt":26.09},{"city":"West Groton","state_name":"Massachusetts","lat":42.60663,"lng":-71.62914,"zip":"01472","miles_from_dt":26.26},{"city":"Scituate","state_name":"Massachusetts","lat":42.20129,"lng":-70.76155,"zip":"02066","miles_from_dt":26.27},{"city":"Nashua","state_name":"New Hampshire","lat":42.72212,"lng":-71.49556,"zip":"03062","miles_from_dt":26.3},{"city":"Nashua","state_name":"New Hampshire","lat":42.74135,"lng":-71.45936,"zip":"03060","miles_from_dt":26.32},{"city":"Hudson","state_name":"New Hampshire","lat":42.76394,"lng":-71.40716,"zip":"03051","miles_from_dt":26.38},{"city":"Hanover","state_name":"Massachusetts","lat":42.12241,"lng":-70.85665,"zip":"02339","miles_from_dt":26.44},{"city":"Whitman","state_name":"Massachusetts","lat":42.08,"lng":-70.93993,"zip":"02382","miles_from_dt":26.54},{"city":"Haverhill","state_name":"Massachusetts","lat":42.7959,"lng":-71.05323,"zip":"01830","miles_from_dt":26.73},{"city":"Byfield","state_name":"Massachusetts","lat":42.75862,"lng":-70.91758,"zip":"01922","miles_from_dt":26.94},{"city":"Wrentham","state_name":"Massachusetts","lat":42.05129,"lng":-71.35522,"zip":"02093","miles_from_dt":26.99},{"city":"Hopedale","state_name":"Massachusetts","lat":42.12477,"lng":-71.535,"zip":"01747","miles_from_dt":27.3},{"city":"Windham","state_name":"New Hampshire","lat":42.80758,"lng":-71.29945,"zip":"03087","miles_from_dt":27.41},{"city":"Upton","state_name":"Massachusetts","lat":42.17694,"lng":-71.60516,"zip":"01568","miles_from_dt":27.47},{"city":"Easton","state_name":"Massachusetts","lat":42.02385,"lng":-71.12922,"zip":"02334","miles_from_dt":27.49},{"city":"Nashua","state_name":"New Hampshire","lat":42.74654,"lng":-71.493,"zip":"03061","miles_from_dt":27.58},{"city":"Greenbush","state_name":"Massachusetts","lat":42.17959,"lng":-70.74968,"zip":"02040","miles_from_dt":27.64},{"city":"Pepperell","state_name":"Massachusetts","lat":42.67126,"lng":-71.60429,"zip":"01463","miles_from_dt":27.7},{"city":"South Easton","state_name":"Massachusetts","lat":42.01954,"lng":-71.10381,"zip":"02375","miles_from_dt":27.94},{"city":"Mansfield","state_name":"Massachusetts","lat":42.01626,"lng":-71.21868,"zip":"02048","miles_from_dt":27.95},{"city":"West Newbury","state_name":"Massachusetts","lat":42.7939,"lng":-70.96906,"zip":"01985","miles_from_dt":27.96},{"city":"Boylston","state_name":"Massachusetts","lat":42.35633,"lng":-71.72123,"zip":"01505","miles_from_dt":27.99},{"city":"Bellingham","state_name":"Massachusetts","lat":42.0777,"lng":-71.47407,"zip":"02019","miles_from_dt":28.02},{"city":"North Marshfield","state_name":"Massachusetts","lat":42.14282,"lng":-70.77212,"zip":"02059","miles_from_dt":28.39},{"city":"Sheldonville","state_name":"Massachusetts","lat":42.0348,"lng":-71.386,"zip":"02070","miles_from_dt":28.61},{"city":"West Bridgewater","state_name":"Massachusetts","lat":42.02139,"lng":-71.0267,"zip":"02379","miles_from_dt":28.64},{"city":"North Salem","state_name":"New Hampshire","lat":42.83502,"lng":-71.22425,"zip":"03073","miles_from_dt":28.71},{"city":"Atkinson","state_name":"New Hampshire","lat":42.83693,"lng":-71.16042,"zip":"03811","miles_from_dt":28.78},{"city":"Gloucester","state_name":"Massachusetts","lat":42.62605,"lng":-70.68966,"zip":"01930","miles_from_dt":28.83},{"city":"Nashua","state_name":"New Hampshire","lat":42.77886,"lng":-71.47466,"zip":"03064","miles_from_dt":28.93},{"city":"Shrewsbury","state_name":"Massachusetts","lat":42.28419,"lng":-71.71558,"zip":"01545","miles_from_dt":28.94},{"city":"Plainville","state_name":"Massachusetts","lat":42.01409,"lng":-71.33642,"zip":"02762","miles_from_dt":29.15},{"city":"North Grafton","state_name":"Massachusetts","lat":42.23189,"lng":-71.69219,"zip":"01536","miles_from_dt":29.23},{"city":"East Bridgewater","state_name":"Massachusetts","lat":42.03521,"lng":-70.94235,"zip":"02333","miles_from_dt":29.26},{"city":"Plaistow","state_name":"New Hampshire","lat":42.84032,"lng":-71.09603,"zip":"03865","miles_from_dt":29.32},{"city":"Gloucester","state_name":"Massachusetts","lat":42.6303,"lng":-70.68161,"zip":"01931","miles_from_dt":29.33},{"city":"Mendon","state_name":"Massachusetts","lat":42.09301,"lng":-71.55146,"zip":"01756","miles_from_dt":29.51},{"city":"Grafton","state_name":"Massachusetts","lat":42.20077,"lng":-71.67892,"zip":"01519","miles_from_dt":29.67},{"city":"Hanson","state_name":"Massachusetts","lat":42.05604,"lng":-70.87251,"zip":"02341","miles_from_dt":29.7},{"city":"Newbury","state_name":"Massachusetts","lat":42.77742,"lng":-70.85022,"zip":"01951","miles_from_dt":29.87},{"city":"Lunenburg","state_name":"Massachusetts","lat":42.58994,"lng":-71.72036,"zip":"01462","miles_from_dt":29.94}],"targetCityZipCode":"02475","targetCityState":"Massachusetts"},"__N_SSG":true}