{"pageProps":{"stateName":"Massachusetts","cityName":"ashfield","nearbyCities":[{"city":"Buckland","state_name":"Massachusetts","lat":42.5814,"lng":-72.80309,"zip":"01338","miles_from_dt":4.44},{"city":"Goshen","state_name":"Massachusetts","lat":42.45313,"lng":-72.81965,"zip":"01032","miles_from_dt":4.46},{"city":"Plainfield","state_name":"Massachusetts","lat":42.51958,"lng":-72.92504,"zip":"01070","miles_from_dt":5.59},{"city":"Conway","state_name":"Massachusetts","lat":42.50734,"lng":-72.70221,"zip":"01341","miles_from_dt":5.83},{"city":"Cummington","state_name":"Massachusetts","lat":42.46858,"lng":-72.92296,"zip":"01026","miles_from_dt":6.45},{"city":"Shelburne Falls","state_name":"Massachusetts","lat":42.59607,"lng":-72.72915,"zip":"01370","miles_from_dt":6.98},{"city":"Charlemont","state_name":"Massachusetts","lat":42.61099,"lng":-72.88846,"zip":"01339","miles_from_dt":7.44},{"city":"Williamsburg","state_name":"Massachusetts","lat":42.40968,"lng":-72.77213,"zip":"01096","miles_from_dt":7.78},{"city":"Chesterfield","state_name":"Massachusetts","lat":42.38495,"lng":-72.84675,"zip":"01012","miles_from_dt":9.3},{"city":"West Chesterfield","state_name":"Massachusetts","lat":42.38589,"lng":-72.88165,"zip":"01084","miles_from_dt":9.71},{"city":"Haydenville","state_name":"Massachusetts","lat":42.41049,"lng":-72.69188,"zip":"01039","miles_from_dt":9.73},{"city":"Whately","state_name":"Massachusetts","lat":42.44335,"lng":-72.65099,"zip":"01093","miles_from_dt":9.85},{"city":"Heath","state_name":"Massachusetts","lat":42.6706,"lng":-72.81323,"zip":"01346","miles_from_dt":10.55},{"city":"Worthington","state_name":"Massachusetts","lat":42.39551,"lng":-72.94315,"zip":"01098","miles_from_dt":10.66},{"city":"South Deerfield","state_name":"Massachusetts","lat":42.47292,"lng":-72.61516,"zip":"01373","miles_from_dt":10.69},{"city":"Deerfield","state_name":"Massachusetts","lat":42.54384,"lng":-72.6058,"zip":"01342","miles_from_dt":10.86},{"city":"Savoy","state_name":"Massachusetts","lat":42.59627,"lng":-73.01958,"zip":"01256","miles_from_dt":11.74},{"city":"North Hatfield","state_name":"Massachusetts","lat":42.40742,"lng":-72.64032,"zip":"01066","miles_from_dt":11.75},{"city":"Windsor","state_name":"Massachusetts","lat":42.51297,"lng":-73.04859,"zip":"01270","miles_from_dt":11.9},{"city":"West Hatfield","state_name":"Massachusetts","lat":42.38981,"lng":-72.6465,"zip":"01088","miles_from_dt":12.35},{"city":"Colrain","state_name":"Massachusetts","lat":42.68805,"lng":-72.73205,"zip":"01340","miles_from_dt":12.5},{"city":"Leeds","state_name":"Massachusetts","lat":42.35205,"lng":-72.71032,"zip":"01053","miles_from_dt":12.64},{"city":"Greenfield","state_name":"Massachusetts","lat":42.62375,"lng":-72.60379,"zip":"01301","miles_from_dt":13.05},{"city":"Rowe","state_name":"Massachusetts","lat":42.69674,"lng":-72.91387,"zip":"01367","miles_from_dt":13.33},{"city":"Drury","state_name":"Massachusetts","lat":42.66766,"lng":-72.98822,"zip":"01343","miles_from_dt":13.59},{"city":"Sunderland","state_name":"Massachusetts","lat":42.46475,"lng":-72.55489,"zip":"01375","miles_from_dt":13.81},{"city":"Greenfield","state_name":"Massachusetts","lat":42.65202,"lng":-72.60965,"zip":"01302","miles_from_dt":14.01},{"city":"Hatfield","state_name":"Massachusetts","lat":42.38466,"lng":-72.60559,"zip":"01038","miles_from_dt":14.13},{"city":"Hinsdale","state_name":"Massachusetts","lat":42.43181,"lng":-73.07336,"zip":"01235","miles_from_dt":14.45},{"city":"Turners Falls","state_name":"Massachusetts","lat":42.59273,"lng":-72.54591,"zip":"01376","miles_from_dt":14.7},{"city":"Northampton","state_name":"Massachusetts","lat":42.32334,"lng":-72.69035,"zip":"01061","miles_from_dt":14.87},{"city":"Florence","state_name":"Massachusetts","lat":42.32146,"lng":-72.69244,"zip":"01062","miles_from_dt":14.94},{"city":"Montague","state_name":"Massachusetts","lat":42.54162,"lng":-72.52069,"zip":"01351","miles_from_dt":15.14},{"city":"Lake Pleasant","state_name":"Massachusetts","lat":42.56027,"lng":-72.51321,"zip":"01347","miles_from_dt":15.71},{"city":"Easthampton","state_name":"Massachusetts","lat":42.29506,"lng":-72.74303,"zip":"01027","miles_from_dt":15.81},{"city":"Huntington","state_name":"Massachusetts","lat":42.29092,"lng":-72.87526,"zip":"01050","miles_from_dt":15.95},{"city":"Middlefield","state_name":"Massachusetts","lat":42.34752,"lng":-73.03467,"zip":"01243","miles_from_dt":16.23},{"city":"North Amherst","state_name":"Massachusetts","lat":42.41329,"lng":-72.53051,"zip":"01059","miles_from_dt":16.25},{"city":"Northampton","state_name":"Massachusetts","lat":42.31962,"lng":-72.63951,"zip":"01063","miles_from_dt":16.37},{"city":"Northampton","state_name":"Massachusetts","lat":42.32218,"lng":-72.63126,"zip":"01060","miles_from_dt":16.46},{"city":"Monroe Bridge","state_name":"Massachusetts","lat":42.72259,"lng":-72.98291,"zip":"01350","miles_from_dt":16.52},{"city":"Chester","state_name":"Massachusetts","lat":42.30233,"lng":-72.96448,"zip":"01011","miles_from_dt":16.7},{"city":"Hadley","state_name":"Massachusetts","lat":42.35563,"lng":-72.5692,"zip":"01035","miles_from_dt":16.85},{"city":"Leverett","state_name":"Massachusetts","lat":42.47381,"lng":-72.48768,"zip":"01054","miles_from_dt":17.02},{"city":"Adams","state_name":"Massachusetts","lat":42.62686,"lng":-73.11873,"zip":"01220","miles_from_dt":17.2},{"city":"Bernardston","state_name":"Massachusetts","lat":42.69512,"lng":-72.57731,"zip":"01337","miles_from_dt":17.25},{"city":"Cheshire","state_name":"Massachusetts","lat":42.56385,"lng":-73.1512,"zip":"01225","miles_from_dt":17.43},{"city":"Gill","state_name":"Massachusetts","lat":42.63282,"lng":-72.51136,"zip":"01354","miles_from_dt":17.43},{"city":"Dalton","state_name":"Massachusetts","lat":42.47954,"lng":-73.15329,"zip":"01226","miles_from_dt":17.45},{"city":"Jacksonville","state_name":"Vermont","lat":42.77468,"lng":-72.80015,"zip":"05342","miles_from_dt":17.75},{"city":"Amherst","state_name":"Massachusetts","lat":42.37633,"lng":-72.52327,"zip":"01003","miles_from_dt":17.85},{"city":"Millers Falls","state_name":"Massachusetts","lat":42.56656,"lng":-72.47045,"zip":"01349","miles_from_dt":17.93},{"city":"Dalton","state_name":"Massachusetts","lat":42.4724,"lng":-73.16202,"zip":"01227","miles_from_dt":17.97},{"city":"Amherst","state_name":"Massachusetts","lat":42.38394,"lng":-72.51183,"zip":"01004","miles_from_dt":18.06},{"city":"West Halifax","state_name":"Vermont","lat":42.77396,"lng":-72.73164,"zip":"05358","miles_from_dt":18.2},{"city":"Whitingham","state_name":"Vermont","lat":42.78021,"lng":-72.87935,"zip":"05361","miles_from_dt":18.41},{"city":"North Adams","state_name":"Massachusetts","lat":42.69813,"lng":-73.09264,"zip":"01247","miles_from_dt":18.83},{"city":"Berkshire","state_name":"Massachusetts","lat":42.50622,"lng":-73.19841,"zip":"01224","miles_from_dt":19.57},{"city":"Southampton","state_name":"Massachusetts","lat":42.23084,"lng":-72.73856,"zip":"01073","miles_from_dt":20.19},{"city":"Becket","state_name":"Massachusetts","lat":42.31118,"lng":-73.09835,"zip":"01223","miles_from_dt":20.31},{"city":"Amherst","state_name":"Massachusetts","lat":42.37633,"lng":-72.46462,"zip":"01002","miles_from_dt":20.42},{"city":"Shutesbury","state_name":"Massachusetts","lat":42.46327,"lng":-72.41893,"zip":"01072","miles_from_dt":20.61},{"city":"Erving","state_name":"Massachusetts","lat":42.60756,"lng":-72.42916,"zip":"01344","miles_from_dt":20.67},{"city":"Readsboro","state_name":"Vermont","lat":42.79879,"lng":-72.97187,"zip":"05350","miles_from_dt":20.97},{"city":"Wendell","state_name":"Massachusetts","lat":42.54149,"lng":-72.3989,"zip":"01379","miles_from_dt":21.33},{"city":"Wendell Depot","state_name":"Massachusetts","lat":42.58675,"lng":-72.40264,"zip":"01380","miles_from_dt":21.6},{"city":"South Hadley","state_name":"Massachusetts","lat":42.25672,"lng":-72.57928,"zip":"01075","miles_from_dt":21.7},{"city":"Northfield","state_name":"Massachusetts","lat":42.67575,"lng":-72.446,"zip":"01360","miles_from_dt":21.78},{"city":"Vernon","state_name":"Vermont","lat":42.76211,"lng":-72.52553,"zip":"05354","miles_from_dt":22.43},{"city":"Lanesborough","state_name":"Massachusetts","lat":42.5529,"lng":-73.25373,"zip":"01237","miles_from_dt":22.5},{"city":"Marlboro","state_name":"Vermont","lat":42.83896,"lng":-72.73257,"zip":"05344","miles_from_dt":22.57},{"city":"Holyoke","state_name":"Massachusetts","lat":42.21251,"lng":-72.64109,"zip":"01040","miles_from_dt":22.88},{"city":"Stamford","state_name":"Vermont","lat":42.78796,"lng":-73.07862,"zip":"05352","miles_from_dt":22.97},{"city":"Pittsfield","state_name":"Massachusetts","lat":42.45319,"lng":-73.26278,"zip":"01203","miles_from_dt":23.28},{"city":"Woronoco","state_name":"Massachusetts","lat":42.17722,"lng":-72.83175,"zip":"01097","miles_from_dt":23.52},{"city":"Holyoke","state_name":"Massachusetts","lat":42.20746,"lng":-72.61142,"zip":"01041","miles_from_dt":23.83},{"city":"Granby","state_name":"Massachusetts","lat":42.26082,"lng":-72.50361,"zip":"01033","miles_from_dt":23.86},{"city":"Brattleboro","state_name":"Vermont","lat":42.84346,"lng":-72.65901,"zip":"05301","miles_from_dt":23.86},{"city":"Williamstown","state_name":"Massachusetts","lat":42.66593,"lng":-73.24209,"zip":"01267","miles_from_dt":24.04},{"city":"Pittsfield","state_name":"Massachusetts","lat":42.45614,"lng":-73.28114,"zip":"01201","miles_from_dt":24.16},{"city":"Blandford","state_name":"Massachusetts","lat":42.18234,"lng":-72.95819,"zip":"01008","miles_from_dt":24.27},{"city":"Brattleboro","state_name":"Vermont","lat":42.85531,"lng":-72.65619,"zip":"05302","miles_from_dt":24.68},{"city":"Russell","state_name":"Massachusetts","lat":42.16029,"lng":-72.8598,"zip":"01071","miles_from_dt":24.77},{"city":"Lenox","state_name":"Massachusetts","lat":42.37567,"lng":-73.26466,"zip":"01240","miles_from_dt":24.96},{"city":"New Salem","state_name":"Massachusetts","lat":42.45101,"lng":-72.33141,"zip":"01355","miles_from_dt":25.16},{"city":"Westfield","state_name":"Massachusetts","lat":42.15375,"lng":-72.76961,"zip":"01085","miles_from_dt":25.23},{"city":"East Otis","state_name":"Massachusetts","lat":42.19402,"lng":-73.05067,"zip":"01029","miles_from_dt":25.38},{"city":"Wilmington","state_name":"Vermont","lat":42.88301,"lng":-72.89554,"zip":"05363","miles_from_dt":25.54},{"city":"Lenox Dale","state_name":"Massachusetts","lat":42.3334,"lng":-73.24967,"zip":"01242","miles_from_dt":25.59},{"city":"Hinsdale","state_name":"New Hampshire","lat":42.80907,"lng":-72.50029,"zip":"03451","miles_from_dt":25.74},{"city":"Lee","state_name":"Massachusetts","lat":42.30072,"lng":-73.22553,"zip":"01238","miles_from_dt":25.77},{"city":"Ashuelot","state_name":"New Hampshire","lat":42.77737,"lng":-72.44263,"zip":"03441","miles_from_dt":26.12},{"city":"Chicopee","state_name":"Massachusetts","lat":42.19721,"lng":-72.54249,"zip":"01022","miles_from_dt":26.17},{"city":"Pittsfield","state_name":"Massachusetts","lat":42.45789,"lng":-73.32205,"zip":"01202","miles_from_dt":26.2},{"city":"Otis","state_name":"Massachusetts","lat":42.20751,"lng":-73.1118,"zip":"01253","miles_from_dt":26.24},{"city":"Westfield","state_name":"Massachusetts","lat":42.14018,"lng":-72.75607,"zip":"01086","miles_from_dt":26.24},{"city":"Chicopee","state_name":"Massachusetts","lat":42.17796,"lng":-72.57284,"zip":"01021","miles_from_dt":26.54},{"city":"Warwick","state_name":"Massachusetts","lat":42.67711,"lng":-72.34057,"zip":"01378","miles_from_dt":26.6},{"city":"Brattleboro","state_name":"Vermont","lat":42.85464,"lng":-72.55862,"zip":"05303","miles_from_dt":26.68},{"city":"Chicopee","state_name":"Massachusetts","lat":42.17481,"lng":-72.57229,"zip":"01014","miles_from_dt":26.75},{"city":"Belchertown","state_name":"Massachusetts","lat":42.28163,"lng":-72.40009,"zip":"01007","miles_from_dt":26.78},{"city":"Chicopee","state_name":"Massachusetts","lat":42.17618,"lng":-72.56538,"zip":"01020","miles_from_dt":26.83},{"city":"Chicopee","state_name":"Massachusetts","lat":42.16059,"lng":-72.60788,"zip":"01012","miles_from_dt":26.85},{"city":"Pownal","state_name":"Vermont","lat":42.77516,"lng":-73.21273,"zip":"05261","miles_from_dt":26.93},{"city":"Tyringham","state_name":"Massachusetts","lat":42.23997,"lng":-73.19686,"zip":"01264","miles_from_dt":27.35},{"city":"Orange","state_name":"Massachusetts","lat":42.60449,"lng":-72.29263,"zip":"01364","miles_from_dt":27.35},{"city":"Berlin","state_name":"New York","lat":42.66653,"lng":-73.33401,"zip":"12022","miles_from_dt":28.37},{"city":"West Springfield","state_name":"Massachusetts","lat":42.12532,"lng":-72.65025,"zip":"01089","miles_from_dt":28.38},{"city":"Brattleboro","state_name":"Vermont","lat":42.88523,"lng":-72.55873,"zip":"05304","miles_from_dt":28.54},{"city":"West Springfield","state_name":"Massachusetts","lat":42.12128,"lng":-72.65486,"zip":"01090","miles_from_dt":28.57},{"city":"South Newfane","state_name":"Vermont","lat":42.92867,"lng":-72.73728,"zip":"05351","miles_from_dt":28.64},{"city":"Stephentown","state_name":"New York","lat":42.5614,"lng":-73.3751,"zip":"12168","miles_from_dt":28.72},{"city":"Cherry Plain","state_name":"New York","lat":42.63047,"lng":-73.35916,"zip":"12040","miles_from_dt":28.8},{"city":"Ludlow","state_name":"Massachusetts","lat":42.19211,"lng":-72.45805,"zip":"01056","miles_from_dt":28.98},{"city":"South Lee","state_name":"Massachusetts","lat":42.26663,"lng":-73.2712,"zip":"01260","miles_from_dt":29.05},{"city":"Springfield","state_name":"Massachusetts","lat":42.12116,"lng":-72.60642,"zip":"01107","miles_from_dt":29.39},{"city":"Springfield","state_name":"Massachusetts","lat":42.13326,"lng":-72.56733,"zip":"01104","miles_from_dt":29.42},{"city":"Springfield","state_name":"Massachusetts","lat":42.11915,"lng":-72.60341,"zip":"01199","miles_from_dt":29.58},{"city":"Springfield","state_name":"Massachusetts","lat":42.15279,"lng":-72.51126,"zip":"01152","miles_from_dt":29.62},{"city":"Indian Orchard","state_name":"Massachusetts","lat":42.15294,"lng":-72.50883,"zip":"01151","miles_from_dt":29.68},{"city":"Richmond","state_name":"Massachusetts","lat":42.37972,"lng":-73.36608,"zip":"01254","miles_from_dt":29.71},{"city":"Stockbridge","state_name":"Massachusetts","lat":42.30433,"lng":-73.32013,"zip":"01262","miles_from_dt":29.72},{"city":"Bennington","state_name":"Vermont","lat":42.87652,"lng":-73.1426,"zip":"05201","miles_from_dt":29.84}],"targetCityZipCode":"01330","targetCityState":"Massachusetts"},"__N_SSG":true}