{"pageProps":{"stateName":"New-york","cityName":"batavia","nearbyCities":[{"city":"Batavia","state_name":"New York","lat":43.01892,"lng":-78.16389,"zip":"14021","miles_from_dt":3.07},{"city":"East Pembroke","state_name":"New York","lat":42.99183,"lng":-78.30663,"zip":"14056","miles_from_dt":4.64},{"city":"Alexander","state_name":"New York","lat":42.91788,"lng":-78.24703,"zip":"14005","miles_from_dt":5.57},{"city":"Stafford","state_name":"New York","lat":42.97547,"lng":-78.0759,"zip":"14143","miles_from_dt":7.18},{"city":"Oakfield","state_name":"New York","lat":43.08773,"lng":-78.28207,"zip":"14125","miles_from_dt":7.24},{"city":"East Bethany","state_name":"New York","lat":42.90606,"lng":-78.1312,"zip":"14054","miles_from_dt":7.48},{"city":"Elba","state_name":"New York","lat":43.10167,"lng":-78.16211,"zip":"14058","miles_from_dt":7.83},{"city":"South Byron","state_name":"New York","lat":43.04807,"lng":-78.06126,"zip":"14557","miles_from_dt":8.61},{"city":"Corfu","state_name":"New York","lat":42.97447,"lng":-78.38712,"zip":"14036","miles_from_dt":8.83},{"city":"Byron","state_name":"New York","lat":43.08357,"lng":-78.06704,"zip":"14422","miles_from_dt":9.67},{"city":"Basom","state_name":"New York","lat":43.07639,"lng":-78.39704,"zip":"14013","miles_from_dt":10.79},{"city":"Darien Center","state_name":"New York","lat":42.88809,"lng":-78.37847,"zip":"14040","miles_from_dt":11.1},{"city":"Dale","state_name":"New York","lat":42.83593,"lng":-78.17101,"zip":"14039","miles_from_dt":11.21},{"city":"Attica","state_name":"New York","lat":42.83158,"lng":-78.29784,"zip":"14011","miles_from_dt":12.05},{"city":"Le Roy","state_name":"New York","lat":42.97457,"lng":-77.97014,"zip":"14482","miles_from_dt":12.49},{"city":"Wyoming","state_name":"New York","lat":42.82865,"lng":-78.09364,"zip":"14591","miles_from_dt":13.04},{"city":"Pavilion","state_name":"New York","lat":42.87242,"lng":-78.01471,"zip":"14525","miles_from_dt":13.23},{"city":"Bergen","state_name":"New York","lat":43.08003,"lng":-77.97849,"zip":"14416","miles_from_dt":13.34},{"city":"Crittenden","state_name":"New York","lat":42.94867,"lng":-78.47606,"zip":"14038","miles_from_dt":13.61},{"city":"Akron","state_name":"New York","lat":43.03149,"lng":-78.51154,"zip":"14001","miles_from_dt":15.23},{"city":"Clarendon","state_name":"New York","lat":43.19248,"lng":-78.06363,"zip":"14429","miles_from_dt":15.63},{"city":"Linwood","state_name":"New York","lat":42.89293,"lng":-77.92295,"zip":"14486","miles_from_dt":16.41},{"city":"Alden","state_name":"New York","lat":42.89487,"lng":-78.51008,"zip":"14004","miles_from_dt":16.48},{"city":"Albion","state_name":"New York","lat":43.23456,"lng":-78.21349,"zip":"14411","miles_from_dt":16.53},{"city":"Holley","state_name":"New York","lat":43.21099,"lng":-78.05456,"zip":"14470","miles_from_dt":16.97},{"city":"Medina","state_name":"New York","lat":43.2125,"lng":-78.37696,"zip":"14103","miles_from_dt":17.09},{"city":"Mumford","state_name":"New York","lat":42.99603,"lng":-77.87762,"zip":"14511","miles_from_dt":17.1},{"city":"Knowlesville","state_name":"New York","lat":43.23768,"lng":-78.31008,"zip":"14479","miles_from_dt":17.42},{"city":"Warsaw","state_name":"New York","lat":42.74012,"lng":-78.17269,"zip":"14569","miles_from_dt":17.73},{"city":"Cowlesville","state_name":"New York","lat":42.80637,"lng":-78.45448,"zip":"14037","miles_from_dt":17.82},{"city":"Varysburg","state_name":"New York","lat":42.74327,"lng":-78.32629,"zip":"14167","miles_from_dt":18.28},{"city":"Fancher","state_name":"New York","lat":43.2432,"lng":-78.08786,"zip":"14452","miles_from_dt":18.29},{"city":"York","state_name":"New York","lat":42.86875,"lng":-77.89066,"zip":"14592","miles_from_dt":18.63},{"city":"Churchville","state_name":"New York","lat":43.08029,"lng":-77.85963,"zip":"14428","miles_from_dt":18.93},{"city":"Middleport","state_name":"New York","lat":43.19043,"lng":-78.4813,"zip":"14105","miles_from_dt":19.06},{"city":"Piffard","state_name":"New York","lat":42.84632,"lng":-77.88468,"zip":"14533","miles_from_dt":19.66},{"city":"Caledonia","state_name":"New York","lat":42.94382,"lng":-77.82788,"zip":"14423","miles_from_dt":19.95},{"city":"Clarence","state_name":"New York","lat":42.98661,"lng":-78.60908,"zip":"14031","miles_from_dt":19.97},{"city":"Marilla","state_name":"New York","lat":42.84272,"lng":-78.55481,"zip":"14102","miles_from_dt":20.19},{"city":"Retsof","state_name":"New York","lat":42.83418,"lng":-77.87521,"zip":"14539","miles_from_dt":20.51},{"city":"Brockport","state_name":"New York","lat":43.21385,"lng":-77.93305,"zip":"14420","miles_from_dt":20.77},{"city":"Perry","state_name":"New York","lat":42.73446,"lng":-78.00276,"zip":"14530","miles_from_dt":20.98},{"city":"Strykersville","state_name":"New York","lat":42.73154,"lng":-78.43205,"zip":"14145","miles_from_dt":21.27},{"city":"Clarence Center","state_name":"New York","lat":43.04587,"lng":-78.63189,"zip":"14032","miles_from_dt":21.4},{"city":"Leicester","state_name":"New York","lat":42.77173,"lng":-77.91643,"zip":"14481","miles_from_dt":21.62},{"city":"North Chili","state_name":"New York","lat":43.08597,"lng":-77.80303,"zip":"14514","miles_from_dt":21.79},{"city":"Lancaster","state_name":"New York","lat":42.90661,"lng":-78.6291,"zip":"14086","miles_from_dt":21.87},{"city":"Clarkson","state_name":"New York","lat":43.23545,"lng":-77.92524,"zip":"14430","miles_from_dt":22.14},{"city":"Scottsville","state_name":"New York","lat":43.0296,"lng":-77.77372,"zip":"14546","miles_from_dt":22.48},{"city":"Wales Center","state_name":"New York","lat":42.76446,"lng":-78.52938,"zip":"14169","miles_from_dt":22.54},{"city":"Adams Basin","state_name":"New York","lat":43.19221,"lng":-77.85555,"zip":"14410","miles_from_dt":22.71},{"city":"Silver Springs","state_name":"New York","lat":42.67757,"lng":-78.09166,"zip":"14550","miles_from_dt":22.8},{"city":"Silver Lake","state_name":"New York","lat":42.69667,"lng":-78.02212,"zip":"14549","miles_from_dt":22.81},{"city":"North Java","state_name":"New York","lat":42.66813,"lng":-78.33624,"zip":"14113","miles_from_dt":23.4},{"city":"Gasport","state_name":"New York","lat":43.21565,"lng":-78.56644,"zip":"14067","miles_from_dt":23.4},{"city":"Kent","state_name":"New York","lat":43.33353,"lng":-78.13415,"zip":"14477","miles_from_dt":23.72},{"city":"Spencerport","state_name":"New York","lat":43.18823,"lng":-77.81778,"zip":"14559","miles_from_dt":24.12},{"city":"Waterport","state_name":"New York","lat":43.34397,"lng":-78.24894,"zip":"14571","miles_from_dt":24.14},{"city":"Elma","state_name":"New York","lat":42.83241,"lng":-78.63678,"zip":"14059","miles_from_dt":24.17},{"city":"East Aurora","state_name":"New York","lat":42.77054,"lng":-78.58084,"zip":"14052","miles_from_dt":24.19},{"city":"Bowmansville","state_name":"New York","lat":42.94212,"lng":-78.68794,"zip":"14026","miles_from_dt":24.25},{"city":"Java Village","state_name":"New York","lat":42.67921,"lng":-78.43446,"zip":"14083","miles_from_dt":24.49},{"city":"Kendall","state_name":"New York","lat":43.32946,"lng":-78.04226,"zip":"14476","miles_from_dt":24.68},{"city":"East Amherst","state_name":"New York","lat":43.04168,"lng":-78.69927,"zip":"14051","miles_from_dt":24.73},{"city":"Lyndonville","state_name":"New York","lat":43.33464,"lng":-78.37827,"zip":"14098","miles_from_dt":24.85},{"city":"Java Center","state_name":"New York","lat":42.65689,"lng":-78.38435,"zip":"14082","miles_from_dt":24.88},{"city":"South Wales","state_name":"New York","lat":42.71723,"lng":-78.53606,"zip":"14139","miles_from_dt":25.17},{"city":"Avon","state_name":"New York","lat":42.89358,"lng":-77.73501,"zip":"14414","miles_from_dt":25.33},{"city":"Morton","state_name":"New York","lat":43.32704,"lng":-77.99919,"zip":"14508","miles_from_dt":25.38},{"city":"Depew","state_name":"New York","lat":42.90142,"lng":-78.70431,"zip":"14043","miles_from_dt":25.64},{"city":"Buffalo","state_name":"New York","lat":42.97918,"lng":-78.72158,"zip":"14221","miles_from_dt":25.69},{"city":"Gainesville","state_name":"New York","lat":42.62381,"lng":-78.18051,"zip":"14066","miles_from_dt":25.69},{"city":"Rochester","state_name":"New York","lat":43.12765,"lng":-77.7317,"zip":"14624","miles_from_dt":26.12},{"city":"Geneseo","state_name":"New York","lat":42.79731,"lng":-77.76879,"zip":"14454","miles_from_dt":26.45},{"city":"Spring Brook","state_name":"New York","lat":42.80125,"lng":-78.66507,"zip":"14140","miles_from_dt":26.47},{"city":"Buffalo","state_name":"New York","lat":42.98039,"lng":-78.73785,"zip":"14231","miles_from_dt":26.51},{"city":"Hamlin","state_name":"New York","lat":43.32659,"lng":-77.9374,"zip":"14464","miles_from_dt":26.84},{"city":"Rochester","state_name":"New York","lat":43.15062,"lng":-77.7283,"zip":"14652","miles_from_dt":26.87},{"city":"Lockport","state_name":"New York","lat":43.17105,"lng":-78.68883,"zip":"14095","miles_from_dt":26.87},{"city":"West Henrietta","state_name":"New York","lat":43.04151,"lng":-77.68693,"zip":"14586","miles_from_dt":26.94},{"city":"Lockport","state_name":"New York","lat":43.15989,"lng":-78.70032,"zip":"14094","miles_from_dt":27.06},{"city":"Mount Morris","state_name":"New York","lat":42.69485,"lng":-77.87167,"zip":"14510","miles_from_dt":27.09},{"city":"Buffalo","state_name":"New York","lat":42.97856,"lng":-78.75003,"zip":"14265","miles_from_dt":27.13},{"city":"Rush","state_name":"New York","lat":42.98777,"lng":-77.67747,"zip":"14543","miles_from_dt":27.25},{"city":"Castile","state_name":"New York","lat":42.61828,"lng":-78.05442,"zip":"14427","miles_from_dt":27.26},{"city":"Buffalo","state_name":"New York","lat":42.92792,"lng":-78.74765,"zip":"14241","miles_from_dt":27.4},{"city":"Getzville","state_name":"New York","lat":43.02696,"lng":-78.75808,"zip":"14068","miles_from_dt":27.59},{"city":"Buffalo","state_name":"New York","lat":42.92879,"lng":-78.752,"zip":"14225","miles_from_dt":27.6},{"city":"Lakeville","state_name":"New York","lat":42.83809,"lng":-77.70736,"zip":"14480","miles_from_dt":27.95},{"city":"Buffalo","state_name":"New York","lat":42.88402,"lng":-78.74665,"zip":"14227","miles_from_dt":28.03},{"city":"Barker","state_name":"New York","lat":43.33431,"lng":-78.52572,"zip":"14012","miles_from_dt":28.19},{"city":"Bliss","state_name":"New York","lat":42.58111,"lng":-78.24431,"zip":"14024","miles_from_dt":28.62},{"city":"Rochester","state_name":"New York","lat":43.17069,"lng":-77.69933,"zip":"14606","miles_from_dt":28.77},{"city":"Buffalo","state_name":"New York","lat":43.04214,"lng":-78.7798,"zip":"14228","miles_from_dt":28.79},{"city":"Buffalo","state_name":"New York","lat":43.00188,"lng":-78.7848,"zip":"14261","miles_from_dt":28.87},{"city":"South Lima","state_name":"New York","lat":42.85382,"lng":-77.67765,"zip":"14558","miles_from_dt":28.96},{"city":"Buffalo","state_name":"New York","lat":42.83767,"lng":-78.74771,"zip":"14224","miles_from_dt":29.13},{"city":"Hilton","state_name":"New York","lat":43.29242,"lng":-77.80542,"zip":"14468","miles_from_dt":29.15},{"city":"Buffalo","state_name":"New York","lat":43.00165,"lng":-78.79066,"zip":"14260","miles_from_dt":29.17},{"city":"Sonyea","state_name":"New York","lat":42.67906,"lng":-77.83222,"zip":"14556","miles_from_dt":29.23},{"city":"Rochester","state_name":"New York","lat":43.21348,"lng":-77.71272,"zip":"14626","miles_from_dt":29.54},{"city":"Buffalo","state_name":"New York","lat":42.97078,"lng":-78.79844,"zip":"14226","miles_from_dt":29.61},{"city":"Holland","state_name":"New York","lat":42.64289,"lng":-78.54886,"zip":"14080","miles_from_dt":29.65},{"city":"Rochester","state_name":"New York","lat":43.08798,"lng":-77.64314,"zip":"14623","miles_from_dt":29.66}],"targetCityZipCode":"14020","targetCityState":"New York"},"__N_SSG":true}