{"pageProps":{"stateName":"New-york","cityName":"portland","nearbyCities":[{"city":"Brocton","state_name":"New York","lat":42.38056,"lng":-79.43406,"zip":"14716","miles_from_dt":2.2},{"city":"Stockton","state_name":"New York","lat":42.31445,"lng":-79.38028,"zip":"14784","miles_from_dt":6.1},{"city":"Westfield","state_name":"New York","lat":42.31342,"lng":-79.5675,"zip":"14787","miles_from_dt":6.12},{"city":"Van Buren Point","state_name":"New York","lat":42.45088,"lng":-79.41592,"zip":"14166","miles_from_dt":6.4},{"city":"Dewittville","state_name":"New York","lat":42.2648,"lng":-79.41689,"zip":"14728","miles_from_dt":7.76},{"city":"Lily Dale","state_name":"New York","lat":42.3517,"lng":-79.31965,"zip":"14752","miles_from_dt":8},{"city":"Fredonia","state_name":"New York","lat":42.41451,"lng":-79.32518,"zip":"14063","miles_from_dt":8.25},{"city":"Mayville","state_name":"New York","lat":42.23944,"lng":-79.50457,"zip":"14757","miles_from_dt":9.07},{"city":"Cassadaga","state_name":"New York","lat":42.34417,"lng":-79.28813,"zip":"14718","miles_from_dt":9.67},{"city":"Chautauqua","state_name":"New York","lat":42.20961,"lng":-79.46882,"zip":"14722","miles_from_dt":10.99},{"city":"Dunkirk","state_name":"New York","lat":42.48087,"lng":-79.31128,"zip":"14048","miles_from_dt":11.36},{"city":"Maple Springs","state_name":"New York","lat":42.19708,"lng":-79.42373,"zip":"14756","miles_from_dt":12.13},{"city":"Sinclairville","state_name":"New York","lat":42.2665,"lng":-79.2559,"zip":"14782","miles_from_dt":13.22},{"city":"Bemus Point","state_name":"New York","lat":42.18163,"lng":-79.36812,"zip":"14712","miles_from_dt":14.02},{"city":"Sheridan","state_name":"New York","lat":42.48489,"lng":-79.2437,"zip":"14135","miles_from_dt":14.25},{"city":"Ripley","state_name":"New York","lat":42.23198,"lng":-79.69532,"zip":"14775","miles_from_dt":14.75},{"city":"Stow","state_name":"New York","lat":42.15572,"lng":-79.40337,"zip":"14785","miles_from_dt":15.15},{"city":"Sherman","state_name":"New York","lat":42.16402,"lng":-79.604,"zip":"14781","miles_from_dt":15.63},{"city":"Forestville","state_name":"New York","lat":42.44364,"lng":-79.14897,"zip":"14062","miles_from_dt":17.42},{"city":"Cherry Creek","state_name":"New York","lat":42.3101,"lng":-79.13489,"zip":"14723","miles_from_dt":17.84},{"city":"Gerry","state_name":"New York","lat":42.21962,"lng":-79.18053,"zip":"14740","miles_from_dt":18.23},{"city":"Silver Creek","state_name":"New York","lat":42.52387,"lng":-79.16935,"zip":"14136","miles_from_dt":18.9},{"city":"Greenhurst","state_name":"New York","lat":42.11934,"lng":-79.30878,"zip":"14742","miles_from_dt":19.2},{"city":"Ashville","state_name":"New York","lat":42.08957,"lng":-79.42306,"zip":"14710","miles_from_dt":19.45},{"city":"Celoron","state_name":"New York","lat":42.10857,"lng":-79.27997,"zip":"14720","miles_from_dt":20.54},{"city":"Findley Lake","state_name":"New York","lat":42.13715,"lng":-79.74644,"zip":"14736","miles_from_dt":21.23},{"city":"Lakewood","state_name":"New York","lat":42.07939,"lng":-79.32752,"zip":"14750","miles_from_dt":21.35},{"city":"Ellington","state_name":"New York","lat":42.2188,"lng":-79.10696,"zip":"14732","miles_from_dt":21.48},{"city":"South Dayton","state_name":"New York","lat":42.37497,"lng":-79.05376,"zip":"14138","miles_from_dt":21.52},{"city":"Falconer","state_name":"New York","lat":42.14996,"lng":-79.17499,"zip":"14733","miles_from_dt":21.53},{"city":"Panama","state_name":"New York","lat":42.05344,"lng":-79.51583,"zip":"14767","miles_from_dt":21.87},{"city":"Jamestown","state_name":"New York","lat":42.0966,"lng":-79.23498,"zip":"14702","miles_from_dt":22.44},{"city":"North East","state_name":"Pennsylvania","lat":42.17109,"lng":-79.82907,"zip":"16428","miles_from_dt":22.75},{"city":"Jamestown","state_name":"New York","lat":42.08091,"lng":-79.25502,"zip":"14701","miles_from_dt":22.83},{"city":"Leon","state_name":"New York","lat":42.29368,"lng":-79.01798,"zip":"14751","miles_from_dt":23.93},{"city":"Clymer","state_name":"New York","lat":42.05272,"lng":-79.67031,"zip":"14724","miles_from_dt":24.03},{"city":"Conewango Valley","state_name":"New York","lat":42.25255,"lng":-79.02221,"zip":"14726","miles_from_dt":24.5},{"city":"Kennedy","state_name":"New York","lat":42.15346,"lng":-79.09061,"zip":"14747","miles_from_dt":24.65},{"city":"Niobe","state_name":"New York","lat":42.01142,"lng":-79.45041,"zip":"14758","miles_from_dt":24.7},{"city":"Irving","state_name":"New York","lat":42.56332,"lng":-79.06528,"zip":"14081","miles_from_dt":24.83},{"city":"Farnham","state_name":"New York","lat":42.59111,"lng":-79.08949,"zip":"14061","miles_from_dt":24.93},{"city":"Perrysburg","state_name":"New York","lat":42.4805,"lng":-79.0092,"zip":"14129","miles_from_dt":24.99},{"city":"Dayton","state_name":"New York","lat":42.4059,"lng":-78.97699,"zip":"14041","miles_from_dt":25.57},{"city":"Versailles","state_name":"New York","lat":42.51187,"lng":-78.98745,"zip":"14168","miles_from_dt":26.77},{"city":"Harborcreek","state_name":"Pennsylvania","lat":42.17036,"lng":-79.9351,"zip":"16421","miles_from_dt":27.31},{"city":"Bear Lake","state_name":"Pennsylvania","lat":41.96459,"lng":-79.48076,"zip":"16402","miles_from_dt":27.9},{"city":"Brant","state_name":"New York","lat":42.59408,"lng":-79.02067,"zip":"14027","miles_from_dt":27.9},{"city":"Gowanda","state_name":"New York","lat":42.43673,"lng":-78.92798,"zip":"14070","miles_from_dt":28.33},{"city":"Sugar Grove","state_name":"Pennsylvania","lat":41.96323,"lng":-79.3322,"zip":"16350","miles_from_dt":28.93},{"city":"Wattsburg","state_name":"Pennsylvania","lat":42.04094,"lng":-79.82631,"zip":"16442","miles_from_dt":28.96},{"city":"Angola","state_name":"New York","lat":42.63366,"lng":-79.02056,"zip":"14006","miles_from_dt":29.51},{"city":"Columbus","state_name":"Pennsylvania","lat":41.938,"lng":-79.5335,"zip":"16405","miles_from_dt":29.89}],"targetCityZipCode":"14769","targetCityState":"New York"},"__N_SSG":true}