{"pageProps":{"stateName":"Missouri","cityName":"buffalo","nearbyCities":[{"city":"Half Way","state_name":"Missouri","lat":37.62732,"lng":-93.24486,"zip":"65663","miles_from_dt":7.53},{"city":"Long Lane","state_name":"Missouri","lat":37.61687,"lng":-92.95008,"zip":"65590","miles_from_dt":8.73},{"city":"Louisburg","state_name":"Missouri","lat":37.75642,"lng":-93.1511,"zip":"65685","miles_from_dt":8.79},{"city":"Elkland","state_name":"Missouri","lat":37.50999,"lng":-93.03625,"zip":"65644","miles_from_dt":9.39},{"city":"Windyville","state_name":"Missouri","lat":37.7153,"lng":-92.91623,"zip":"65783","miles_from_dt":11.91},{"city":"Polk","state_name":"Missouri","lat":37.76266,"lng":-93.28889,"zip":"65727","miles_from_dt":13.33},{"city":"Urbana","state_name":"Missouri","lat":37.84495,"lng":-93.1529,"zip":"65767","miles_from_dt":14.78},{"city":"Tunas","state_name":"Missouri","lat":37.82189,"lng":-92.95682,"zip":"65764","miles_from_dt":15.39},{"city":"Bolivar","state_name":"Missouri","lat":37.63557,"lng":-93.39205,"zip":"65613","miles_from_dt":15.59},{"city":"Fair Grove","state_name":"Missouri","lat":37.40297,"lng":-93.15402,"zip":"65648","miles_from_dt":16.11},{"city":"Pleasant Hope","state_name":"Missouri","lat":37.42986,"lng":-93.27424,"zip":"65725","miles_from_dt":16.77},{"city":"Phillipsburg","state_name":"Missouri","lat":37.58694,"lng":-92.79967,"zip":"65722","miles_from_dt":17.21},{"city":"Pittsburg","state_name":"Missouri","lat":37.83924,"lng":-93.31488,"zip":"65724","miles_from_dt":18.16},{"city":"Conway","state_name":"Missouri","lat":37.49961,"lng":-92.81612,"zip":"65632","miles_from_dt":18.49},{"city":"Brighton","state_name":"Missouri","lat":37.4376,"lng":-93.34063,"zip":"65617","miles_from_dt":18.61},{"city":"Morrisville","state_name":"Missouri","lat":37.48707,"lng":-93.42099,"zip":"65710","miles_from_dt":19.95},{"city":"Preston","state_name":"Missouri","lat":37.93938,"lng":-93.16763,"zip":"65732","miles_from_dt":21.34},{"city":"Flemington","state_name":"Missouri","lat":37.81388,"lng":-93.44749,"zip":"65650","miles_from_dt":22.38},{"city":"Eldridge","state_name":"Missouri","lat":37.84536,"lng":-92.7811,"zip":"65463","miles_from_dt":23.09},{"city":"Hermitage","state_name":"Missouri","lat":37.9364,"lng":-93.29177,"zip":"65668","miles_from_dt":23.18},{"city":"Strafford","state_name":"Missouri","lat":37.2838,"lng":-93.09861,"zip":"65757","miles_from_dt":24.14},{"city":"Macks Creek","state_name":"Missouri","lat":37.96715,"lng":-92.96516,"zip":"65786","miles_from_dt":24.29},{"city":"Marshfield","state_name":"Missouri","lat":37.3224,"lng":-92.89421,"zip":"65706","miles_from_dt":24.47},{"city":"Lebanon","state_name":"Missouri","lat":37.68942,"lng":-92.64974,"zip":"65536","miles_from_dt":25.4},{"city":"Niangua","state_name":"Missouri","lat":37.40403,"lng":-92.73971,"zip":"65713","miles_from_dt":25.68},{"city":"Morrisville","state_name":"Missouri","lat":37.48124,"lng":-93.53712,"zip":"65645","miles_from_dt":25.81},{"city":"Dunnegan","state_name":"Missouri","lat":37.69956,"lng":-93.57165,"zip":"65640","miles_from_dt":25.83},{"city":"Willard","state_name":"Missouri","lat":37.35035,"lng":-93.41778,"zip":"65781","miles_from_dt":25.92},{"city":"Springfield","state_name":"Missouri","lat":37.28464,"lng":-93.29036,"zip":"65803","miles_from_dt":26.08},{"city":"Aldrich","state_name":"Missouri","lat":37.53155,"lng":-93.5869,"zip":"65601","miles_from_dt":27.23},{"city":"Cross Timbers","state_name":"Missouri","lat":38.02355,"lng":-93.18827,"zip":"65634","miles_from_dt":27.25},{"city":"Fair Play","state_name":"Missouri","lat":37.621,"lng":-93.61839,"zip":"65649","miles_from_dt":28.02},{"city":"Walnut Grove","state_name":"Missouri","lat":37.42165,"lng":-93.5456,"zip":"65770","miles_from_dt":28.15},{"city":"Wheatland","state_name":"Missouri","lat":37.9789,"lng":-93.38561,"zip":"65779","miles_from_dt":28.25},{"city":"Springfield","state_name":"Missouri","lat":37.25481,"lng":-93.31533,"zip":"65805","miles_from_dt":28.51},{"city":"Weaubleau","state_name":"Missouri","lat":37.92806,"lng":-93.49529,"zip":"65774","miles_from_dt":29.36},{"city":"Humansville","state_name":"Missouri","lat":37.78872,"lng":-93.61018,"zip":"65674","miles_from_dt":29.53}],"targetCityZipCode":"65622","targetCityState":"Missouri"},"__N_SSG":true}