{"pageProps":{"stateName":"Missouri","cityName":"tallapoosa","nearbyCities":[{"city":"Risco","state_name":"Missouri","lat":36.55566,"lng":-89.81645,"zip":"63874","miles_from_dt":3.64},{"city":"Gideon","state_name":"Missouri","lat":36.44053,"lng":-89.88219,"zip":"63848","miles_from_dt":5.45},{"city":"Parma","state_name":"Missouri","lat":36.61942,"lng":-89.84471,"zip":"63870","miles_from_dt":8.12},{"city":"Malden","state_name":"Missouri","lat":36.56282,"lng":-89.97671,"zip":"63863","miles_from_dt":9.53},{"city":"Clarkton","state_name":"Missouri","lat":36.44907,"lng":-89.98023,"zip":"63837","miles_from_dt":9.55},{"city":"Wardell","state_name":"Missouri","lat":36.35752,"lng":-89.80945,"zip":"63879","miles_from_dt":10.06},{"city":"Lilbourn","state_name":"Missouri","lat":36.58974,"lng":-89.67345,"zip":"63862","miles_from_dt":10.22},{"city":"Portageville","state_name":"Missouri","lat":36.42791,"lng":-89.65965,"zip":"63873","miles_from_dt":10.44},{"city":"Catron","state_name":"Missouri","lat":36.64779,"lng":-89.73023,"zip":"63833","miles_from_dt":11.22},{"city":"Marston","state_name":"Missouri","lat":36.52606,"lng":-89.60654,"zip":"63866","miles_from_dt":12.12},{"city":"Gibson","state_name":"Missouri","lat":36.44271,"lng":-90.03474,"zip":"63847","miles_from_dt":12.54},{"city":"Holcomb","state_name":"Missouri","lat":36.36748,"lng":-90.01435,"zip":"63852","miles_from_dt":14.21},{"city":"Bernie","state_name":"Missouri","lat":36.65904,"lng":-90.00103,"zip":"63822","miles_from_dt":14.65},{"city":"Campbell","state_name":"Missouri","lat":36.52102,"lng":-90.10876,"zip":"63933","miles_from_dt":15.99},{"city":"Whiteoak","state_name":"Missouri","lat":36.32986,"lng":-90.02585,"zip":"63880","miles_from_dt":16.47},{"city":"Bragg City","state_name":"Missouri","lat":36.26133,"lng":-89.89226,"zip":"63827","miles_from_dt":17.11},{"city":"Kewanee","state_name":"Missouri","lat":36.67462,"lng":-89.59449,"zip":"63860","miles_from_dt":17.34},{"city":"Hayti","state_name":"Missouri","lat":36.25762,"lng":-89.72352,"zip":"63851","miles_from_dt":17.8},{"city":"Saint Francis","state_name":"Arkansas","lat":36.45405,"lng":-90.1434,"zip":"72464","miles_from_dt":18.19},{"city":"Canalou","state_name":"Missouri","lat":36.75038,"lng":-89.69182,"zip":"63828","miles_from_dt":18.53},{"city":"New Madrid","state_name":"Missouri","lat":36.60768,"lng":-89.48111,"zip":"63869","miles_from_dt":20.31},{"city":"Dexter","state_name":"Missouri","lat":36.77198,"lng":-89.98169,"zip":"63841","miles_from_dt":20.55},{"city":"Tiptonville","state_name":"Tennessee","lat":36.41378,"lng":-89.47032,"zip":"38079","miles_from_dt":20.55},{"city":"Deering","state_name":"Missouri","lat":36.19113,"lng":-89.88426,"zip":"63840","miles_from_dt":21.78},{"city":"Essex","state_name":"Missouri","lat":36.82229,"lng":-89.80199,"zip":"63846","miles_from_dt":22.04},{"city":"Braggadocio","state_name":"Missouri","lat":36.18361,"lng":-89.84486,"zip":"63826","miles_from_dt":22.06},{"city":"Grayridge","state_name":"Missouri","lat":36.82227,"lng":-89.78214,"zip":"63850","miles_from_dt":22.13},{"city":"Piggott","state_name":"Arkansas","lat":36.40083,"lng":-90.20623,"zip":"72454","miles_from_dt":22.52},{"city":"Matthews","state_name":"Missouri","lat":36.74475,"lng":-89.5465,"zip":"63867","miles_from_dt":22.65},{"city":"Greenway","state_name":"Arkansas","lat":36.336,"lng":-90.17366,"zip":"72430","miles_from_dt":22.71},{"city":"Wynnburg","state_name":"Tennessee","lat":36.32852,"lng":-89.4744,"zip":"38077","miles_from_dt":22.82},{"city":"Kennett","state_name":"Missouri","lat":36.22402,"lng":-90.04612,"zip":"63857","miles_from_dt":22.93},{"city":"Morehouse","state_name":"Missouri","lat":36.84579,"lng":-89.68971,"zip":"63868","miles_from_dt":24.76},{"city":"Qulin","state_name":"Missouri","lat":36.56848,"lng":-90.2749,"zip":"63961","miles_from_dt":25.58},{"city":"Caruthersville","state_name":"Missouri","lat":36.14065,"lng":-89.6871,"zip":"63830","miles_from_dt":26.1},{"city":"Ridgely","state_name":"Tennessee","lat":36.20295,"lng":-89.52142,"zip":"38080","miles_from_dt":26.64},{"city":"Broseley","state_name":"Missouri","lat":36.6879,"lng":-90.24533,"zip":"63932","miles_from_dt":26.75},{"city":"Dudley","state_name":"Missouri","lat":36.80731,"lng":-90.12979,"zip":"63936","miles_from_dt":27.06},{"city":"Gobler","state_name":"Missouri","lat":36.13287,"lng":-89.99109,"zip":"63849","miles_from_dt":27.2},{"city":"Samburg","state_name":"Tennessee","lat":36.37444,"lng":-89.34662,"zip":"38254","miles_from_dt":27.95},{"city":"Pollard","state_name":"Arkansas","lat":36.45362,"lng":-90.32217,"zip":"72456","miles_from_dt":28.04},{"city":"Fisk","state_name":"Missouri","lat":36.77218,"lng":-90.22892,"zip":"63940","miles_from_dt":29.24},{"city":"Steele","state_name":"Missouri","lat":36.07377,"lng":-89.85118,"zip":"63877","miles_from_dt":29.64},{"city":"Sikeston","state_name":"Missouri","lat":36.89698,"lng":-89.60672,"zip":"63801","miles_from_dt":29.69},{"city":"Hornbeak","state_name":"Tennessee","lat":36.34828,"lng":-89.32295,"zip":"38232","miles_from_dt":29.8}],"targetCityZipCode":"63878","targetCityState":"Missouri"},"__N_SSG":true}