{"pageProps":{"stateName":"New-mexico","cityName":"arroyo-hondo","nearbyCities":[{"city":"San Cristobal","state_name":"New Mexico","lat":36.61566,"lng":-105.61797,"zip":"87564","miles_from_dt":5.13},{"city":"Arroyo Seco","state_name":"New Mexico","lat":36.52957,"lng":-105.60055,"zip":"87514","miles_from_dt":6.73},{"city":"Valdez","state_name":"New Mexico","lat":36.55956,"lng":-105.57459,"zip":"87580","miles_from_dt":7.24},{"city":"El Prado","state_name":"New Mexico","lat":36.45001,"lng":-105.66147,"zip":"87529","miles_from_dt":9.48},{"city":"Taos Ski Valley","state_name":"New Mexico","lat":36.5985,"lng":-105.49812,"zip":"87525","miles_from_dt":11.34},{"city":"Cerro","state_name":"New Mexico","lat":36.76472,"lng":-105.63502,"zip":"87519","miles_from_dt":13.01},{"city":"Carson","state_name":"New Mexico","lat":36.39035,"lng":-105.79269,"zip":"87517","miles_from_dt":14.27},{"city":"Tres Piedras","state_name":"New Mexico","lat":36.63237,"lng":-105.97755,"zip":"87577","miles_from_dt":15.72},{"city":"Taos","state_name":"New Mexico","lat":36.42507,"lng":-105.48523,"zip":"87571","miles_from_dt":16.25},{"city":"Red River","state_name":"New Mexico","lat":36.67279,"lng":-105.40523,"zip":"87558","miles_from_dt":17.56},{"city":"Questa","state_name":"New Mexico","lat":36.81848,"lng":-105.5575,"zip":"87556","miles_from_dt":18.05},{"city":"Petaca","state_name":"New Mexico","lat":36.54573,"lng":-106.0633,"zip":"87554","miles_from_dt":20.31},{"city":"Ranchos De Taos","state_name":"New Mexico","lat":36.28603,"lng":-105.6331,"zip":"87557","miles_from_dt":20.87},{"city":"La Madera","state_name":"New Mexico","lat":36.41192,"lng":-106.02393,"zip":"87539","miles_from_dt":21.52},{"city":"Embudo","state_name":"New Mexico","lat":36.25326,"lng":-105.84584,"zip":"87531","miles_from_dt":24.17},{"city":"Eagle Nest","state_name":"New Mexico","lat":36.59931,"lng":-105.24097,"zip":"87718","miles_from_dt":25.61},{"city":"Vallecitos","state_name":"New Mexico","lat":36.51531,"lng":-106.16017,"zip":"87581","miles_from_dt":25.97},{"city":"Penasco","state_name":"New Mexico","lat":36.20389,"lng":-105.72094,"zip":"87553","miles_from_dt":26.21},{"city":"Costilla","state_name":"New Mexico","lat":36.96986,"lng":-105.5375,"zip":"87524","miles_from_dt":28.14},{"city":"Amalia","state_name":"New Mexico","lat":36.90885,"lng":-105.36515,"zip":"87512","miles_from_dt":29.16},{"city":"Angel Fire","state_name":"New Mexico","lat":36.3729,"lng":-105.23873,"zip":"87710","miles_from_dt":29.57},{"city":"Trampas","state_name":"New Mexico","lat":36.15321,"lng":-105.62299,"zip":"87576","miles_from_dt":30}],"targetCityZipCode":"87513","targetCityState":"New Mexico"},"__N_SSG":true}