{"pageProps":{"stateName":"New-mexico","cityName":"cedarvale","nearbyCities":[{"city":"Willard","state_name":"New Mexico","lat":34.49265,"lng":-105.85432,"zip":"87063","miles_from_dt":7.6},{"city":"Corona","state_name":"New Mexico","lat":34.22491,"lng":-105.44166,"zip":"88318","miles_from_dt":22.6},{"city":"Estancia","state_name":"New Mexico","lat":34.75117,"lng":-106.01074,"zip":"87016","miles_from_dt":26.32},{"city":"Encino","state_name":"New Mexico","lat":34.76815,"lng":-105.45564,"zip":"88321","miles_from_dt":27.3},{"city":"Claunch","state_name":"New Mexico","lat":34.08236,"lng":-105.97225,"zip":"87011","miles_from_dt":28.52},{"city":"Mountainair","state_name":"New Mexico","lat":34.35591,"lng":-106.24227,"zip":"87036","miles_from_dt":29.7}],"targetCityZipCode":"87009","targetCityState":"New Mexico"},"__N_SSG":true}