{"pageProps":{"stateName":"New-mexico","cityName":"chama","nearbyCities":[{"city":"Chromo","state_name":"Colorado","lat":37.06529,"lng":-106.65223,"zip":"81128","miles_from_dt":12.52},{"city":"Los Ojos","state_name":"New Mexico","lat":36.6925,"lng":-106.66872,"zip":"87551","miles_from_dt":13.35},{"city":"Dulce","state_name":"New Mexico","lat":36.79432,"lng":-106.87989,"zip":"87528","miles_from_dt":14.89},{"city":"Tierra Amarilla","state_name":"New Mexico","lat":36.64203,"lng":-106.59341,"zip":"87575","miles_from_dt":16.86},{"city":"Cebolla","state_name":"New Mexico","lat":36.51197,"lng":-106.54235,"zip":"87518","miles_from_dt":26.18},{"city":"Canjilon","state_name":"New Mexico","lat":36.56257,"lng":-106.3696,"zip":"87515","miles_from_dt":26.64},{"city":"Antonito","state_name":"Colorado","lat":37.14248,"lng":-106.26715,"zip":"81120","miles_from_dt":27.06}],"targetCityZipCode":"87520","targetCityState":"New Mexico"},"__N_SSG":true}