{"pageProps":{"stateName":"New-mexico","cityName":"chaparral","nearbyCities":[{"city":"White Sands Missile Range","state_name":"New Mexico","lat":32.38275,"lng":-106.45804,"zip":"88002","miles_from_dt":13.53},{"city":"Orogrande","state_name":"New Mexico","lat":32.38926,"lng":-106.10469,"zip":"88342","miles_from_dt":14.42},{"city":"Las Cruces","state_name":"New Mexico","lat":32.39533,"lng":-106.58519,"zip":"88011","miles_from_dt":20.07},{"city":"Vado","state_name":"New Mexico","lat":32.14242,"lng":-106.61329,"zip":"88072","miles_from_dt":20.43},{"city":"El Paso","state_name":"Texas","lat":31.95206,"lng":-106.434,"zip":"79934","miles_from_dt":22.21},{"city":"Mesquite","state_name":"New Mexico","lat":32.14966,"lng":-106.6581,"zip":"88048","miles_from_dt":22.74},{"city":"Organ","state_name":"New Mexico","lat":32.45034,"lng":-106.60186,"zip":"88052","miles_from_dt":22.98},{"city":"Berino","state_name":"New Mexico","lat":32.06539,"lng":-106.61803,"zip":"88024","miles_from_dt":23.13},{"city":"San Miguel","state_name":"New Mexico","lat":32.10862,"lng":-106.67925,"zip":"88058","miles_from_dt":24.89},{"city":"El Paso","state_name":"Texas","lat":31.90261,"lng":-106.41492,"zip":"79914","miles_from_dt":25.04},{"city":"El Paso","state_name":"Texas","lat":31.90224,"lng":-106.41355,"zip":"79924","miles_from_dt":25.04},{"city":"Mesilla Park","state_name":"New Mexico","lat":32.21444,"lng":-106.71556,"zip":"88047","miles_from_dt":25.15},{"city":"El Paso","state_name":"Texas","lat":31.9361,"lng":-106.53569,"zip":"79911","miles_from_dt":26.02},{"city":"Anthony","state_name":"Texas","lat":31.97677,"lng":-106.59822,"zip":"79821","miles_from_dt":26.15},{"city":"Spaceport City","state_name":"New Mexico","lat":32.39592,"lng":-106.70136,"zip":"87654","miles_from_dt":26.19},{"city":"Las Cruces","state_name":"New Mexico","lat":32.27868,"lng":-106.74566,"zip":"88003","miles_from_dt":26.86},{"city":"Fort Bliss","state_name":"Texas","lat":31.86268,"lng":-106.38912,"zip":"79916","miles_from_dt":27.31},{"city":"Chamberino","state_name":"New Mexico","lat":32.03625,"lng":-106.68143,"zip":"88027","miles_from_dt":27.34},{"city":"Las Cruces","state_name":"New Mexico","lat":32.29026,"lng":-106.75318,"zip":"88001","miles_from_dt":27.36},{"city":"Canutillo","state_name":"Texas","lat":31.93555,"lng":-106.59491,"zip":"79835","miles_from_dt":28.14},{"city":"Fort Bliss","state_name":"Texas","lat":31.84691,"lng":-106.36936,"zip":"79918","miles_from_dt":28.15},{"city":"Las Cruces","state_name":"New Mexico","lat":32.32201,"lng":-106.76707,"zip":"88006","miles_from_dt":28.47},{"city":"El Paso","state_name":"Texas","lat":31.85151,"lng":-106.43823,"zip":"88540","miles_from_dt":28.81},{"city":"El Paso","state_name":"Texas","lat":31.85022,"lng":-106.4383,"zip":"79996","miles_from_dt":28.89},{"city":"Las Cruces","state_name":"New Mexico","lat":32.31316,"lng":-106.77748,"zip":"88013","miles_from_dt":28.97},{"city":"El Paso","state_name":"Texas","lat":31.85005,"lng":-106.45417,"zip":"79904","miles_from_dt":29.2},{"city":"El Paso","state_name":"Texas","lat":31.82974,"lng":-106.37763,"zip":"79908","miles_from_dt":29.4},{"city":"Mesilla","state_name":"New Mexico","lat":32.26797,"lng":-106.79674,"zip":"88046","miles_from_dt":29.8}],"targetCityZipCode":"88081","targetCityState":"New Mexico"},"__N_SSG":true}