{"pageProps":{"stateName":"New-mexico","cityName":"mexican-springs","nearbyCities":[{"city":"Window Rock","state_name":"Arizona","lat":35.70301,"lng":-108.99057,"zip":"86515","miles_from_dt":9.84},{"city":"Yatahey","state_name":"New Mexico","lat":35.66114,"lng":-108.79477,"zip":"87375","miles_from_dt":10.98},{"city":"Fort Defiance","state_name":"Arizona","lat":35.86087,"lng":-109.13995,"zip":"86504","miles_from_dt":15.52},{"city":"Brimhall","state_name":"New Mexico","lat":35.75365,"lng":-108.60267,"zip":"87310","miles_from_dt":15.55},{"city":"Gamerco","state_name":"New Mexico","lat":35.58024,"lng":-108.75244,"zip":"87317","miles_from_dt":17.04},{"city":"Navajo","state_name":"New Mexico","lat":36.02541,"lng":-109.03638,"zip":"87328","miles_from_dt":17.64},{"city":"Tohatchi","state_name":"New Mexico","lat":35.97495,"lng":-108.58746,"zip":"87325","miles_from_dt":19.67},{"city":"Gallup","state_name":"New Mexico","lat":35.52153,"lng":-108.76524,"zip":"87301","miles_from_dt":20.61},{"city":"Mentmore","state_name":"New Mexico","lat":35.4769,"lng":-108.94232,"zip":"87319","miles_from_dt":23.15},{"city":"Saint Michaels","state_name":"Arizona","lat":35.66536,"lng":-109.26397,"zip":"86511","miles_from_dt":24.15},{"city":"Sheep Springs","state_name":"New Mexico","lat":36.13538,"lng":-108.70875,"zip":"87364","miles_from_dt":24.37},{"city":"Church Rock","state_name":"New Mexico","lat":35.60501,"lng":-108.50061,"zip":"87311","miles_from_dt":25.1},{"city":"Rehoboth","state_name":"New Mexico","lat":35.48531,"lng":-108.66253,"zip":"87322","miles_from_dt":25.14},{"city":"Gallup","state_name":"New Mexico","lat":35.4312,"lng":-108.72851,"zip":"87302","miles_from_dt":27.17},{"city":"Gallup","state_name":"New Mexico","lat":35.40327,"lng":-108.73151,"zip":"87305","miles_from_dt":28.97},{"city":"Fort Wingate","state_name":"New Mexico","lat":35.48684,"lng":-108.53328,"zip":"87316","miles_from_dt":29.17}],"targetCityZipCode":"87320","targetCityState":"New Mexico"},"__N_SSG":true}