{"pageProps":{"stateName":"New-mexico","cityName":"thoreau","nearbyCities":[{"city":"Smith Lake","state_name":"New Mexico","lat":35.53585,"lng":-108.13796,"zip":"87365","miles_from_dt":6.14},{"city":"Continental Divide","state_name":"New Mexico","lat":35.4291,"lng":-108.34543,"zip":"87312","miles_from_dt":9.73},{"city":"Prewitt","state_name":"New Mexico","lat":35.40018,"lng":-108.00182,"zip":"87045","miles_from_dt":10.42},{"city":"Bluewater","state_name":"New Mexico","lat":35.25669,"lng":-107.98867,"zip":"87005","miles_from_dt":17.11},{"city":"Jamestown","state_name":"New Mexico","lat":35.38502,"lng":-108.47052,"zip":"87347","miles_from_dt":17.29},{"city":"Fort Wingate","state_name":"New Mexico","lat":35.48684,"lng":-108.53328,"zip":"87316","miles_from_dt":20.33},{"city":"Church Rock","state_name":"New Mexico","lat":35.60501,"lng":-108.50061,"zip":"87311","miles_from_dt":21.15},{"city":"Crownpoint","state_name":"New Mexico","lat":35.79538,"lng":-108.22129,"zip":"87313","miles_from_dt":23.8},{"city":"Milan","state_name":"New Mexico","lat":35.19673,"lng":-107.88621,"zip":"87021","miles_from_dt":24.02},{"city":"Rehoboth","state_name":"New Mexico","lat":35.48531,"lng":-108.66253,"zip":"87322","miles_from_dt":27.57},{"city":"Ramah","state_name":"New Mexico","lat":35.06791,"lng":-108.40638,"zip":"87321","miles_from_dt":29.54}],"targetCityZipCode":"87323","targetCityState":"New Mexico"},"__N_SSG":true}