{"pageProps":{"stateName":"Alabama","cityName":"furman","nearbyCities":[{"city":"Minter","state_name":"Alabama","lat":32.07872,"lng":-86.97602,"zip":"36761","miles_from_dt":4.89},{"city":"Oak Hill","state_name":"Alabama","lat":31.95505,"lng":-87.08668,"zip":"36766","miles_from_dt":5.83},{"city":"Pine Apple","state_name":"Alabama","lat":31.8837,"lng":-87.01186,"zip":"36768","miles_from_dt":9.56},{"city":"Sardis","state_name":"Alabama","lat":32.20066,"lng":-86.95487,"zip":"36775","miles_from_dt":13},{"city":"McWilliams","state_name":"Alabama","lat":31.83698,"lng":-87.10762,"zip":"36753","miles_from_dt":13.62},{"city":"Forest Home","state_name":"Alabama","lat":31.86044,"lng":-86.85697,"zip":"36030","miles_from_dt":14.91},{"city":"Camden","state_name":"Alabama","lat":31.97043,"lng":-87.27532,"zip":"36726","miles_from_dt":15.07},{"city":"Boykin","state_name":"Alabama","lat":32.06633,"lng":-87.2907,"zip":"36723","miles_from_dt":15.84},{"city":"Orrville","state_name":"Alabama","lat":32.25083,"lng":-87.21042,"zip":"36767","miles_from_dt":19.12},{"city":"Beatrice","state_name":"Alabama","lat":31.75884,"lng":-87.19731,"zip":"36425","miles_from_dt":20.74},{"city":"Tyler","state_name":"Alabama","lat":32.27615,"lng":-86.82683,"zip":"36785","miles_from_dt":21.05},{"city":"Alberta","state_name":"Alabama","lat":32.16493,"lng":-87.34684,"zip":"36720","miles_from_dt":21.24},{"city":"Hayneville","state_name":"Alabama","lat":32.17795,"lng":-86.66972,"zip":"36040","miles_from_dt":23.49},{"city":"Selma","state_name":"Alabama","lat":32.40624,"lng":-87.02243,"zip":"36702","miles_from_dt":26.48},{"city":"Fort Deposit","state_name":"Alabama","lat":31.99857,"lng":-86.57179,"zip":"36032","miles_from_dt":26.71},{"city":"Vredenburgh","state_name":"Alabama","lat":31.77356,"lng":-87.37553,"zip":"36481","miles_from_dt":26.74},{"city":"Coy","state_name":"Alabama","lat":31.87889,"lng":-87.45564,"zip":"36435","miles_from_dt":27.1},{"city":"Safford","state_name":"Alabama","lat":32.28252,"lng":-87.38607,"zip":"36773","miles_from_dt":27.71},{"city":"Greenville","state_name":"Alabama","lat":31.79384,"lng":-86.62356,"zip":"36037","miles_from_dt":28.4},{"city":"Georgiana","state_name":"Alabama","lat":31.66983,"lng":-86.771,"zip":"36033","miles_from_dt":28.52},{"city":"Catherine","state_name":"Alabama","lat":32.16625,"lng":-87.48416,"zip":"36728","miles_from_dt":28.66},{"city":"Selma","state_name":"Alabama","lat":32.43387,"lng":-86.91118,"zip":"36703","miles_from_dt":29.17},{"city":"Letohatchee","state_name":"Alabama","lat":32.07868,"lng":-86.52474,"zip":"36047","miles_from_dt":29.67},{"city":"Peterman","state_name":"Alabama","lat":31.62616,"lng":-87.22861,"zip":"36471","miles_from_dt":29.76}],"targetCityZipCode":"36741","targetCityState":"Alabama"},"__N_SSG":true}