{"pageProps":{"stateName":"Vermont","cityName":"beecher-falls","nearbyCities":[{"city":"Canaan","state_name":"Vermont","lat":44.9379,"lng":-71.58286,"zip":"05903","miles_from_dt":6.53},{"city":"Colebrook","state_name":"New Hampshire","lat":44.89839,"lng":-71.37178,"zip":"03576","miles_from_dt":9.72},{"city":"Averill","state_name":"Vermont","lat":44.94197,"lng":-71.68079,"zip":"05901","miles_from_dt":10.22},{"city":"Pittsburg","state_name":"New Hampshire","lat":45.1128,"lng":-71.25493,"zip":"03592","miles_from_dt":13.76},{"city":"Norton","state_name":"Vermont","lat":44.9502,"lng":-71.82577,"zip":"05907","miles_from_dt":16.72},{"city":"North Stratford","state_name":"New Hampshire","lat":44.74195,"lng":-71.51485,"zip":"03590","miles_from_dt":18.45},{"city":"West Stewartstown","state_name":"New Hampshire","lat":44.73439,"lng":-71.38243,"zip":"03597","miles_from_dt":19.74},{"city":"Island Pond","state_name":"Vermont","lat":44.82671,"lng":-71.82795,"zip":"05846","miles_from_dt":20.63},{"city":"Errol","state_name":"New Hampshire","lat":44.95234,"lng":-71.04182,"zip":"03579","miles_from_dt":22.54},{"city":"Guildhall","state_name":"Vermont","lat":44.70151,"lng":-71.66672,"zip":"05905","miles_from_dt":22.84},{"city":"Derby Line","state_name":"Vermont","lat":44.97717,"lng":-71.98278,"zip":"05830","miles_from_dt":24.01},{"city":"Morgan","state_name":"Vermont","lat":44.89499,"lng":-71.96167,"zip":"05853","miles_from_dt":24.21},{"city":"East Charleston","state_name":"Vermont","lat":44.83182,"lng":-71.96965,"zip":"05833","miles_from_dt":26.31},{"city":"West Charleston","state_name":"Vermont","lat":44.86059,"lng":-72.03473,"zip":"05872","miles_from_dt":28.4},{"city":"Groveton","state_name":"New Hampshire","lat":44.59777,"lng":-71.43703,"zip":"03582","miles_from_dt":28.52},{"city":"Derby","state_name":"Vermont","lat":44.95349,"lng":-72.0759,"zip":"05829","miles_from_dt":28.74},{"city":"East Haven","state_name":"Vermont","lat":44.66868,"lng":-71.8386,"zip":"05837","miles_from_dt":28.93},{"city":"Granby","state_name":"Vermont","lat":44.61297,"lng":-71.73129,"zip":"05840","miles_from_dt":29.7}],"targetCityZipCode":"05902","targetCityState":"Vermont"},"__N_SSG":true}