{"pageProps":{"stateName":"Vermont","cityName":"eden-mills","nearbyCities":[{"city":"Eden","state_name":"Vermont","lat":44.72824,"lng":-72.58674,"zip":"05652","miles_from_dt":4.98},{"city":"North Hyde Park","state_name":"Vermont","lat":44.67179,"lng":-72.59897,"zip":"05665","miles_from_dt":5.62},{"city":"Craftsbury","state_name":"Vermont","lat":44.6444,"lng":-72.40404,"zip":"05826","miles_from_dt":5.88},{"city":"Hyde Park","state_name":"Vermont","lat":44.62461,"lng":-72.56462,"zip":"05655","miles_from_dt":6.38},{"city":"Lowell","state_name":"Vermont","lat":44.79165,"lng":-72.45679,"zip":"05847","miles_from_dt":6.48},{"city":"Craftsbury Common","state_name":"Vermont","lat":44.68135,"lng":-72.36198,"zip":"05827","miles_from_dt":6.59},{"city":"Albany","state_name":"Vermont","lat":44.74862,"lng":-72.37351,"zip":"05820","miles_from_dt":6.71},{"city":"Belvidere Center","state_name":"Vermont","lat":44.76164,"lng":-72.68043,"zip":"05442","miles_from_dt":10.13},{"city":"Johnson","state_name":"Vermont","lat":44.64898,"lng":-72.68825,"zip":"05656","miles_from_dt":10.29},{"city":"Lake Elmore","state_name":"Vermont","lat":44.54436,"lng":-72.52862,"zip":"05657","miles_from_dt":10.99},{"city":"Irasburg","state_name":"Vermont","lat":44.79146,"lng":-72.30699,"zip":"05845","miles_from_dt":11.06},{"city":"Barton","state_name":"Vermont","lat":44.70947,"lng":-72.26753,"zip":"05875","miles_from_dt":11.1},{"city":"Wolcott","state_name":"Vermont","lat":44.53785,"lng":-72.46838,"zip":"05680","miles_from_dt":11.36},{"city":"Greensboro","state_name":"Vermont","lat":44.60794,"lng":-72.30232,"zip":"05841","miles_from_dt":11.39},{"city":"Montgomery Center","state_name":"Vermont","lat":44.85739,"lng":-72.58942,"zip":"05471","miles_from_dt":11.77},{"city":"Westfield","state_name":"Vermont","lat":44.87546,"lng":-72.46172,"zip":"05874","miles_from_dt":12.11},{"city":"Morrisville","state_name":"Vermont","lat":44.53743,"lng":-72.61724,"zip":"05661","miles_from_dt":12.88},{"city":"Waterville","state_name":"Vermont","lat":44.71324,"lng":-72.75853,"zip":"05492","miles_from_dt":13.11},{"city":"Glover","state_name":"Vermont","lat":44.67342,"lng":-72.21171,"zip":"05839","miles_from_dt":13.98},{"city":"Greensboro Bend","state_name":"Vermont","lat":44.57966,"lng":-72.24453,"zip":"05842","miles_from_dt":14.85},{"city":"Bakersfield","state_name":"Vermont","lat":44.7686,"lng":-72.78669,"zip":"05441","miles_from_dt":15.19},{"city":"Montgomery","state_name":"Vermont","lat":44.90159,"lng":-72.64012,"zip":"05470","miles_from_dt":15.61},{"city":"Hardwick","state_name":"Vermont","lat":44.50355,"lng":-72.33366,"zip":"05843","miles_from_dt":15.76},{"city":"Coventry","state_name":"Vermont","lat":44.86019,"lng":-72.25664,"zip":"05825","miles_from_dt":15.97},{"city":"Troy","state_name":"Vermont","lat":44.91881,"lng":-72.3675,"zip":"05868","miles_from_dt":16.23},{"city":"Jeffersonville","state_name":"Vermont","lat":44.65469,"lng":-72.81897,"zip":"05464","miles_from_dt":16.39},{"city":"Barton","state_name":"Vermont","lat":44.75555,"lng":-72.15478,"zip":"05822","miles_from_dt":17.05},{"city":"East Hardwick","state_name":"Vermont","lat":44.5196,"lng":-72.25173,"zip":"05836","miles_from_dt":17.29},{"city":"Woodbury","state_name":"Vermont","lat":44.45377,"lng":-72.38016,"zip":"05681","miles_from_dt":17.98},{"city":"North Troy","state_name":"Vermont","lat":44.95987,"lng":-72.43833,"zip":"05859","miles_from_dt":18.05},{"city":"Newport Center","state_name":"Vermont","lat":44.93381,"lng":-72.3092,"zip":"05857","miles_from_dt":18.41},{"city":"Sheffield","state_name":"Vermont","lat":44.63863,"lng":-72.12699,"zip":"05866","miles_from_dt":18.54},{"city":"Stowe","state_name":"Vermont","lat":44.48151,"lng":-72.72174,"zip":"05672","miles_from_dt":18.93},{"city":"East Berkshire","state_name":"Vermont","lat":44.93615,"lng":-72.70447,"zip":"05447","miles_from_dt":19.26},{"city":"Richford","state_name":"Vermont","lat":44.96055,"lng":-72.6457,"zip":"05476","miles_from_dt":19.41},{"city":"Enosburg Falls","state_name":"Vermont","lat":44.89075,"lng":-72.79074,"zip":"05450","miles_from_dt":19.64},{"city":"East Fairfield","state_name":"Vermont","lat":44.75374,"lng":-72.8872,"zip":"05448","miles_from_dt":19.75},{"city":"Cambridge","state_name":"Vermont","lat":44.62628,"lng":-72.88242,"zip":"05444","miles_from_dt":19.89},{"city":"Orleans","state_name":"Vermont","lat":44.80018,"lng":-72.10353,"zip":"05860","miles_from_dt":20.33},{"city":"Worcester","state_name":"Vermont","lat":44.40354,"lng":-72.57219,"zip":"05682","miles_from_dt":20.94},{"city":"East Calais","state_name":"Vermont","lat":44.4002,"lng":-72.44235,"zip":"05650","miles_from_dt":20.95},{"city":"Moscow","state_name":"Vermont","lat":44.44194,"lng":-72.71724,"zip":"05662","miles_from_dt":21.07},{"city":"Newport","state_name":"Vermont","lat":44.92829,"lng":-72.1943,"zip":"05855","miles_from_dt":21.46},{"city":"Calais","state_name":"Vermont","lat":44.38372,"lng":-72.49355,"zip":"05648","miles_from_dt":21.94},{"city":"Sutton","state_name":"Vermont","lat":44.66505,"lng":-72.04366,"zip":"05867","miles_from_dt":22.27},{"city":"Cabot","state_name":"Vermont","lat":44.41001,"lng":-72.29126,"zip":"05647","miles_from_dt":22.45},{"city":"Underhill","state_name":"Vermont","lat":44.5458,"lng":-72.89471,"zip":"05489","miles_from_dt":22.55},{"city":"Underhill Center","state_name":"Vermont","lat":44.52797,"lng":-72.89695,"zip":"05490","miles_from_dt":23.26},{"city":"Lyndonville","state_name":"Vermont","lat":44.55297,"lng":-72.05732,"zip":"05851","miles_from_dt":23.79},{"city":"Waterbury Center","state_name":"Vermont","lat":44.39194,"lng":-72.70841,"zip":"05677","miles_from_dt":23.87},{"city":"Fairfield","state_name":"Vermont","lat":44.80352,"lng":-72.96568,"zip":"05455","miles_from_dt":24.31},{"city":"Adamant","state_name":"Vermont","lat":44.34734,"lng":-72.49675,"zip":"05640","miles_from_dt":24.45},{"city":"West Danville","state_name":"Vermont","lat":44.40619,"lng":-72.21841,"zip":"05873","miles_from_dt":24.47},{"city":"Marshfield","state_name":"Vermont","lat":44.35921,"lng":-72.35399,"zip":"05658","miles_from_dt":24.6},{"city":"Lyndon Center","state_name":"Vermont","lat":44.55955,"lng":-72.03417,"zip":"05850","miles_from_dt":24.64},{"city":"North Montpelier","state_name":"Vermont","lat":44.34125,"lng":-72.43873,"zip":"05666","miles_from_dt":25.01},{"city":"West Charleston","state_name":"Vermont","lat":44.86059,"lng":-72.03473,"zip":"05872","miles_from_dt":25.06},{"city":"Danville","state_name":"Vermont","lat":44.43748,"lng":-72.12334,"zip":"05828","miles_from_dt":25.78},{"city":"Fairfax","state_name":"Vermont","lat":44.7056,"lng":-73.02294,"zip":"05454","miles_from_dt":26.11},{"city":"Westford","state_name":"Vermont","lat":44.60472,"lng":-73.01523,"zip":"05494","miles_from_dt":26.6},{"city":"West Burke","state_name":"Vermont","lat":44.68367,"lng":-71.95193,"zip":"05871","miles_from_dt":26.67},{"city":"Derby","state_name":"Vermont","lat":44.95349,"lng":-72.0759,"zip":"05829","miles_from_dt":26.88},{"city":"Lyndon","state_name":"Vermont","lat":44.53289,"lng":-72.00029,"zip":"05849","miles_from_dt":26.93},{"city":"Beebe Plain","state_name":"Vermont","lat":45.00543,"lng":-72.14316,"zip":"05823","miles_from_dt":27.12},{"city":"East Charleston","state_name":"Vermont","lat":44.83182,"lng":-71.96965,"zip":"05833","miles_from_dt":27.26},{"city":"Sheldon","state_name":"Vermont","lat":44.88322,"lng":-72.98484,"zip":"05483","miles_from_dt":27.26},{"city":"Jericho","state_name":"Vermont","lat":44.45882,"lng":-72.93058,"zip":"05465","miles_from_dt":27.34},{"city":"Sheldon Springs","state_name":"Vermont","lat":44.90405,"lng":-72.97567,"zip":"05485","miles_from_dt":27.56},{"city":"Franklin","state_name":"Vermont","lat":44.97294,"lng":-72.91832,"zip":"05457","miles_from_dt":28.08},{"city":"Waterbury","state_name":"Vermont","lat":44.34129,"lng":-72.75854,"zip":"05671","miles_from_dt":28.12},{"city":"Waterbury","state_name":"Vermont","lat":44.34825,"lng":-72.80984,"zip":"05676","miles_from_dt":28.98},{"city":"Montpelier","state_name":"Vermont","lat":44.28742,"lng":-72.60006,"zip":"05609","miles_from_dt":29.07},{"city":"East Montpelier","state_name":"Vermont","lat":44.27777,"lng":-72.49246,"zip":"05651","miles_from_dt":29.25},{"city":"Saint Johnsbury Center","state_name":"Vermont","lat":44.4529,"lng":-72.01214,"zip":"05863","miles_from_dt":29.28},{"city":"Morgan","state_name":"Vermont","lat":44.89499,"lng":-71.96167,"zip":"05853","miles_from_dt":29.33},{"city":"Peacham","state_name":"Vermont","lat":44.31971,"lng":-72.23133,"zip":"05862","miles_from_dt":29.35},{"city":"Plainfield","state_name":"Vermont","lat":44.28122,"lng":-72.3986,"zip":"05667","miles_from_dt":29.38},{"city":"Montpelier","state_name":"Vermont","lat":44.2848,"lng":-72.61498,"zip":"05602","miles_from_dt":29.39},{"city":"East Burke","state_name":"Vermont","lat":44.59546,"lng":-71.91027,"zip":"05832","miles_from_dt":29.63}],"targetCityZipCode":"05653","targetCityState":"Vermont"},"__N_SSG":true}