{"pageProps":{"stateName":"Wisconsin","cityName":"hatley","nearbyCities":[{"city":"Eland","state_name":"Wisconsin","lat":44.82401,"lng":-89.25789,"zip":"54427","miles_from_dt":6.53},{"city":"Elderon","state_name":"Wisconsin","lat":44.78231,"lng":-89.24601,"zip":"54429","miles_from_dt":7.19},{"city":"Schofield","state_name":"Wisconsin","lat":44.88816,"lng":-89.52389,"zip":"54476","miles_from_dt":8.74},{"city":"Ringle","state_name":"Wisconsin","lat":44.93361,"lng":-89.41914,"zip":"54471","miles_from_dt":8.93},{"city":"Wittenberg","state_name":"Wisconsin","lat":44.78963,"lng":-89.1801,"zip":"54499","miles_from_dt":10.3},{"city":"Rosholt","state_name":"Wisconsin","lat":44.64984,"lng":-89.35634,"zip":"54473","miles_from_dt":10.91},{"city":"Rothschild","state_name":"Wisconsin","lat":44.87395,"lng":-89.62223,"zip":"54474","miles_from_dt":12.4},{"city":"Birnamwood","state_name":"Wisconsin","lat":44.95589,"lng":-89.18202,"zip":"54414","miles_from_dt":14.47},{"city":"Mosinee","state_name":"Wisconsin","lat":44.7625,"lng":-89.68559,"zip":"54455","miles_from_dt":14.92},{"city":"Custer","state_name":"Wisconsin","lat":44.58049,"lng":-89.41642,"zip":"54423","miles_from_dt":15.65},{"city":"Aniwa","state_name":"Wisconsin","lat":45.02861,"lng":-89.30922,"zip":"54408","miles_from_dt":15.84},{"city":"Wausau","state_name":"Wisconsin","lat":45.03142,"lng":-89.51343,"zip":"54403","miles_from_dt":16.72},{"city":"Tigerton","state_name":"Wisconsin","lat":44.72595,"lng":-89.05124,"zip":"54486","miles_from_dt":17.49},{"city":"Stevens Point","state_name":"Wisconsin","lat":44.55174,"lng":-89.5092,"zip":"54482","miles_from_dt":18.55},{"city":"Wausau","state_name":"Wisconsin","lat":44.96647,"lng":-89.70794,"zip":"54401","miles_from_dt":19.2},{"city":"Wausau","state_name":"Wisconsin","lat":45.02066,"lng":-89.6472,"zip":"54402","miles_from_dt":19.51},{"city":"Amherst Junction","state_name":"Wisconsin","lat":44.52712,"lng":-89.29418,"zip":"54407","miles_from_dt":19.82},{"city":"Brokaw","state_name":"Wisconsin","lat":45.02749,"lng":-89.65418,"zip":"54417","miles_from_dt":20.09},{"city":"Iola","state_name":"Wisconsin","lat":44.57604,"lng":-89.13739,"zip":"54945","miles_from_dt":20.14},{"city":"Nelsonville","state_name":"Wisconsin","lat":44.49867,"lng":-89.31027,"zip":"54458","miles_from_dt":21.58},{"city":"Mattoon","state_name":"Wisconsin","lat":45.00367,"lng":-89.04172,"zip":"54450","miles_from_dt":21.8},{"city":"Junction City","state_name":"Wisconsin","lat":44.61243,"lng":-89.75264,"zip":"54443","miles_from_dt":22.38},{"city":"Big Falls","state_name":"Wisconsin","lat":44.61553,"lng":-89.01823,"zip":"54926","miles_from_dt":22.48},{"city":"Bowler","state_name":"Wisconsin","lat":44.8822,"lng":-88.94153,"zip":"54416","miles_from_dt":22.57},{"city":"Stevens Point","state_name":"Wisconsin","lat":44.4916,"lng":-89.52973,"zip":"54492","miles_from_dt":22.81},{"city":"Stevens Point","state_name":"Wisconsin","lat":44.51935,"lng":-89.63678,"zip":"54481","miles_from_dt":23.28},{"city":"Tilleda","state_name":"Wisconsin","lat":44.79423,"lng":-88.91405,"zip":"54978","miles_from_dt":23.33},{"city":"Marathon","state_name":"Wisconsin","lat":44.93094,"lng":-89.83422,"zip":"54448","miles_from_dt":23.53},{"city":"Antigo","state_name":"Wisconsin","lat":45.11928,"lng":-89.16909,"zip":"54409","miles_from_dt":24.14},{"city":"Leopolis","state_name":"Wisconsin","lat":44.7774,"lng":-88.88823,"zip":"54948","miles_from_dt":24.67},{"city":"Phlox","state_name":"Wisconsin","lat":45.05486,"lng":-89.01748,"zip":"54464","miles_from_dt":25.02},{"city":"Caroline","state_name":"Wisconsin","lat":44.73894,"lng":-88.88546,"zip":"54928","miles_from_dt":25.17},{"city":"Marion","state_name":"Wisconsin","lat":44.65408,"lng":-88.90614,"zip":"54950","miles_from_dt":25.96},{"city":"Scandinavia","state_name":"Wisconsin","lat":44.45696,"lng":-89.16471,"zip":"54977","miles_from_dt":26.52},{"city":"Amherst","state_name":"Wisconsin","lat":44.41122,"lng":-89.31211,"zip":"54406","miles_from_dt":27.53},{"city":"Plover","state_name":"Wisconsin","lat":44.41575,"lng":-89.54062,"zip":"54467","miles_from_dt":27.99},{"city":"Milladore","state_name":"Wisconsin","lat":44.60259,"lng":-89.8846,"zip":"54454","miles_from_dt":28.19},{"city":"Ogdensburg","state_name":"Wisconsin","lat":44.48059,"lng":-89.02486,"zip":"54962","miles_from_dt":28.75},{"city":"Gresham","state_name":"Wisconsin","lat":44.86675,"lng":-88.80525,"zip":"54128","miles_from_dt":28.95},{"city":"Blenker","state_name":"Wisconsin","lat":44.61838,"lng":-89.91807,"zip":"54415","miles_from_dt":29.13},{"city":"Rudolph","state_name":"Wisconsin","lat":44.48204,"lng":-89.78825,"zip":"54475","miles_from_dt":29.83}],"targetCityZipCode":"54440","targetCityState":"Wisconsin"},"__N_SSG":true}