{"pageProps":{"stateName":"Wisconsin","cityName":"marion","nearbyCities":[{"city":"Caroline","state_name":"Wisconsin","lat":44.73894,"lng":-88.88546,"zip":"54928","miles_from_dt":5.95},{"city":"Big Falls","state_name":"Wisconsin","lat":44.61553,"lng":-89.01823,"zip":"54926","miles_from_dt":6.13},{"city":"Clintonville","state_name":"Wisconsin","lat":44.63704,"lng":-88.7372,"zip":"54929","miles_from_dt":8.41},{"city":"Leopolis","state_name":"Wisconsin","lat":44.7774,"lng":-88.88823,"zip":"54948","miles_from_dt":8.56},{"city":"Tigerton","state_name":"Wisconsin","lat":44.72595,"lng":-89.05124,"zip":"54486","miles_from_dt":8.7},{"city":"Tilleda","state_name":"Wisconsin","lat":44.79423,"lng":-88.91405,"zip":"54978","miles_from_dt":9.69},{"city":"Embarrass","state_name":"Wisconsin","lat":44.66535,"lng":-88.70966,"zip":"54933","miles_from_dt":9.71},{"city":"Bear Creek","state_name":"Wisconsin","lat":44.54281,"lng":-88.74529,"zip":"54922","miles_from_dt":11.05},{"city":"Manawa","state_name":"Wisconsin","lat":44.48561,"lng":-88.91416,"zip":"54949","miles_from_dt":11.64},{"city":"Iola","state_name":"Wisconsin","lat":44.57604,"lng":-89.13739,"zip":"54945","miles_from_dt":12.61},{"city":"Ogdensburg","state_name":"Wisconsin","lat":44.48059,"lng":-89.02486,"zip":"54962","miles_from_dt":13.34},{"city":"Gresham","state_name":"Wisconsin","lat":44.86675,"lng":-88.80525,"zip":"54128","miles_from_dt":15.5},{"city":"Bowler","state_name":"Wisconsin","lat":44.8822,"lng":-88.94153,"zip":"54416","miles_from_dt":15.85},{"city":"Shawano","state_name":"Wisconsin","lat":44.77894,"lng":-88.63567,"zip":"54166","miles_from_dt":15.86},{"city":"Wittenberg","state_name":"Wisconsin","lat":44.78963,"lng":-89.1801,"zip":"54499","miles_from_dt":16.42},{"city":"New London","state_name":"Wisconsin","lat":44.41173,"lng":-88.7628,"zip":"54961","miles_from_dt":18.17},{"city":"Scandinavia","state_name":"Wisconsin","lat":44.45696,"lng":-89.16471,"zip":"54977","miles_from_dt":18.66},{"city":"Elderon","state_name":"Wisconsin","lat":44.78231,"lng":-89.24601,"zip":"54429","miles_from_dt":18.93},{"city":"Shiocton","state_name":"Wisconsin","lat":44.51783,"lng":-88.57241,"zip":"54170","miles_from_dt":18.97},{"city":"Eland","state_name":"Wisconsin","lat":44.82401,"lng":-89.25789,"zip":"54427","miles_from_dt":20.91},{"city":"Amherst Junction","state_name":"Wisconsin","lat":44.52712,"lng":-89.29418,"zip":"54407","miles_from_dt":21.06},{"city":"Rosholt","state_name":"Wisconsin","lat":44.64984,"lng":-89.35634,"zip":"54473","miles_from_dt":22.19},{"city":"Nichols","state_name":"Wisconsin","lat":44.56645,"lng":-88.47049,"zip":"54152","miles_from_dt":22.32},{"city":"Nelsonville","state_name":"Wisconsin","lat":44.49867,"lng":-89.31027,"zip":"54458","miles_from_dt":22.65},{"city":"Neopit","state_name":"Wisconsin","lat":44.97237,"lng":-88.7906,"zip":"54150","miles_from_dt":22.7},{"city":"Bonduel","state_name":"Wisconsin","lat":44.70068,"lng":-88.44436,"zip":"54107","miles_from_dt":22.98},{"city":"Keshena","state_name":"Wisconsin","lat":44.91468,"lng":-88.61209,"zip":"54135","miles_from_dt":23.08},{"city":"Weyauwega","state_name":"Wisconsin","lat":44.31651,"lng":-88.93614,"zip":"54983","miles_from_dt":23.36},{"city":"Birnamwood","state_name":"Wisconsin","lat":44.95589,"lng":-89.18202,"zip":"54414","miles_from_dt":24.86},{"city":"King","state_name":"Wisconsin","lat":44.33704,"lng":-89.14503,"zip":"54946","miles_from_dt":24.87},{"city":"Waupaca","state_name":"Wisconsin","lat":44.32733,"lng":-89.12558,"zip":"54981","miles_from_dt":25.03},{"city":"Mattoon","state_name":"Wisconsin","lat":45.00367,"lng":-89.04172,"zip":"54450","miles_from_dt":25.04},{"city":"Black Creek","state_name":"Wisconsin","lat":44.48172,"lng":-88.45551,"zip":"54106","miles_from_dt":25.23},{"city":"Custer","state_name":"Wisconsin","lat":44.58049,"lng":-89.41642,"zip":"54423","miles_from_dt":25.67},{"city":"Hatley","state_name":"Wisconsin","lat":44.80621,"lng":-89.38838,"zip":"54440","miles_from_dt":25.96},{"city":"Amherst","state_name":"Wisconsin","lat":44.41122,"lng":-89.31211,"zip":"54406","miles_from_dt":26.14},{"city":"Hortonville","state_name":"Wisconsin","lat":44.32409,"lng":-88.6274,"zip":"54944","miles_from_dt":26.63},{"city":"Readfield","state_name":"Wisconsin","lat":44.27353,"lng":-88.76787,"zip":"54969","miles_from_dt":27.15},{"city":"Cecil","state_name":"Wisconsin","lat":44.81572,"lng":-88.37992,"zip":"54111","miles_from_dt":28.2},{"city":"Phlox","state_name":"Wisconsin","lat":45.05486,"lng":-89.01748,"zip":"54464","miles_from_dt":28.21},{"city":"Dale","state_name":"Wisconsin","lat":44.2703,"lng":-88.66835,"zip":"54931","miles_from_dt":28.99},{"city":"Fremont","state_name":"Wisconsin","lat":44.22696,"lng":-88.84446,"zip":"54940","miles_from_dt":29.65}],"targetCityZipCode":"54950","targetCityState":"Wisconsin"},"__N_SSG":true}