{"pageProps":{"stateName":"Wisconsin","cityName":"phlox","nearbyCities":[{"city":"Mattoon","state_name":"Wisconsin","lat":45.00367,"lng":-89.04172,"zip":"54450","miles_from_dt":3.73},{"city":"Antigo","state_name":"Wisconsin","lat":45.11928,"lng":-89.16909,"zip":"54409","miles_from_dt":8.65},{"city":"Elton","state_name":"Wisconsin","lat":45.1395,"lng":-88.8872,"zip":"54430","miles_from_dt":8.65},{"city":"Birnamwood","state_name":"Wisconsin","lat":44.95589,"lng":-89.18202,"zip":"54414","miles_from_dt":10.57},{"city":"Bryant","state_name":"Wisconsin","lat":45.21566,"lng":-88.98003,"zip":"54418","miles_from_dt":11.25},{"city":"Neopit","state_name":"Wisconsin","lat":44.97237,"lng":-88.7906,"zip":"54150","miles_from_dt":12.49},{"city":"Bowler","state_name":"Wisconsin","lat":44.8822,"lng":-88.94153,"zip":"54416","miles_from_dt":12.49},{"city":"Aniwa","state_name":"Wisconsin","lat":45.02861,"lng":-89.30922,"zip":"54408","miles_from_dt":14.4},{"city":"Gresham","state_name":"Wisconsin","lat":44.86675,"lng":-88.80525,"zip":"54128","miles_from_dt":16.64},{"city":"White Lake","state_name":"Wisconsin","lat":45.2343,"lng":-88.76541,"zip":"54491","miles_from_dt":17.47},{"city":"Deerbrook","state_name":"Wisconsin","lat":45.28471,"lng":-89.18701,"zip":"54424","miles_from_dt":17.9},{"city":"Tilleda","state_name":"Wisconsin","lat":44.79423,"lng":-88.91405,"zip":"54978","miles_from_dt":18.7},{"city":"Eland","state_name":"Wisconsin","lat":44.82401,"lng":-89.25789,"zip":"54427","miles_from_dt":19.83},{"city":"Wittenberg","state_name":"Wisconsin","lat":44.78963,"lng":-89.1801,"zip":"54499","miles_from_dt":19.98},{"city":"Leopolis","state_name":"Wisconsin","lat":44.7774,"lng":-88.88823,"zip":"54948","miles_from_dt":20.18},{"city":"Ringle","state_name":"Wisconsin","lat":44.93361,"lng":-89.41914,"zip":"54471","miles_from_dt":21.39},{"city":"Elderon","state_name":"Wisconsin","lat":44.78231,"lng":-89.24601,"zip":"54429","miles_from_dt":21.91},{"city":"Keshena","state_name":"Wisconsin","lat":44.91468,"lng":-88.61209,"zip":"54135","miles_from_dt":22.1},{"city":"Caroline","state_name":"Wisconsin","lat":44.73894,"lng":-88.88546,"zip":"54928","miles_from_dt":22.76},{"city":"Tigerton","state_name":"Wisconsin","lat":44.72595,"lng":-89.05124,"zip":"54486","miles_from_dt":22.77},{"city":"Pearson","state_name":"Wisconsin","lat":45.39408,"lng":-89.00031,"zip":"54462","miles_from_dt":23.44},{"city":"Pickerel","state_name":"Wisconsin","lat":45.39327,"lng":-88.88334,"zip":"54465","miles_from_dt":24.27},{"city":"Wausau","state_name":"Wisconsin","lat":45.03142,"lng":-89.51343,"zip":"54403","miles_from_dt":24.33},{"city":"Hatley","state_name":"Wisconsin","lat":44.80621,"lng":-89.38838,"zip":"54440","miles_from_dt":25.02},{"city":"Summit Lake","state_name":"Wisconsin","lat":45.39373,"lng":-89.21894,"zip":"54485","miles_from_dt":25.38},{"city":"Townsend","state_name":"Wisconsin","lat":45.30552,"lng":-88.62394,"zip":"54175","miles_from_dt":25.87},{"city":"Shawano","state_name":"Wisconsin","lat":44.77894,"lng":-88.63567,"zip":"54166","miles_from_dt":26.72},{"city":"Elcho","state_name":"Wisconsin","lat":45.43511,"lng":-89.17282,"zip":"54428","miles_from_dt":27.33},{"city":"Schofield","state_name":"Wisconsin","lat":44.88816,"lng":-89.52389,"zip":"54476","miles_from_dt":27.36},{"city":"Marion","state_name":"Wisconsin","lat":44.65408,"lng":-88.90614,"zip":"54950","miles_from_dt":28.21},{"city":"Mountain","state_name":"Wisconsin","lat":45.204,"lng":-88.47445,"zip":"54149","miles_from_dt":28.47},{"city":"Suring","state_name":"Wisconsin","lat":45.03553,"lng":-88.43492,"zip":"54174","miles_from_dt":28.55},{"city":"Gleason","state_name":"Wisconsin","lat":45.35084,"lng":-89.44349,"zip":"54435","miles_from_dt":29.16}],"targetCityZipCode":"54464","targetCityState":"Wisconsin"},"__N_SSG":true}