{"pageProps":{"stateName":"Wisconsin","cityName":"radisson","nearbyCities":[{"city":"Ojibwa","state_name":"Wisconsin","lat":45.80385,"lng":-91.12132,"zip":"54862","miles_from_dt":4.78},{"city":"Couderay","state_name":"Wisconsin","lat":45.84201,"lng":-91.2934,"zip":"54828","miles_from_dt":5.61},{"city":"Exeland","state_name":"Wisconsin","lat":45.67974,"lng":-91.2522,"zip":"54835","miles_from_dt":7.28},{"city":"Stone Lake","state_name":"Wisconsin","lat":45.82811,"lng":-91.51439,"zip":"54876","miles_from_dt":14.8},{"city":"Winter","state_name":"Wisconsin","lat":45.81178,"lng":-90.87888,"zip":"54896","miles_from_dt":16.38},{"city":"Hayward","state_name":"Wisconsin","lat":46.0251,"lng":-91.29494,"zip":"54843","miles_from_dt":17.23},{"city":"Birchwood","state_name":"Wisconsin","lat":45.67056,"lng":-91.53942,"zip":"54817","miles_from_dt":17.47},{"city":"Ladysmith","state_name":"Wisconsin","lat":45.51546,"lng":-91.10284,"zip":"54848","miles_from_dt":19.19},{"city":"Bruce","state_name":"Wisconsin","lat":45.47636,"lng":-91.30307,"zip":"54819","miles_from_dt":21.53},{"city":"Mikana","state_name":"Wisconsin","lat":45.59347,"lng":-91.59927,"zip":"54857","miles_from_dt":22.69},{"city":"Tony","state_name":"Wisconsin","lat":45.46448,"lng":-90.97428,"zip":"54563","miles_from_dt":24.84},{"city":"Glen Flora","state_name":"Wisconsin","lat":45.50969,"lng":-90.85872,"zip":"54526","miles_from_dt":25.53},{"city":"Weyerhaeuser","state_name":"Wisconsin","lat":45.44233,"lng":-91.44605,"zip":"54895","miles_from_dt":25.99},{"city":"Springbrook","state_name":"Wisconsin","lat":45.97405,"lng":-91.6948,"zip":"54875","miles_from_dt":26.67},{"city":"Clam Lake","state_name":"Wisconsin","lat":46.11899,"lng":-90.93035,"zip":"54517","miles_from_dt":27.02},{"city":"Sarona","state_name":"Wisconsin","lat":45.71205,"lng":-91.76967,"zip":"54870","miles_from_dt":27.24},{"city":"Rice Lake","state_name":"Wisconsin","lat":45.52723,"lng":-91.70977,"zip":"54868","miles_from_dt":29.72},{"city":"Hawkins","state_name":"Wisconsin","lat":45.53202,"lng":-90.71537,"zip":"54530","miles_from_dt":29.73},{"city":"Haugen","state_name":"Wisconsin","lat":45.60776,"lng":-91.77887,"zip":"54841","miles_from_dt":29.81}],"targetCityZipCode":"54867","targetCityState":"Wisconsin"},"__N_SSG":true}