{"pageProps":{"stateName":"Minnesota","cityName":"barry","nearbyCities":[{"city":"Graceville","state_name":"Minnesota","lat":45.56327,"lng":-96.47475,"zip":"56240","miles_from_dt":4.14},{"city":"Beardsley","state_name":"Minnesota","lat":45.58641,"lng":-96.6828,"zip":"56211","miles_from_dt":6.3},{"city":"Clinton","state_name":"Minnesota","lat":45.45325,"lng":-96.4482,"zip":"56225","miles_from_dt":9},{"city":"Dumont","state_name":"Minnesota","lat":45.66341,"lng":-96.40312,"zip":"56236","miles_from_dt":10.54},{"city":"Browns Valley","state_name":"Minnesota","lat":45.5977,"lng":-96.81913,"zip":"56219","miles_from_dt":12.89},{"city":"Corona","state_name":"South Dakota","lat":45.36184,"lng":-96.72105,"zip":"57227","miles_from_dt":15.62},{"city":"Ortonville","state_name":"Minnesota","lat":45.345,"lng":-96.37718,"zip":"56278","miles_from_dt":17.14},{"city":"Chokio","state_name":"Minnesota","lat":45.55583,"lng":-96.1938,"zip":"56221","miles_from_dt":17.75},{"city":"Big Stone City","state_name":"South Dakota","lat":45.30041,"lng":-96.52471,"zip":"57216","miles_from_dt":17.83},{"city":"Wilmot","state_name":"South Dakota","lat":45.41816,"lng":-96.87274,"zip":"57279","miles_from_dt":18},{"city":"Wheaton","state_name":"Minnesota","lat":45.82981,"lng":-96.46953,"zip":"56296","miles_from_dt":19.31},{"city":"Rosholt","state_name":"South Dakota","lat":45.83641,"lng":-96.7172,"zip":"57260","miles_from_dt":20.72},{"city":"Peever","state_name":"South Dakota","lat":45.49975,"lng":-97.02982,"zip":"57257","miles_from_dt":23.17},{"city":"Alberta","state_name":"Minnesota","lat":45.50266,"lng":-96.0708,"zip":"56207","miles_from_dt":24.02},{"city":"Milbank","state_name":"South Dakota","lat":45.20507,"lng":-96.61053,"zip":"57252","miles_from_dt":24.46},{"city":"Odessa","state_name":"Minnesota","lat":45.24134,"lng":-96.31249,"zip":"56276","miles_from_dt":24.92},{"city":"Sisseton","state_name":"South Dakota","lat":45.67288,"lng":-97.06641,"zip":"57262","miles_from_dt":25.83},{"city":"Twin Brooks","state_name":"South Dakota","lat":45.22273,"lng":-96.80182,"zip":"57269","miles_from_dt":25.94},{"city":"Herman","state_name":"Minnesota","lat":45.79317,"lng":-96.13677,"zip":"56248","miles_from_dt":26.16},{"city":"Correll","state_name":"Minnesota","lat":45.29436,"lng":-96.16938,"zip":"56227","miles_from_dt":26.27},{"city":"Marvin","state_name":"South Dakota","lat":45.27717,"lng":-96.93677,"zip":"57251","miles_from_dt":26.67},{"city":"Norcross","state_name":"Minnesota","lat":45.90145,"lng":-96.2383,"zip":"56274","miles_from_dt":28.39},{"city":"Donnelly","state_name":"Minnesota","lat":45.70588,"lng":-96.01079,"zip":"56235","miles_from_dt":28.5},{"city":"New Effington","state_name":"South Dakota","lat":45.86702,"lng":-96.94985,"zip":"57255","miles_from_dt":28.53}],"targetCityZipCode":"56210","targetCityState":"Minnesota"},"__N_SSG":true}