{"pageProps":{"stateName":"Minnesota","cityName":"pennington","nearbyCities":[{"city":"Squaw Lake","state_name":"Minnesota","lat":47.5488,"lng":-94.25132,"zip":"56681","miles_from_dt":10.08},{"city":"Cass Lake","state_name":"Minnesota","lat":47.31957,"lng":-94.50911,"zip":"56633","miles_from_dt":12.72},{"city":"Hines","state_name":"Minnesota","lat":47.68782,"lng":-94.62187,"zip":"56647","miles_from_dt":15.16},{"city":"Bena","state_name":"Minnesota","lat":47.36404,"lng":-94.18421,"zip":"56626","miles_from_dt":15.76},{"city":"Blackduck","state_name":"Minnesota","lat":47.74432,"lng":-94.49852,"zip":"56630","miles_from_dt":17.01},{"city":"Bemidji","state_name":"Minnesota","lat":47.50985,"lng":-94.84921,"zip":"56601","miles_from_dt":18.5},{"city":"Bemidji","state_name":"Minnesota","lat":47.47373,"lng":-94.87912,"zip":"56619","miles_from_dt":19.98},{"city":"Tenstrike","state_name":"Minnesota","lat":47.72124,"lng":-94.7512,"zip":"56683","miles_from_dt":20.64},{"city":"Max","state_name":"Minnesota","lat":47.62116,"lng":-94.01899,"zip":"56659","miles_from_dt":22.01},{"city":"Federal Dam","state_name":"Minnesota","lat":47.19848,"lng":-94.25804,"zip":"56641","miles_from_dt":22.78},{"city":"Spring Lake","state_name":"Minnesota","lat":47.6456,"lng":-93.96124,"zip":"56680","miles_from_dt":25.15},{"city":"Wilton","state_name":"Minnesota","lat":47.52245,"lng":-94.99635,"zip":"56687","miles_from_dt":25.42},{"city":"Benedict","state_name":"Minnesota","lat":47.15765,"lng":-94.69043,"zip":"56436","miles_from_dt":26.12},{"city":"Laporte","state_name":"Minnesota","lat":47.22817,"lng":-94.85877,"zip":"56461","miles_from_dt":26.7},{"city":"Walker","state_name":"Minnesota","lat":47.09744,"lng":-94.47416,"zip":"56484","miles_from_dt":27.82},{"city":"Northome","state_name":"Minnesota","lat":47.84302,"lng":-94.13856,"zip":"56661","miles_from_dt":27.91},{"city":"Puposky","state_name":"Minnesota","lat":47.73569,"lng":-94.94199,"zip":"56667","miles_from_dt":28},{"city":"Deer River","state_name":"Minnesota","lat":47.40283,"lng":-93.86518,"zip":"56636","miles_from_dt":28.41},{"city":"Talmoon","state_name":"Minnesota","lat":47.61872,"lng":-93.83941,"zip":"56637","miles_from_dt":29.9}],"targetCityZipCode":"56663","targetCityState":"Minnesota"},"__N_SSG":true}