{"pageProps":{"stateName":"Minnesota","cityName":"wolf-lake","nearbyCities":[{"city":"Osage","state_name":"Minnesota","lat":46.91051,"lng":-95.35552,"zip":"56570","miles_from_dt":5.07},{"city":"Frazee","state_name":"Minnesota","lat":46.75894,"lng":-95.59693,"zip":"56544","miles_from_dt":12.07},{"city":"Menahga","state_name":"Minnesota","lat":46.76538,"lng":-95.10382,"zip":"56464","miles_from_dt":13.58},{"city":"Ponsford","state_name":"Minnesota","lat":47.03827,"lng":-95.43146,"zip":"56575","miles_from_dt":14.15},{"city":"Rochert","state_name":"Minnesota","lat":46.9264,"lng":-95.65563,"zip":"56578","miles_from_dt":14.85},{"city":"Perham","state_name":"Minnesota","lat":46.61443,"lng":-95.55216,"zip":"56573","miles_from_dt":17.69},{"city":"Park Rapids","state_name":"Minnesota","lat":47.02368,"lng":-95.09433,"zip":"56470","miles_from_dt":18.3},{"city":"New York Mills","state_name":"Minnesota","lat":46.54896,"lng":-95.36707,"zip":"56567","miles_from_dt":19.95},{"city":"Detroit Lakes","state_name":"Minnesota","lat":46.83665,"lng":-95.82233,"zip":"56501","miles_from_dt":21.45},{"city":"Sebeka","state_name":"Minnesota","lat":46.64363,"lng":-94.99653,"zip":"56477","miles_from_dt":22.23},{"city":"Detroit Lakes","state_name":"Minnesota","lat":46.82039,"lng":-95.84394,"zip":"56502","miles_from_dt":22.51},{"city":"Richwood","state_name":"Minnesota","lat":46.93832,"lng":-95.86232,"zip":"56577","miles_from_dt":24.33},{"city":"Bluffton","state_name":"Minnesota","lat":46.48926,"lng":-95.24506,"zip":"56518","miles_from_dt":24.8},{"city":"Ogema","state_name":"Minnesota","lat":47.07482,"lng":-95.81956,"zip":"56569","miles_from_dt":26.84},{"city":"Nevis","state_name":"Minnesota","lat":46.97714,"lng":-94.83753,"zip":"56467","miles_from_dt":26.98},{"city":"Vergas","state_name":"Minnesota","lat":46.63721,"lng":-95.8628,"zip":"56587","miles_from_dt":27.2},{"city":"Callaway","state_name":"Minnesota","lat":46.99691,"lng":-95.89783,"zip":"56521","miles_from_dt":27.3},{"city":"Wadena","state_name":"Minnesota","lat":46.46555,"lng":-95.14307,"zip":"56482","miles_from_dt":27.89},{"city":"Ottertail","state_name":"Minnesota","lat":46.43856,"lng":-95.53939,"zip":"56571","miles_from_dt":28.73},{"city":"White Earth","state_name":"Minnesota","lat":47.09968,"lng":-95.84357,"zip":"56591","miles_from_dt":28.79},{"city":"Waubun","state_name":"Minnesota","lat":47.17959,"lng":-95.71984,"zip":"56589","miles_from_dt":28.82},{"city":"Dent","state_name":"Minnesota","lat":46.53066,"lng":-95.80983,"zip":"56528","miles_from_dt":29.79},{"city":"Richville","state_name":"Minnesota","lat":46.47164,"lng":-95.70537,"zip":"56576","miles_from_dt":29.91}],"targetCityZipCode":"56593","targetCityState":"Minnesota"},"__N_SSG":true}