{"pageProps":{"stateName":"Michigan","cityName":"coral","nearbyCities":[{"city":"Trufant","state_name":"Michigan","lat":43.31488,"lng":-85.34352,"zip":"49347","miles_from_dt":2.93},{"city":"Pierson","state_name":"Michigan","lat":43.33574,"lng":-85.49454,"zip":"49339","miles_from_dt":7.3},{"city":"Lakeview","state_name":"Michigan","lat":43.4374,"lng":-85.25519,"zip":"48850","miles_from_dt":7.41},{"city":"Gowen","state_name":"Michigan","lat":43.25069,"lng":-85.32083,"zip":"49326","miles_from_dt":7.5},{"city":"Howard City","state_name":"Michigan","lat":43.40567,"lng":-85.48771,"zip":"49329","miles_from_dt":7.59},{"city":"Sand Lake","state_name":"Michigan","lat":43.29579,"lng":-85.53115,"zip":"49343","miles_from_dt":9.94},{"city":"Six Lakes","state_name":"Michigan","lat":43.41994,"lng":-85.16092,"zip":"48886","miles_from_dt":10.59},{"city":"Morley","state_name":"Michigan","lat":43.50752,"lng":-85.42862,"zip":"49336","miles_from_dt":11.08},{"city":"Cedar Springs","state_name":"Michigan","lat":43.22767,"lng":-85.5281,"zip":"49319","miles_from_dt":12.56},{"city":"Sidney","state_name":"Michigan","lat":43.24908,"lng":-85.14356,"zip":"48885","miles_from_dt":12.9},{"city":"Greenville","state_name":"Michigan","lat":43.18268,"lng":-85.25943,"zip":"48838","miles_from_dt":12.91},{"city":"Stanton","state_name":"Michigan","lat":43.3089,"lng":-85.09566,"zip":"48888","miles_from_dt":13.36},{"city":"Mcbrides","state_name":"Michigan","lat":43.35256,"lng":-85.04652,"zip":"48852","miles_from_dt":15.42},{"city":"Stanwood","state_name":"Michigan","lat":43.58616,"lng":-85.42213,"zip":"49346","miles_from_dt":16.21},{"city":"Cannonsburg","state_name":"Michigan","lat":43.13059,"lng":-85.48243,"zip":"49317","miles_from_dt":16.94},{"city":"Edmore","state_name":"Michigan","lat":43.40027,"lng":-85.02037,"zip":"48829","miles_from_dt":17},{"city":"Rockford","state_name":"Michigan","lat":43.12433,"lng":-85.49246,"zip":"49341","miles_from_dt":17.53},{"city":"Blanchard","state_name":"Michigan","lat":43.51525,"lng":-85.05448,"zip":"49310","miles_from_dt":18.56},{"city":"Sheridan","state_name":"Michigan","lat":43.20731,"lng":-85.04249,"zip":"48884","miles_from_dt":18.74},{"city":"Newaygo","state_name":"Michigan","lat":43.43472,"lng":-85.71437,"zip":"49337","miles_from_dt":18.99},{"city":"Rockford","state_name":"Michigan","lat":43.12526,"lng":-85.55903,"zip":"49351","miles_from_dt":19.08},{"city":"Mecosta","state_name":"Michigan","lat":43.62323,"lng":-85.24468,"zip":"49332","miles_from_dt":19.17},{"city":"Cedar Lake","state_name":"Michigan","lat":43.40469,"lng":-84.97643,"zip":"48812","miles_from_dt":19.23},{"city":"Belding","state_name":"Michigan","lat":43.0646,"lng":-85.25712,"zip":"48809","miles_from_dt":20.74},{"city":"Smyrna","state_name":"Michigan","lat":43.06242,"lng":-85.26273,"zip":"48887","miles_from_dt":20.83},{"city":"Kent City","state_name":"Michigan","lat":43.24463,"lng":-85.73721,"zip":"49330","miles_from_dt":20.88},{"city":"Remus","state_name":"Michigan","lat":43.62213,"lng":-85.11222,"zip":"49340","miles_from_dt":21.94},{"city":"Vestaburg","state_name":"Michigan","lat":43.39676,"lng":-84.91469,"zip":"48891","miles_from_dt":22.22},{"city":"Orleans","state_name":"Michigan","lat":43.08785,"lng":-85.10725,"zip":"48865","miles_from_dt":22.32},{"city":"Belmont","state_name":"Michigan","lat":43.07296,"lng":-85.56939,"zip":"49306","miles_from_dt":22.45},{"city":"Sparta","state_name":"Michigan","lat":43.15419,"lng":-85.70224,"zip":"49345","miles_from_dt":22.52},{"city":"Fenwick","state_name":"Michigan","lat":43.12981,"lng":-85.03108,"zip":"48834","miles_from_dt":22.56},{"city":"Rodney","state_name":"Michigan","lat":43.69634,"lng":-85.32156,"zip":"49342","miles_from_dt":23.49},{"city":"Crystal","state_name":"Michigan","lat":43.2759,"lng":-84.89661,"zip":"48818","miles_from_dt":23.65},{"city":"Big Rapids","state_name":"Michigan","lat":43.69797,"lng":-85.48272,"zip":"49307","miles_from_dt":24.44},{"city":"Grant","state_name":"Michigan","lat":43.33507,"lng":-85.84558,"zip":"49327","miles_from_dt":24.88},{"city":"White Cloud","state_name":"Michigan","lat":43.58291,"lng":-85.74167,"zip":"49349","miles_from_dt":25.02},{"city":"Palo","state_name":"Michigan","lat":43.11027,"lng":-84.98483,"zip":"48870","miles_from_dt":25.19},{"city":"Winn","state_name":"Michigan","lat":43.52127,"lng":-84.90101,"zip":"48896","miles_from_dt":25.4},{"city":"Comstock Park","state_name":"Michigan","lat":43.0737,"lng":-85.68198,"zip":"49321","miles_from_dt":25.66},{"city":"Casnovia","state_name":"Michigan","lat":43.22319,"lng":-85.82981,"zip":"49318","miles_from_dt":25.77},{"city":"Riverdale","state_name":"Michigan","lat":43.40068,"lng":-84.84316,"zip":"48877","miles_from_dt":25.83},{"city":"Bailey","state_name":"Michigan","lat":43.27803,"lng":-85.85824,"zip":"49303","miles_from_dt":26.06},{"city":"Elm Hall","state_name":"Michigan","lat":43.3626,"lng":-84.83406,"zip":"48830","miles_from_dt":26.12},{"city":"Grand Rapids","state_name":"Michigan","lat":43.02144,"lng":-85.5918,"zip":"49525","miles_from_dt":26.12},{"city":"Grand Rapids","state_name":"Michigan","lat":43.02206,"lng":-85.61258,"zip":"49510","miles_from_dt":26.58},{"city":"Ada","state_name":"Michigan","lat":42.97716,"lng":-85.47671,"zip":"49301","miles_from_dt":26.95},{"city":"Chippewa Lake","state_name":"Michigan","lat":43.75264,"lng":-85.29276,"zip":"49320","miles_from_dt":27.49},{"city":"Carson City","state_name":"Michigan","lat":43.18226,"lng":-84.85518,"zip":"48811","miles_from_dt":27.84},{"city":"Lowell","state_name":"Michigan","lat":42.95161,"lng":-85.35139,"zip":"49331","miles_from_dt":27.97},{"city":"Sumner","state_name":"Michigan","lat":43.29133,"lng":-84.79701,"zip":"48889","miles_from_dt":28.37},{"city":"Ada","state_name":"Michigan","lat":42.95688,"lng":-85.4814,"zip":"49356","miles_from_dt":28.37},{"city":"Ada","state_name":"Michigan","lat":42.9539,"lng":-85.47866,"zip":"49355","miles_from_dt":28.54},{"city":"Grand Rapids","state_name":"Michigan","lat":42.9984,"lng":-85.63699,"zip":"49505","miles_from_dt":28.61},{"city":"Ada","state_name":"Michigan","lat":42.95038,"lng":-85.48748,"zip":"49357","miles_from_dt":28.88},{"city":"Barryton","state_name":"Michigan","lat":43.74926,"lng":-85.15023,"zip":"49305","miles_from_dt":28.93},{"city":"Grand Rapids","state_name":"Michigan","lat":43.04591,"lng":-85.7417,"zip":"49544","miles_from_dt":29.1},{"city":"Elwell","state_name":"Michigan","lat":43.41212,"lng":-84.77767,"zip":"48832","miles_from_dt":29.2},{"city":"Weidman","state_name":"Michigan","lat":43.68329,"lng":-84.97805,"zip":"48893","miles_from_dt":29.36},{"city":"Conklin","state_name":"Michigan","lat":43.13316,"lng":-85.85022,"zip":"49403","miles_from_dt":29.48},{"city":"Ionia","state_name":"Michigan","lat":42.98611,"lng":-85.05754,"zip":"48846","miles_from_dt":29.62}],"targetCityZipCode":"49322","targetCityState":"Michigan"},"__N_SSG":true}