{"pageProps":{"stateName":"North-carolina","cityName":"banner-elk","nearbyCities":[{"city":"Valle Crucis","state_name":"North Carolina","lat":36.2076,"lng":-81.88503,"zip":"28691","miles_from_dt":2.98},{"city":"Sugar Grove","state_name":"North Carolina","lat":36.25962,"lng":-81.84207,"zip":"28679","miles_from_dt":5.7},{"city":"Elk Park","state_name":"North Carolina","lat":36.19492,"lng":-81.94899,"zip":"28622","miles_from_dt":5.81},{"city":"Linville","state_name":"North Carolina","lat":36.08261,"lng":-81.83811,"zip":"28646","miles_from_dt":6.53},{"city":"Vilas","state_name":"North Carolina","lat":36.28023,"lng":-81.79259,"zip":"28692","miles_from_dt":7.75},{"city":"Montezuma","state_name":"North Carolina","lat":36.06615,"lng":-81.90072,"zip":"28653","miles_from_dt":8.2},{"city":"Blowing Rock","state_name":"North Carolina","lat":36.13454,"lng":-81.70218,"zip":"28605","miles_from_dt":8.63},{"city":"Minneapolis","state_name":"North Carolina","lat":36.08969,"lng":-81.98656,"zip":"28652","miles_from_dt":9.84},{"city":"Boone","state_name":"North Carolina","lat":36.21163,"lng":-81.66828,"zip":"28608","miles_from_dt":10.29},{"city":"Pineola","state_name":"North Carolina","lat":36.02237,"lng":-81.89171,"zip":"28662","miles_from_dt":10.95},{"city":"Newland","state_name":"North Carolina","lat":36.02833,"lng":-81.93977,"zip":"28657","miles_from_dt":11.48},{"city":"Boone","state_name":"North Carolina","lat":36.21547,"lng":-81.64427,"zip":"28607","miles_from_dt":11.66},{"city":"Crossnore","state_name":"North Carolina","lat":36.02138,"lng":-81.93021,"zip":"28616","miles_from_dt":11.69},{"city":"Butler","state_name":"Tennessee","lat":36.33023,"lng":-81.9773,"zip":"37640","miles_from_dt":12.81},{"city":"Plumtree","state_name":"North Carolina","lat":36.04249,"lng":-82.00596,"zip":"28664","miles_from_dt":12.83},{"city":"Zionville","state_name":"North Carolina","lat":36.344,"lng":-81.73604,"zip":"28698","miles_from_dt":13.09},{"city":"Collettsville","state_name":"North Carolina","lat":36.00608,"lng":-81.73699,"zip":"28611","miles_from_dt":13.31},{"city":"Jonas Ridge","state_name":"North Carolina","lat":35.97902,"lng":-81.89684,"zip":"28641","miles_from_dt":13.93},{"city":"Roan Mountain","state_name":"Tennessee","lat":36.18667,"lng":-82.09667,"zip":"37687","miles_from_dt":13.95},{"city":"Trade","state_name":"Tennessee","lat":36.36792,"lng":-81.75519,"zip":"37691","miles_from_dt":14.14},{"city":"Linville Falls","state_name":"North Carolina","lat":35.95674,"lng":-81.94418,"zip":"28647","miles_from_dt":16.12},{"city":"Todd","state_name":"North Carolina","lat":36.33541,"lng":-81.6163,"zip":"28684","miles_from_dt":16.91},{"city":"Hampton","state_name":"Tennessee","lat":36.26352,"lng":-82.1535,"zip":"37658","miles_from_dt":18.11},{"city":"Deep Gap","state_name":"North Carolina","lat":36.20888,"lng":-81.51291,"zip":"28618","miles_from_dt":18.83},{"city":"Mountain City","state_name":"Tennessee","lat":36.45303,"lng":-81.82233,"zip":"37683","miles_from_dt":19.08},{"city":"Bakersville","state_name":"North Carolina","lat":36.04349,"lng":-82.1573,"zip":"28705","miles_from_dt":19.63},{"city":"Patterson","state_name":"North Carolina","lat":35.99851,"lng":-81.56399,"zip":"28661","miles_from_dt":20.08},{"city":"Fleetwood","state_name":"North Carolina","lat":36.29256,"lng":-81.50119,"zip":"28626","miles_from_dt":20.92},{"city":"Elizabethton","state_name":"Tennessee","lat":36.37513,"lng":-82.13729,"zip":"37643","miles_from_dt":21.18},{"city":"Lenoir","state_name":"North Carolina","lat":35.97778,"lng":-81.54371,"zip":"28645","miles_from_dt":21.86},{"city":"Spruce Pine","state_name":"North Carolina","lat":35.90833,"lng":-82.06617,"zip":"28777","miles_from_dt":22.21},{"city":"Creston","state_name":"North Carolina","lat":36.46407,"lng":-81.65368,"zip":"28615","miles_from_dt":22.55},{"city":"Penland","state_name":"North Carolina","lat":35.92802,"lng":-82.11699,"zip":"28765","miles_from_dt":22.86},{"city":"Elizabethton","state_name":"Tennessee","lat":36.3474,"lng":-82.21375,"zip":"37644","miles_from_dt":23.59},{"city":"West Jefferson","state_name":"North Carolina","lat":36.36197,"lng":-81.47465,"zip":"28694","miles_from_dt":24.41},{"city":"Ferguson","state_name":"North Carolina","lat":36.11971,"lng":-81.41327,"zip":"28624","miles_from_dt":24.6},{"city":"Shady Valley","state_name":"Tennessee","lat":36.54548,"lng":-81.88281,"zip":"37688","miles_from_dt":25.48},{"city":"Unicoi","state_name":"Tennessee","lat":36.18456,"lng":-82.30413,"zip":"37692","miles_from_dt":25.53},{"city":"Lenoir","state_name":"North Carolina","lat":35.90248,"lng":-81.53532,"zip":"28633","miles_from_dt":25.76},{"city":"Warrensville","state_name":"North Carolina","lat":36.46622,"lng":-81.55434,"zip":"28693","miles_from_dt":25.79},{"city":"Milligan College","state_name":"Tennessee","lat":36.30035,"lng":-82.29169,"zip":"37682","miles_from_dt":26.23},{"city":"Purlear","state_name":"North Carolina","lat":36.20969,"lng":-81.37392,"zip":"28665","miles_from_dt":26.56},{"city":"Little Switzerland","state_name":"North Carolina","lat":35.84098,"lng":-82.09797,"zip":"28749","miles_from_dt":27.09},{"city":"Green Mountain","state_name":"North Carolina","lat":36.04118,"lng":-82.30287,"zip":"28740","miles_from_dt":27.15},{"city":"Micaville","state_name":"North Carolina","lat":35.90825,"lng":-82.21756,"zip":"28755","miles_from_dt":27.8},{"city":"Watauga","state_name":"Tennessee","lat":36.3849,"lng":-82.27588,"zip":"37694","miles_from_dt":27.88},{"city":"Laurel Bloomery","state_name":"Tennessee","lat":36.57462,"lng":-81.72556,"zip":"37680","miles_from_dt":28.25},{"city":"Bluff City","state_name":"Tennessee","lat":36.46555,"lng":-82.20833,"zip":"37618","miles_from_dt":28.31},{"city":"Johnson City","state_name":"Tennessee","lat":36.32838,"lng":-82.31974,"zip":"37601","miles_from_dt":28.37},{"city":"Jefferson","state_name":"North Carolina","lat":36.40385,"lng":-81.40751,"zip":"28640","miles_from_dt":29.11},{"city":"Glendale Springs","state_name":"North Carolina","lat":36.34196,"lng":-81.36423,"zip":"28629","miles_from_dt":29.28},{"city":"Bristol","state_name":"Tennessee","lat":36.55124,"lng":-82.09867,"zip":"37620","miles_from_dt":29.36},{"city":"Johnson City","state_name":"Tennessee","lat":36.34731,"lng":-82.33204,"zip":"37605","miles_from_dt":29.5},{"city":"Morganton","state_name":"North Carolina","lat":35.75578,"lng":-81.74212,"zip":"28655","miles_from_dt":29.64},{"city":"Lansing","state_name":"North Carolina","lat":36.52982,"lng":-81.53486,"zip":"28643","miles_from_dt":29.93}],"targetCityZipCode":"28604","targetCityState":"North Carolina"},"__N_SSG":true}