{"pageProps":{"stateName":"North-carolina","cityName":"hollister","nearbyCities":[{"city":"Littleton","state_name":"North Carolina","lat":36.40202,"lng":-77.88141,"zip":"27850","miles_from_dt":11.44},{"city":"Warrenton","state_name":"North Carolina","lat":36.33461,"lng":-78.12819,"zip":"27589","miles_from_dt":11.72},{"city":"Castalia","state_name":"North Carolina","lat":36.10732,"lng":-78.07245,"zip":"27816","miles_from_dt":11.75},{"city":"Vaughan","state_name":"North Carolina","lat":36.42679,"lng":-78.00429,"zip":"27586","miles_from_dt":12.87},{"city":"Enfield","state_name":"North Carolina","lat":36.20616,"lng":-77.71685,"zip":"27823","miles_from_dt":13.27},{"city":"Macon","state_name":"North Carolina","lat":36.43339,"lng":-78.05231,"zip":"27551","miles_from_dt":14.17},{"city":"Red Oak","state_name":"North Carolina","lat":36.03849,"lng":-77.90884,"zip":"27868","miles_from_dt":14.46},{"city":"Whitakers","state_name":"North Carolina","lat":36.09968,"lng":-77.74103,"zip":"27891","miles_from_dt":15.39},{"city":"Nashville","state_name":"North Carolina","lat":36.00998,"lng":-77.98151,"zip":"27856","miles_from_dt":16.34},{"city":"Roanoke Rapids","state_name":"North Carolina","lat":36.43053,"lng":-77.71828,"zip":"27870","miles_from_dt":18.14},{"city":"Rocky Mount","state_name":"North Carolina","lat":35.98958,"lng":-77.84778,"zip":"27804","miles_from_dt":18.54},{"city":"Louisburg","state_name":"North Carolina","lat":36.10439,"lng":-78.24282,"zip":"27549","miles_from_dt":19.07},{"city":"Battleboro","state_name":"North Carolina","lat":36.01932,"lng":-77.74085,"zip":"27809","miles_from_dt":19.48},{"city":"Wise","state_name":"North Carolina","lat":36.47294,"lng":-78.16622,"zip":"27594","miles_from_dt":19.8},{"city":"Henrico","state_name":"North Carolina","lat":36.52458,"lng":-77.85593,"zip":"27842","miles_from_dt":19.93},{"city":"Norlina","state_name":"North Carolina","lat":36.4312,"lng":-78.23343,"zip":"27563","miles_from_dt":20.37},{"city":"Ridgeway","state_name":"North Carolina","lat":36.43861,"lng":-78.23662,"zip":"27570","miles_from_dt":20.83},{"city":"Gaston","state_name":"North Carolina","lat":36.51262,"lng":-77.72178,"zip":"27832","miles_from_dt":22.37},{"city":"Halifax","state_name":"North Carolina","lat":36.28818,"lng":-77.55009,"zip":"27839","miles_from_dt":22.49},{"city":"Ebony","state_name":"Virginia","lat":36.57048,"lng":-77.99322,"zip":"23845","miles_from_dt":22.54},{"city":"Middleburg","state_name":"North Carolina","lat":36.39869,"lng":-78.31294,"zip":"27556","miles_from_dt":22.87},{"city":"Spring Hope","state_name":"North Carolina","lat":35.94222,"lng":-78.11825,"zip":"27882","miles_from_dt":22.95},{"city":"Weldon","state_name":"North Carolina","lat":36.41505,"lng":-77.59194,"zip":"27890","miles_from_dt":23.12},{"city":"Valentines","state_name":"Virginia","lat":36.56762,"lng":-77.81658,"zip":"23887","miles_from_dt":23.41},{"city":"Gasburg","state_name":"Virginia","lat":36.58389,"lng":-77.88588,"zip":"23857","miles_from_dt":23.6},{"city":"Rocky Mount","state_name":"North Carolina","lat":35.89627,"lng":-77.85407,"zip":"27803","miles_from_dt":24.67},{"city":"Henderson","state_name":"North Carolina","lat":36.35343,"lng":-78.38887,"zip":"27537","miles_from_dt":25.63},{"city":"Manson","state_name":"North Carolina","lat":36.48047,"lng":-78.30643,"zip":"27553","miles_from_dt":25.66},{"city":"Tillery","state_name":"North Carolina","lat":36.25427,"lng":-77.48761,"zip":"27887","miles_from_dt":25.8},{"city":"Garysburg","state_name":"North Carolina","lat":36.45614,"lng":-77.56574,"zip":"27831","miles_from_dt":25.86},{"city":"Rocky Mount","state_name":"North Carolina","lat":35.91209,"lng":-77.73656,"zip":"27801","miles_from_dt":25.9},{"city":"Bracey","state_name":"Virginia","lat":36.59103,"lng":-78.13305,"zip":"23919","miles_from_dt":25.93},{"city":"Bunn","state_name":"North Carolina","lat":35.95882,"lng":-78.25105,"zip":"27508","miles_from_dt":25.99},{"city":"White Plains","state_name":"Virginia","lat":36.6244,"lng":-77.93658,"zip":"23893","miles_from_dt":26.13},{"city":"Henderson","state_name":"North Carolina","lat":36.32645,"lng":-78.40754,"zip":"27536","miles_from_dt":26.17},{"city":"Rocky Mount","state_name":"North Carolina","lat":35.92473,"lng":-77.69304,"zip":"27815","miles_from_dt":26.37},{"city":"Sharpsburg","state_name":"North Carolina","lat":35.86606,"lng":-77.83062,"zip":"27878","miles_from_dt":27},{"city":"Rocky Mount","state_name":"North Carolina","lat":35.86371,"lng":-77.84019,"zip":"27802","miles_from_dt":27.03},{"city":"Kittrell","state_name":"North Carolina","lat":36.20018,"lng":-78.44097,"zip":"27544","miles_from_dt":27.64},{"city":"La Crosse","state_name":"Virginia","lat":36.66005,"lng":-78.07699,"zip":"23950","miles_from_dt":29.45}],"targetCityZipCode":"27844","targetCityState":"North Carolina"},"__N_SSG":true}