{"pageProps":{"stateName":"North-carolina","cityName":"patterson","nearbyCities":[{"city":"Lenoir","state_name":"North Carolina","lat":35.97778,"lng":-81.54371,"zip":"28645","miles_from_dt":1.83},{"city":"Lenoir","state_name":"North Carolina","lat":35.90248,"lng":-81.53532,"zip":"28633","miles_from_dt":6.81},{"city":"Collettsville","state_name":"North Carolina","lat":36.00608,"lng":-81.73699,"zip":"28611","miles_from_dt":9.71},{"city":"Hudson","state_name":"North Carolina","lat":35.84411,"lng":-81.47701,"zip":"28638","miles_from_dt":11.71},{"city":"Ferguson","state_name":"North Carolina","lat":36.11971,"lng":-81.41327,"zip":"28624","miles_from_dt":11.88},{"city":"Blowing Rock","state_name":"North Carolina","lat":36.13454,"lng":-81.70218,"zip":"28605","miles_from_dt":12.16},{"city":"Granite Falls","state_name":"North Carolina","lat":35.82771,"lng":-81.41998,"zip":"28630","miles_from_dt":14.28},{"city":"Boomer","state_name":"North Carolina","lat":36.05346,"lng":-81.31413,"zip":"28606","miles_from_dt":14.5},{"city":"Deep Gap","state_name":"North Carolina","lat":36.20888,"lng":-81.51291,"zip":"28618","miles_from_dt":14.78},{"city":"Boone","state_name":"North Carolina","lat":36.21547,"lng":-81.64427,"zip":"28607","miles_from_dt":15.62},{"city":"Boone","state_name":"North Carolina","lat":36.21163,"lng":-81.66828,"zip":"28608","miles_from_dt":15.81},{"city":"Linville","state_name":"North Carolina","lat":36.08261,"lng":-81.83811,"zip":"28646","miles_from_dt":16.41},{"city":"Drexel","state_name":"North Carolina","lat":35.76013,"lng":-81.60674,"zip":"28619","miles_from_dt":16.61},{"city":"Rhodhiss","state_name":"North Carolina","lat":35.77423,"lng":-81.42793,"zip":"28667","miles_from_dt":17.24},{"city":"Rutherford College","state_name":"North Carolina","lat":35.7502,"lng":-81.52668,"zip":"28671","miles_from_dt":17.25},{"city":"Purlear","state_name":"North Carolina","lat":36.20969,"lng":-81.37392,"zip":"28665","miles_from_dt":18.03},{"city":"Valdese","state_name":"North Carolina","lat":35.73237,"lng":-81.5739,"zip":"28690","miles_from_dt":18.36},{"city":"Pineola","state_name":"North Carolina","lat":36.02237,"lng":-81.89171,"zip":"28662","miles_from_dt":18.43},{"city":"Jonas Ridge","state_name":"North Carolina","lat":35.97902,"lng":-81.89684,"zip":"28641","miles_from_dt":18.7},{"city":"Morganton","state_name":"North Carolina","lat":35.74378,"lng":-81.69662,"zip":"28680","miles_from_dt":19.07},{"city":"Montezuma","state_name":"North Carolina","lat":36.06615,"lng":-81.90072,"zip":"28653","miles_from_dt":19.43},{"city":"Morganton","state_name":"North Carolina","lat":35.75578,"lng":-81.74212,"zip":"28655","miles_from_dt":19.49},{"city":"Taylorsville","state_name":"North Carolina","lat":35.92185,"lng":-81.22151,"zip":"28681","miles_from_dt":19.91},{"city":"Icard","state_name":"North Carolina","lat":35.71864,"lng":-81.47057,"zip":"28666","miles_from_dt":20},{"city":"Banner Elk","state_name":"North Carolina","lat":36.17701,"lng":-81.84745,"zip":"28604","miles_from_dt":20.08},{"city":"Hickory","state_name":"North Carolina","lat":35.7729,"lng":-81.32704,"zip":"28601","miles_from_dt":20.46},{"city":"Fleetwood","state_name":"North Carolina","lat":36.29256,"lng":-81.50119,"zip":"28626","miles_from_dt":20.58},{"city":"Crossnore","state_name":"North Carolina","lat":36.02138,"lng":-81.93021,"zip":"28616","miles_from_dt":20.58},{"city":"Hildebran","state_name":"North Carolina","lat":35.71768,"lng":-81.41939,"zip":"28637","miles_from_dt":20.99},{"city":"Newland","state_name":"North Carolina","lat":36.02833,"lng":-81.93977,"zip":"28657","miles_from_dt":21.15},{"city":"Hickory","state_name":"North Carolina","lat":35.75766,"lng":-81.32733,"zip":"28603","miles_from_dt":21.26},{"city":"Linville Falls","state_name":"North Carolina","lat":35.95674,"lng":-81.94418,"zip":"28647","miles_from_dt":21.5},{"city":"Glen Alpine","state_name":"North Carolina","lat":35.72914,"lng":-81.77826,"zip":"28628","miles_from_dt":22.12},{"city":"Valle Crucis","state_name":"North Carolina","lat":36.2076,"lng":-81.88503,"zip":"28691","miles_from_dt":23.03},{"city":"Connelly Springs","state_name":"North Carolina","lat":35.6641,"lng":-81.53619,"zip":"28612","miles_from_dt":23.11},{"city":"Vilas","state_name":"North Carolina","lat":36.28023,"lng":-81.79259,"zip":"28692","miles_from_dt":23.25},{"city":"Todd","state_name":"North Carolina","lat":36.33541,"lng":-81.6163,"zip":"28684","miles_from_dt":23.41},{"city":"Moravian Falls","state_name":"North Carolina","lat":36.06338,"lng":-81.15003,"zip":"28654","miles_from_dt":23.61},{"city":"Sugar Grove","state_name":"North Carolina","lat":36.25962,"lng":-81.84207,"zip":"28679","miles_from_dt":23.79},{"city":"Wilkesboro","state_name":"North Carolina","lat":36.13666,"lng":-81.16317,"zip":"28697","miles_from_dt":24.37},{"city":"Hickory","state_name":"North Carolina","lat":35.67574,"lng":-81.38459,"zip":"28602","miles_from_dt":24.43},{"city":"Minneapolis","state_name":"North Carolina","lat":36.08969,"lng":-81.98656,"zip":"28652","miles_from_dt":24.48},{"city":"Millers Creek","state_name":"North Carolina","lat":36.27241,"lng":-81.28496,"zip":"28651","miles_from_dt":24.5},{"city":"Plumtree","state_name":"North Carolina","lat":36.04249,"lng":-82.00596,"zip":"28664","miles_from_dt":24.94},{"city":"Elk Park","state_name":"North Carolina","lat":36.19492,"lng":-81.94899,"zip":"28622","miles_from_dt":25.45},{"city":"West Jefferson","state_name":"North Carolina","lat":36.36197,"lng":-81.47465,"zip":"28694","miles_from_dt":25.55},{"city":"Zionville","state_name":"North Carolina","lat":36.344,"lng":-81.73604,"zip":"28698","miles_from_dt":25.69},{"city":"Glendale Springs","state_name":"North Carolina","lat":36.34196,"lng":-81.36423,"zip":"28629","miles_from_dt":26.18},{"city":"Conover","state_name":"North Carolina","lat":35.73978,"lng":-81.20897,"zip":"28613","miles_from_dt":26.74},{"city":"Trade","state_name":"Tennessee","lat":36.36792,"lng":-81.75519,"zip":"37691","miles_from_dt":27.62},{"city":"Hiddenite","state_name":"North Carolina","lat":35.94241,"lng":-81.06589,"zip":"28636","miles_from_dt":28.18},{"city":"Nebo","state_name":"North Carolina","lat":35.69134,"lng":-81.90714,"zip":"28761","miles_from_dt":28.63},{"city":"Spruce Pine","state_name":"North Carolina","lat":35.90833,"lng":-82.06617,"zip":"28777","miles_from_dt":28.83},{"city":"Jefferson","state_name":"North Carolina","lat":36.40385,"lng":-81.40751,"zip":"28640","miles_from_dt":29.28},{"city":"North Wilkesboro","state_name":"North Carolina","lat":36.16647,"lng":-81.07913,"zip":"28659","miles_from_dt":29.5}],"targetCityZipCode":"28661","targetCityState":"North Carolina"},"__N_SSG":true}