{"pageProps":{"stateName":"New-york","cityName":"chestertown","nearbyCities":[{"city":"Wevertown","state_name":"New York","lat":43.63689,"lng":-73.92654,"zip":"12886","miles_from_dt":5.03},{"city":"Riparius","state_name":"New York","lat":43.67419,"lng":-73.91878,"zip":"12862","miles_from_dt":5.31},{"city":"Pottersville","state_name":"New York","lat":43.72843,"lng":-73.80942,"zip":"12860","miles_from_dt":6.37},{"city":"Warrensburg","state_name":"New York","lat":43.52929,"lng":-73.83161,"zip":"12885","miles_from_dt":7.44},{"city":"Brant Lake","state_name":"New York","lat":43.70161,"lng":-73.69459,"zip":"12815","miles_from_dt":7.96},{"city":"Johnsburg","state_name":"New York","lat":43.5849,"lng":-73.97771,"zip":"12843","miles_from_dt":8.41},{"city":"Adirondack","state_name":"New York","lat":43.74782,"lng":-73.75393,"zip":"12808","miles_from_dt":8.46},{"city":"North Creek","state_name":"New York","lat":43.68816,"lng":-73.99804,"zip":"12853","miles_from_dt":9.31},{"city":"Diamond Point","state_name":"New York","lat":43.5279,"lng":-73.71386,"zip":"12824","miles_from_dt":9.4},{"city":"Bolton Landing","state_name":"New York","lat":43.6004,"lng":-73.63678,"zip":"12814","miles_from_dt":9.83},{"city":"Athol","state_name":"New York","lat":43.49862,"lng":-73.95217,"zip":"12810","miles_from_dt":11.46},{"city":"Bakers Mills","state_name":"New York","lat":43.57502,"lng":-74.07508,"zip":"12811","miles_from_dt":13.2},{"city":"Kattskill Bay","state_name":"New York","lat":43.49423,"lng":-73.64081,"zip":"12844","miles_from_dt":13.55},{"city":"Schroon Lake","state_name":"New York","lat":43.83931,"lng":-73.7625,"zip":"12870","miles_from_dt":14.33},{"city":"Silver Bay","state_name":"New York","lat":43.69035,"lng":-73.54836,"zip":"12874","miles_from_dt":14.4},{"city":"Olmstedville","state_name":"New York","lat":43.84033,"lng":-73.93354,"zip":"12857","miles_from_dt":15.03},{"city":"Hague","state_name":"New York","lat":43.74994,"lng":-73.56816,"zip":"12836","miles_from_dt":15.09},{"city":"Cleverdale","state_name":"New York","lat":43.46022,"lng":-73.64067,"zip":"12820","miles_from_dt":15.35},{"city":"Lake George","state_name":"New York","lat":43.42757,"lng":-73.70703,"zip":"12845","miles_from_dt":15.65},{"city":"Huletts Landing","state_name":"New York","lat":43.59919,"lng":-73.5165,"zip":"12841","miles_from_dt":15.75},{"city":"North River","state_name":"New York","lat":43.65531,"lng":-74.14625,"zip":"12856","miles_from_dt":16.1},{"city":"Stony Creek","state_name":"New York","lat":43.44217,"lng":-74.0479,"zip":"12878","miles_from_dt":17.46},{"city":"Severance","state_name":"New York","lat":43.8839,"lng":-73.72309,"zip":"12872","miles_from_dt":17.81},{"city":"Clemons","state_name":"New York","lat":43.61144,"lng":-73.46315,"zip":"12819","miles_from_dt":18.29},{"city":"Minerva","state_name":"New York","lat":43.85171,"lng":-74.06211,"zip":"12851","miles_from_dt":18.95},{"city":"Paradox","state_name":"New York","lat":43.88899,"lng":-73.6703,"zip":"12858","miles_from_dt":19.07},{"city":"Fort Ann","state_name":"New York","lat":43.44917,"lng":-73.51241,"zip":"12827","miles_from_dt":20.4},{"city":"Lake Luzerne","state_name":"New York","lat":43.34022,"lng":-73.80592,"zip":"12846","miles_from_dt":20.51},{"city":"Ticonderoga","state_name":"New York","lat":43.85291,"lng":-73.50786,"zip":"12883","miles_from_dt":21.82},{"city":"Queensbury","state_name":"New York","lat":43.3375,"lng":-73.68307,"zip":"12804","miles_from_dt":21.89},{"city":"Putnam Station","state_name":"New York","lat":43.74982,"lng":-73.41502,"zip":"12861","miles_from_dt":22.02},{"city":"Hadley","state_name":"New York","lat":43.32496,"lng":-74.00589,"zip":"12835","miles_from_dt":23.36},{"city":"Whitehall","state_name":"New York","lat":43.54504,"lng":-73.37471,"zip":"12887","miles_from_dt":23.52},{"city":"Indian Lake","state_name":"New York","lat":43.75058,"lng":-74.2746,"zip":"12842","miles_from_dt":23.79},{"city":"Comstock","state_name":"New York","lat":43.45866,"lng":-73.41332,"zip":"12821","miles_from_dt":24.11},{"city":"Glens Falls","state_name":"New York","lat":43.31097,"lng":-73.64545,"zip":"12801","miles_from_dt":24.27},{"city":"Hudson Falls","state_name":"New York","lat":43.34496,"lng":-73.55058,"zip":"12839","miles_from_dt":24.46},{"city":"Sabael","state_name":"New York","lat":43.72733,"lng":-74.3054,"zip":"12864","miles_from_dt":24.81},{"city":"Wells","state_name":"New York","lat":43.47359,"lng":-74.2733,"zip":"12190","miles_from_dt":25.13},{"city":"North Hudson","state_name":"New York","lat":44.00121,"lng":-73.79762,"zip":"12855","miles_from_dt":25.19},{"city":"South Glens Falls","state_name":"New York","lat":43.28891,"lng":-73.63024,"zip":"12803","miles_from_dt":25.97},{"city":"Fair Haven","state_name":"Vermont","lat":43.67118,"lng":-73.30726,"zip":"05743","miles_from_dt":26.12},{"city":"Crown Point","state_name":"New York","lat":43.9539,"lng":-73.52898,"zip":"12928","miles_from_dt":26.45},{"city":"Corinth","state_name":"New York","lat":43.2407,"lng":-73.88959,"zip":"12822","miles_from_dt":27.54},{"city":"Benson","state_name":"Vermont","lat":43.7532,"lng":-73.28857,"zip":"05731","miles_from_dt":28.1},{"city":"North Granville","state_name":"New York","lat":43.45019,"lng":-73.32767,"zip":"12854","miles_from_dt":28.16},{"city":"Orwell","state_name":"Vermont","lat":43.80359,"lng":-73.29517,"zip":"05760","miles_from_dt":28.97},{"city":"Newcomb","state_name":"New York","lat":43.99293,"lng":-74.13598,"zip":"12852","miles_from_dt":29.05},{"city":"Hartford","state_name":"New York","lat":43.34354,"lng":-73.40756,"zip":"12838","miles_from_dt":29.21},{"city":"Fort Edward","state_name":"New York","lat":43.25534,"lng":-73.56841,"zip":"12828","miles_from_dt":29.36},{"city":"Hampton","state_name":"New York","lat":43.50842,"lng":-73.26651,"zip":"12837","miles_from_dt":29.46},{"city":"Middle Granville","state_name":"New York","lat":43.44812,"lng":-73.2985,"zip":"12849","miles_from_dt":29.53}],"targetCityZipCode":"12817","targetCityState":"New York"},"__N_SSG":true}