{"pageProps":{"stateName":"New-york","cityName":"croton-falls","nearbyCities":[{"city":"Somers","state_name":"New York","lat":41.33178,"lng":-73.6933,"zip":"10589","miles_from_dt":1.94},{"city":"Purdys","state_name":"New York","lat":41.31815,"lng":-73.673,"zip":"10578","miles_from_dt":2.07},{"city":"North Salem","state_name":"New York","lat":41.33303,"lng":-73.60264,"zip":"10560","miles_from_dt":3.23},{"city":"Goldens Bridge","state_name":"New York","lat":41.29388,"lng":-73.66171,"zip":"10526","miles_from_dt":3.67},{"city":"Lincolndale","state_name":"New York","lat":41.32575,"lng":-73.72745,"zip":"10540","miles_from_dt":3.71},{"city":"Shenorock","state_name":"New York","lat":41.32713,"lng":-73.73674,"zip":"10587","miles_from_dt":4.12},{"city":"Baldwin Place","state_name":"New York","lat":41.34207,"lng":-73.74791,"zip":"10505","miles_from_dt":4.48},{"city":"Waccabuc","state_name":"New York","lat":41.29423,"lng":-73.59703,"zip":"10597","miles_from_dt":4.97},{"city":"Mahopac","state_name":"New York","lat":41.37855,"lng":-73.75122,"zip":"10541","miles_from_dt":5.13},{"city":"Katonah","state_name":"New York","lat":41.26971,"lng":-73.68943,"zip":"10536","miles_from_dt":5.52},{"city":"Mahopac Falls","state_name":"New York","lat":41.37115,"lng":-73.76436,"zip":"10542","miles_from_dt":5.58},{"city":"Granite Springs","state_name":"New York","lat":41.3195,"lng":-73.76502,"zip":"10527","miles_from_dt":5.69},{"city":"Brewster","state_name":"New York","lat":41.41205,"lng":-73.5937,"zip":"10509","miles_from_dt":5.72},{"city":"Amawalk","state_name":"New York","lat":41.2954,"lng":-73.76006,"zip":"10501","miles_from_dt":6.22},{"city":"Cross River","state_name":"New York","lat":41.26787,"lng":-73.60073,"zip":"10518","miles_from_dt":6.32},{"city":"Jefferson Valley","state_name":"New York","lat":41.33536,"lng":-73.79965,"zip":"10535","miles_from_dt":7.21},{"city":"Carmel","state_name":"New York","lat":41.4483,"lng":-73.71054,"zip":"10512","miles_from_dt":7.43},{"city":"Yorktown Heights","state_name":"New York","lat":41.28309,"lng":-73.79516,"zip":"10598","miles_from_dt":8.22},{"city":"Bedford Hills","state_name":"New York","lat":41.22879,"lng":-73.6878,"zip":"10507","miles_from_dt":8.27},{"city":"Shrub Oak","state_name":"New York","lat":41.33222,"lng":-73.82624,"zip":"10588","miles_from_dt":8.6},{"city":"Ridgefield","state_name":"Connecticut","lat":41.30642,"lng":-73.50216,"zip":"06877","miles_from_dt":8.77},{"city":"South Salem","state_name":"New York","lat":41.25421,"lng":-73.53719,"zip":"10590","miles_from_dt":9.12},{"city":"Putnam Valley","state_name":"New York","lat":41.39651,"lng":-73.83384,"zip":"10579","miles_from_dt":9.57},{"city":"Mohegan Lake","state_name":"New York","lat":41.31178,"lng":-73.84637,"zip":"10547","miles_from_dt":9.9},{"city":"Ridgefield","state_name":"Connecticut","lat":41.27254,"lng":-73.49702,"zip":"06879","miles_from_dt":10},{"city":"Pound Ridge","state_name":"New York","lat":41.21323,"lng":-73.57289,"zip":"10576","miles_from_dt":10.33},{"city":"Mount Kisco","state_name":"New York","lat":41.19981,"lng":-73.72028,"zip":"10549","miles_from_dt":10.6},{"city":"Danbury","state_name":"Connecticut","lat":41.37627,"lng":-73.45904,"zip":"06810","miles_from_dt":10.74},{"city":"Danbury","state_name":"Connecticut","lat":41.42427,"lng":-73.4821,"zip":"06811","miles_from_dt":10.76},{"city":"Patterson","state_name":"New York","lat":41.49417,"lng":-73.5891,"zip":"12563","miles_from_dt":10.84},{"city":"Crompond","state_name":"New York","lat":41.29837,"lng":-73.86013,"zip":"10517","miles_from_dt":10.84},{"city":"Bedford","state_name":"New York","lat":41.1889,"lng":-73.63411,"zip":"10506","miles_from_dt":11.01},{"city":"Danbury","state_name":"Connecticut","lat":41.39777,"lng":-73.45523,"zip":"06813","miles_from_dt":11.3},{"city":"Lake Peekskill","state_name":"New York","lat":41.33784,"lng":-73.88528,"zip":"10537","miles_from_dt":11.63},{"city":"Millwood","state_name":"New York","lat":41.19472,"lng":-73.8002,"zip":"10546","miles_from_dt":12.74},{"city":"Cortlandt Manor","state_name":"New York","lat":41.28922,"lng":-73.89633,"zip":"10567","miles_from_dt":12.83},{"city":"Holmes","state_name":"New York","lat":41.53689,"lng":-73.66917,"zip":"12531","miles_from_dt":13.11},{"city":"Chappaqua","state_name":"New York","lat":41.17331,"lng":-73.77071,"zip":"10514","miles_from_dt":13.26},{"city":"New Fairfield","state_name":"Connecticut","lat":41.48796,"lng":-73.48827,"zip":"06812","miles_from_dt":13.27},{"city":"Georgetown","state_name":"Connecticut","lat":41.25759,"lng":-73.43245,"zip":"06829","miles_from_dt":13.44},{"city":"Garrison","state_name":"New York","lat":41.37076,"lng":-73.92201,"zip":"10524","miles_from_dt":13.62},{"city":"Ossining","state_name":"New York","lat":41.19295,"lng":-73.8305,"zip":"10562","miles_from_dt":13.79},{"city":"Peekskill","state_name":"New York","lat":41.28924,"lng":-73.91837,"zip":"10566","miles_from_dt":13.92},{"city":"Croton On Hudson","state_name":"New York","lat":41.22183,"lng":-73.87348,"zip":"10520","miles_from_dt":13.99},{"city":"Bethel","state_name":"Connecticut","lat":41.37468,"lng":-73.39275,"zip":"06801","miles_from_dt":14.13},{"city":"Stormville","state_name":"New York","lat":41.54693,"lng":-73.72919,"zip":"12582","miles_from_dt":14.23},{"city":"Redding","state_name":"Connecticut","lat":41.3051,"lng":-73.39139,"zip":"06896","miles_from_dt":14.37},{"city":"Cold Spring","state_name":"New York","lat":41.45342,"lng":-73.90233,"zip":"10516","miles_from_dt":14.49},{"city":"Maryknoll","state_name":"New York","lat":41.17861,"lng":-73.83547,"zip":"10545","miles_from_dt":14.72},{"city":"Wilton","state_name":"Connecticut","lat":41.20705,"lng":-73.44009,"zip":"06897","miles_from_dt":15.06},{"city":"Armonk","state_name":"New York","lat":41.13065,"lng":-73.70629,"zip":"10504","miles_from_dt":15.11},{"city":"Redding Center","state_name":"Connecticut","lat":41.32404,"lng":-73.37014,"zip":"06875","miles_from_dt":15.26},{"city":"Stamford","state_name":"Connecticut","lat":41.13571,"lng":-73.57207,"zip":"06903","miles_from_dt":15.31},{"city":"New Canaan","state_name":"Connecticut","lat":41.15925,"lng":-73.49916,"zip":"06840","miles_from_dt":15.48},{"city":"Croton On Hudson","state_name":"New York","lat":41.23452,"lng":-73.92434,"zip":"10521","miles_from_dt":15.71},{"city":"Buchanan","state_name":"New York","lat":41.26302,"lng":-73.94391,"zip":"10511","miles_from_dt":15.78},{"city":"Montrose","state_name":"New York","lat":41.24599,"lng":-73.93643,"zip":"10548","miles_from_dt":15.89},{"city":"Redding Ridge","state_name":"Connecticut","lat":41.31964,"lng":-73.35588,"zip":"06876","miles_from_dt":16.03},{"city":"Hopewell Junction","state_name":"New York","lat":41.55925,"lng":-73.79401,"zip":"12533","miles_from_dt":16.17},{"city":"Brookfield","state_name":"Connecticut","lat":41.46731,"lng":-73.39232,"zip":"06804","miles_from_dt":16.28},{"city":"West Point","state_name":"New York","lat":41.38996,"lng":-73.97257,"zip":"10996","miles_from_dt":16.42},{"city":"Pawling","state_name":"New York","lat":41.57827,"lng":-73.5862,"zip":"12564","miles_from_dt":16.44},{"city":"Pleasantville","state_name":"New York","lat":41.12854,"lng":-73.78917,"zip":"10570","miles_from_dt":16.47},{"city":"Verplanck","state_name":"New York","lat":41.25552,"lng":-73.95854,"zip":"10596","miles_from_dt":16.68},{"city":"Briarcliff Manor","state_name":"New York","lat":41.14152,"lng":-73.83411,"zip":"10510","miles_from_dt":16.78},{"city":"Thornwood","state_name":"New York","lat":41.11579,"lng":-73.771,"zip":"10594","miles_from_dt":16.94},{"city":"Hawleyville","state_name":"Connecticut","lat":41.43302,"lng":-73.35369,"zip":"06440","miles_from_dt":17.08},{"city":"Weston","state_name":"Connecticut","lat":41.22842,"lng":-73.37256,"zip":"06883","miles_from_dt":17.14},{"city":"Bear Mountain","state_name":"New York","lat":41.30798,"lng":-73.99243,"zip":"10911","miles_from_dt":17.4},{"city":"Fort Montgomery","state_name":"New York","lat":41.32794,"lng":-73.99604,"zip":"10922","miles_from_dt":17.43},{"city":"Fishkill","state_name":"New York","lat":41.53092,"lng":-73.89245,"zip":"12524","miles_from_dt":17.45},{"city":"Highland Falls","state_name":"New York","lat":41.3457,"lng":-74.00265,"zip":"10928","miles_from_dt":17.72},{"city":"Greenwich","state_name":"Connecticut","lat":41.08782,"lng":-73.66078,"zip":"06831","miles_from_dt":17.89},{"city":"Tomkins Cove","state_name":"New York","lat":41.27917,"lng":-73.99445,"zip":"10986","miles_from_dt":17.92},{"city":"Stamford","state_name":"Connecticut","lat":41.09997,"lng":-73.55154,"zip":"06914","miles_from_dt":17.99},{"city":"Newtown","state_name":"Connecticut","lat":41.3943,"lng":-73.31918,"zip":"06470","miles_from_dt":18.12},{"city":"Sherman","state_name":"Connecticut","lat":41.58018,"lng":-73.49853,"zip":"06784","miles_from_dt":18.19},{"city":"Beacon","state_name":"New York","lat":41.49637,"lng":-73.95351,"zip":"12508","miles_from_dt":18.32},{"city":"Stamford","state_name":"Connecticut","lat":41.1021,"lng":-73.52033,"zip":"06907","miles_from_dt":18.44},{"city":"Glenham","state_name":"New York","lat":41.51931,"lng":-73.93703,"zip":"12527","miles_from_dt":18.59},{"city":"Hawthorne","state_name":"New York","lat":41.09873,"lng":-73.80066,"zip":"10532","miles_from_dt":18.6},{"city":"West Haverstraw","state_name":"New York","lat":41.21011,"lng":-73.97565,"zip":"10993","miles_from_dt":18.87},{"city":"Norwalk","state_name":"Connecticut","lat":41.13047,"lng":-73.44044,"zip":"06858","miles_from_dt":18.88},{"city":"Cornwall On Hudson","state_name":"New York","lat":41.43362,"lng":-74.00693,"zip":"12520","miles_from_dt":18.9},{"city":"Stamford","state_name":"Connecticut","lat":41.08792,"lng":-73.54351,"zip":"06905","miles_from_dt":18.91},{"city":"West Point","state_name":"New York","lat":41.3615,"lng":-74.02705,"zip":"10997","miles_from_dt":19.01},{"city":"Norwalk","state_name":"Connecticut","lat":41.1263,"lng":-73.44316,"zip":"06850","miles_from_dt":19.02},{"city":"Valhalla","state_name":"New York","lat":41.08626,"lng":-73.78097,"zip":"10595","miles_from_dt":19.03},{"city":"Poughquag","state_name":"New York","lat":41.62377,"lng":-73.66983,"zip":"12570","miles_from_dt":19.1},{"city":"Haverstraw","state_name":"New York","lat":41.19263,"lng":-73.96735,"zip":"10927","miles_from_dt":19.14},{"city":"Congers","state_name":"New York","lat":41.15477,"lng":-73.9393,"zip":"10920","miles_from_dt":19.61},{"city":"Norwalk","state_name":"Connecticut","lat":41.13948,"lng":-73.40387,"zip":"06851","miles_from_dt":19.64},{"city":"Easton","state_name":"Connecticut","lat":41.26493,"lng":-73.30006,"zip":"06612","miles_from_dt":19.67},{"city":"Bridgewater","state_name":"Connecticut","lat":41.52082,"lng":-73.35965,"zip":"06752","miles_from_dt":19.76},{"city":"Castle Point","state_name":"New York","lat":41.52822,"lng":-73.96344,"zip":"12511","miles_from_dt":20.04},{"city":"Cornwall","state_name":"New York","lat":41.41847,"lng":-74.03571,"zip":"12518","miles_from_dt":20.04},{"city":"Cos Cob","state_name":"Connecticut","lat":41.0611,"lng":-73.59215,"zip":"06807","miles_from_dt":20.06},{"city":"West Harrison","state_name":"New York","lat":41.06013,"lng":-73.73955,"zip":"10604","miles_from_dt":20.21},{"city":"Garnerville","state_name":"New York","lat":41.20265,"lng":-74.00031,"zip":"10923","miles_from_dt":20.24},{"city":"Stamford","state_name":"Connecticut","lat":41.07244,"lng":-73.52217,"zip":"06906","miles_from_dt":20.3},{"city":"Norwalk","state_name":"Connecticut","lat":41.0864,"lng":-73.47559,"zip":"06860","miles_from_dt":20.44},{"city":"Norwalk","state_name":"Connecticut","lat":41.11103,"lng":-73.42261,"zip":"06856","miles_from_dt":20.51},{"city":"Tarrytown","state_name":"New York","lat":41.08436,"lng":-73.84653,"zip":"10591","miles_from_dt":20.52},{"city":"Darien","state_name":"Connecticut","lat":41.07983,"lng":-73.48242,"zip":"06820","miles_from_dt":20.68},{"city":"Stamford","state_name":"Connecticut","lat":41.05949,"lng":-73.54751,"zip":"06902","miles_from_dt":20.72},{"city":"Greenwich","state_name":"Connecticut","lat":41.048,"lng":-73.624,"zip":"06830","miles_from_dt":20.73},{"city":"Wappingers Falls","state_name":"New York","lat":41.59559,"lng":-73.88774,"zip":"12590","miles_from_dt":20.78},{"city":"Thiells","state_name":"New York","lat":41.20928,"lng":-74.02008,"zip":"10984","miles_from_dt":20.93},{"city":"Valley Cottage","state_name":"New York","lat":41.12479,"lng":-73.93632,"zip":"10989","miles_from_dt":20.96},{"city":"Norwalk","state_name":"Connecticut","lat":41.09475,"lng":-73.43407,"zip":"06857","miles_from_dt":21.07},{"city":"Stamford","state_name":"Connecticut","lat":41.05512,"lng":-73.54068,"zip":"06912","miles_from_dt":21.11},{"city":"Westport","state_name":"Connecticut","lat":41.14237,"lng":-73.36012,"zip":"06889","miles_from_dt":21.13},{"city":"Westport","state_name":"Connecticut","lat":41.13776,"lng":-73.36503,"zip":"06881","miles_from_dt":21.16},{"city":"White Plains","state_name":"New York","lat":41.05364,"lng":-73.78014,"zip":"10603","miles_from_dt":21.16},{"city":"Stamford","state_name":"Connecticut","lat":41.05349,"lng":-73.53845,"zip":"06901","miles_from_dt":21.25},{"city":"Chelsea","state_name":"New York","lat":41.5542,"lng":-73.96471,"zip":"12512","miles_from_dt":21.25},{"city":"Hughsonville","state_name":"New York","lat":41.58315,"lng":-73.92722,"zip":"12537","miles_from_dt":21.33},{"city":"Stamford","state_name":"Connecticut","lat":41.05114,"lng":-73.54054,"zip":"06904","miles_from_dt":21.38},{"city":"Norwalk","state_name":"Connecticut","lat":41.09148,"lng":-73.42972,"zip":"06854","miles_from_dt":21.39},{"city":"Newburgh","state_name":"New York","lat":41.5086,"lng":-74.01337,"zip":"12555","miles_from_dt":21.39},{"city":"Elmsford","state_name":"New York","lat":41.06005,"lng":-73.81859,"zip":"10523","miles_from_dt":21.42},{"city":"Stamford","state_name":"Connecticut","lat":41.05007,"lng":-73.53897,"zip":"06913","miles_from_dt":21.47},{"city":"Purchase","state_name":"New York","lat":41.03755,"lng":-73.71349,"zip":"10577","miles_from_dt":21.52},{"city":"Westport","state_name":"Connecticut","lat":41.14379,"lng":-73.34698,"zip":"06880","miles_from_dt":21.58},{"city":"New Milford","state_name":"Connecticut","lat":41.60011,"lng":-73.4162,"zip":"06776","miles_from_dt":21.63},{"city":"Norwalk","state_name":"Connecticut","lat":41.0936,"lng":-73.41726,"zip":"06852","miles_from_dt":21.64},{"city":"Stamford","state_name":"Connecticut","lat":41.04444,"lng":-73.54963,"zip":"06910","miles_from_dt":21.69},{"city":"Stamford","state_name":"Connecticut","lat":41.04136,"lng":-73.56248,"zip":"06911","miles_from_dt":21.72},{"city":"New City","state_name":"New York","lat":41.15562,"lng":-73.99314,"zip":"10956","miles_from_dt":21.72},{"city":"Vails Gate","state_name":"New York","lat":41.46623,"lng":-74.04924,"zip":"12584","miles_from_dt":21.74},{"city":"Stamford","state_name":"Connecticut","lat":41.04383,"lng":-73.54811,"zip":"06927","miles_from_dt":21.75},{"city":"Mountainville","state_name":"New York","lat":41.40581,"lng":-74.07783,"zip":"10953","miles_from_dt":21.99},{"city":"Stamford","state_name":"Connecticut","lat":41.04026,"lng":-73.54805,"zip":"06926","miles_from_dt":21.99},{"city":"Stony Point","state_name":"New York","lat":41.23157,"lng":-74.05709,"zip":"10980","miles_from_dt":22.06},{"city":"Sandy Hook","state_name":"Connecticut","lat":41.4067,"lng":-73.24474,"zip":"06482","miles_from_dt":22.07},{"city":"Riverside","state_name":"Connecticut","lat":41.03191,"lng":-73.58283,"zip":"06878","miles_from_dt":22.13},{"city":"Wingdale","state_name":"New York","lat":41.66049,"lng":-73.56004,"zip":"12594","miles_from_dt":22.27},{"city":"White Plains","state_name":"New York","lat":41.03288,"lng":-73.7648,"zip":"10601","miles_from_dt":22.33},{"city":"White Plains","state_name":"New York","lat":41.03221,"lng":-73.76525,"zip":"10602","miles_from_dt":22.38},{"city":"Norwalk","state_name":"Connecticut","lat":41.06962,"lng":-73.43775,"zip":"06853","miles_from_dt":22.43},{"city":"Greenwich","state_name":"Connecticut","lat":41.02276,"lng":-73.62845,"zip":"06836","miles_from_dt":22.44},{"city":"Old Greenwich","state_name":"Connecticut","lat":41.02881,"lng":-73.56964,"zip":"06870","miles_from_dt":22.48},{"city":"Nyack","state_name":"New York","lat":41.08892,"lng":-73.92642,"zip":"10960","miles_from_dt":22.52},{"city":"Norwalk","state_name":"Connecticut","lat":41.08922,"lng":-73.39615,"zip":"06855","miles_from_dt":22.55},{"city":"Lagrangeville","state_name":"New York","lat":41.67073,"lng":-73.72524,"zip":"12540","miles_from_dt":22.58},{"city":"White Plains","state_name":"New York","lat":41.03949,"lng":-73.81214,"zip":"10607","miles_from_dt":22.62},{"city":"Westport","state_name":"Connecticut","lat":41.12005,"lng":-73.34642,"zip":"06888","miles_from_dt":22.7},{"city":"Monroe","state_name":"Connecticut","lat":41.33791,"lng":-73.22499,"zip":"06468","miles_from_dt":22.73},{"city":"New Windsor","state_name":"New York","lat":41.46146,"lng":-74.07311,"zip":"12553","miles_from_dt":22.78},{"city":"Port Chester","state_name":"New York","lat":41.01676,"lng":-73.67735,"zip":"10573","miles_from_dt":22.8},{"city":"Gaylordsville","state_name":"Connecticut","lat":41.64915,"lng":-73.48143,"zip":"06755","miles_from_dt":22.86},{"city":"South Britain","state_name":"Connecticut","lat":41.46967,"lng":-73.25173,"zip":"06487","miles_from_dt":22.93},{"city":"Billings","state_name":"New York","lat":41.67232,"lng":-73.76247,"zip":"12510","miles_from_dt":23.05},{"city":"Fairfield","state_name":"Connecticut","lat":41.21827,"lng":-73.25276,"zip":"06828","miles_from_dt":23.08},{"city":"Fairfield","state_name":"Connecticut","lat":41.17571,"lng":-73.28111,"zip":"06824","miles_from_dt":23.09},{"city":"White Plains","state_name":"New York","lat":41.02065,"lng":-73.77588,"zip":"10606","miles_from_dt":23.29},{"city":"Botsford","state_name":"Connecticut","lat":41.36182,"lng":-73.21362,"zip":"06404","miles_from_dt":23.34},{"city":"Highland Mills","state_name":"New York","lat":41.3667,"lng":-74.11035,"zip":"10930","miles_from_dt":23.35},{"city":"Central Valley","state_name":"New York","lat":41.31851,"lng":-74.11094,"zip":"10917","miles_from_dt":23.44},{"city":"Irvington","state_name":"New York","lat":41.03826,"lng":-73.8556,"zip":"10533","miles_from_dt":23.58},{"city":"Hartsdale","state_name":"New York","lat":41.02304,"lng":-73.80764,"zip":"10530","miles_from_dt":23.61},{"city":"Roxbury","state_name":"Connecticut","lat":41.55424,"lng":-73.29998,"zip":"06783","miles_from_dt":23.62},{"city":"Greens Farms","state_name":"Connecticut","lat":41.12294,"lng":-73.31809,"zip":"06838","miles_from_dt":23.66},{"city":"West Nyack","state_name":"New York","lat":41.09702,"lng":-73.97322,"zip":"10994","miles_from_dt":23.68},{"city":"White Plains","state_name":"New York","lat":41.0095,"lng":-73.74518,"zip":"10605","miles_from_dt":23.69},{"city":"White Plains","state_name":"New York","lat":41.02248,"lng":-73.81261,"zip":"10610","miles_from_dt":23.73},{"city":"Pomona","state_name":"New York","lat":41.1852,"lng":-74.06568,"zip":"10970","miles_from_dt":23.8},{"city":"Southport","state_name":"Connecticut","lat":41.14639,"lng":-73.28944,"zip":"06890","miles_from_dt":23.84},{"city":"Southbury","state_name":"Connecticut","lat":41.47451,"lng":-73.23288,"zip":"06488","miles_from_dt":23.97},{"city":"Newburgh","state_name":"New York","lat":41.54077,"lng":-74.04673,"zip":"12551","miles_from_dt":24.04},{"city":"Newburgh","state_name":"New York","lat":41.53802,"lng":-74.04901,"zip":"12552","miles_from_dt":24.04},{"city":"Newburgh","state_name":"New York","lat":41.53671,"lng":-74.05196,"zip":"12550","miles_from_dt":24.11},{"city":"Salisbury Mills","state_name":"New York","lat":41.42048,"lng":-74.11678,"zip":"12577","miles_from_dt":24.18},{"city":"Fairfield","state_name":"Connecticut","lat":41.19685,"lng":-73.24221,"zip":"06825","miles_from_dt":24.19},{"city":"Trumbull","state_name":"Connecticut","lat":41.26009,"lng":-73.20823,"zip":"06611","miles_from_dt":24.36},{"city":"Blauvelt","state_name":"New York","lat":41.06845,"lng":-73.95574,"zip":"10913","miles_from_dt":24.57},{"city":"Ardsley On Hudson","state_name":"New York","lat":41.02654,"lng":-73.8753,"zip":"10503","miles_from_dt":24.75},{"city":"Stevenson","state_name":"Connecticut","lat":41.3814,"lng":-73.18774,"zip":"06491","miles_from_dt":24.77},{"city":"Ardsley","state_name":"New York","lat":41.01126,"lng":-73.8409,"zip":"10502","miles_from_dt":24.98},{"city":"Nanuet","state_name":"New York","lat":41.09969,"lng":-74.01269,"zip":"10954","miles_from_dt":25},{"city":"Marlboro","state_name":"New York","lat":41.60772,"lng":-73.99666,"zip":"12542","miles_from_dt":25.01},{"city":"Piermont","state_name":"New York","lat":41.03976,"lng":-73.91804,"zip":"10968","miles_from_dt":25.05},{"city":"Arden","state_name":"New York","lat":41.2773,"lng":-74.13625,"zip":"10910","miles_from_dt":25.14},{"city":"Harriman","state_name":"New York","lat":41.25856,"lng":-74.1307,"zip":"10926","miles_from_dt":25.14},{"city":"Poughkeepsie","state_name":"New York","lat":41.67816,"lng":-73.86744,"zip":"12603","miles_from_dt":25.22},{"city":"Bridgeport","state_name":"Connecticut","lat":41.21218,"lng":-73.20829,"zip":"06606","miles_from_dt":25.38},{"city":"Dobbs Ferry","state_name":"New York","lat":41.01221,"lng":-73.8646,"zip":"10522","miles_from_dt":25.4},{"city":"Rye","state_name":"New York","lat":40.97854,"lng":-73.69258,"zip":"10580","miles_from_dt":25.48},{"city":"Spring Valley","state_name":"New York","lat":41.11749,"lng":-74.04825,"zip":"10977","miles_from_dt":25.61},{"city":"Scarsdale","state_name":"New York","lat":40.98916,"lng":-73.79443,"zip":"10583","miles_from_dt":25.64},{"city":"Harrison","state_name":"New York","lat":40.97819,"lng":-73.72306,"zip":"10528","miles_from_dt":25.65},{"city":"Orangeburg","state_name":"New York","lat":41.04857,"lng":-73.96057,"zip":"10962","miles_from_dt":25.81},{"city":"Sparkill","state_name":"New York","lat":41.02871,"lng":-73.92594,"zip":"10976","miles_from_dt":25.92},{"city":"Verbank","state_name":"New York","lat":41.72396,"lng":-73.7025,"zip":"12585","miles_from_dt":26.1},{"city":"Palisades","state_name":"New York","lat":41.01642,"lng":-73.91431,"zip":"10964","miles_from_dt":26.34},{"city":"Bridgeport","state_name":"Connecticut","lat":41.16348,"lng":-73.21763,"zip":"06605","miles_from_dt":26.38},{"city":"Poughkeepsie","state_name":"New York","lat":41.68844,"lng":-73.89448,"zip":"12604","miles_from_dt":26.47},{"city":"Dover Plains","state_name":"New York","lat":41.72693,"lng":-73.58893,"zip":"12522","miles_from_dt":26.49},{"city":"Tappan","state_name":"New York","lat":41.02747,"lng":-73.94826,"zip":"10983","miles_from_dt":26.63},{"city":"Bridgeport","state_name":"Connecticut","lat":41.17645,"lng":-73.20293,"zip":"06601","miles_from_dt":26.64},{"city":"Washingtonville","state_name":"New York","lat":41.42648,"lng":-74.16567,"zip":"10992","miles_from_dt":26.75},{"city":"Bridgeport","state_name":"Connecticut","lat":41.17684,"lng":-73.20027,"zip":"06604","miles_from_dt":26.76},{"city":"Bridgeport","state_name":"Connecticut","lat":41.17365,"lng":-73.20047,"zip":"06602","miles_from_dt":26.84},{"city":"Pearl River","state_name":"New York","lat":41.06176,"lng":-74.01286,"zip":"10965","miles_from_dt":26.87},{"city":"Hastings On Hudson","state_name":"New York","lat":40.99047,"lng":-73.86951,"zip":"10706","miles_from_dt":26.88},{"city":"Milton","state_name":"New York","lat":41.65463,"lng":-73.98322,"zip":"12547","miles_from_dt":26.99},{"city":"Monsey","state_name":"New York","lat":41.11385,"lng":-74.07975,"zip":"10952","miles_from_dt":27.07},{"city":"Southfields","state_name":"New York","lat":41.25951,"lng":-74.17042,"zip":"10975","miles_from_dt":27.14},{"city":"Washington Depot","state_name":"Connecticut","lat":41.64932,"lng":-73.32511,"zip":"06794","miles_from_dt":27.22},{"city":"South Kent","state_name":"Connecticut","lat":41.70491,"lng":-73.43815,"zip":"06785","miles_from_dt":27.29},{"city":"Bridgeport","state_name":"Connecticut","lat":41.18675,"lng":-73.1809,"zip":"06608","miles_from_dt":27.38},{"city":"Shelton","state_name":"Connecticut","lat":41.30601,"lng":-73.13828,"zip":"06484","miles_from_dt":27.39},{"city":"Rock Tavern","state_name":"New York","lat":41.48514,"lng":-74.15714,"zip":"12575","miles_from_dt":27.43},{"city":"Bridgeport","state_name":"Connecticut","lat":41.20457,"lng":-73.16933,"zip":"06610","miles_from_dt":27.47},{"city":"Mamaroneck","state_name":"New York","lat":40.95274,"lng":-73.73645,"zip":"10543","miles_from_dt":27.48},{"city":"Washington","state_name":"Connecticut","lat":41.63089,"lng":-73.28835,"zip":"06793","miles_from_dt":27.56},{"city":"Monroe","state_name":"New York","lat":41.33,"lng":-74.19219,"zip":"10949","miles_from_dt":27.6},{"city":"Pleasant Valley","state_name":"New York","lat":41.7346,"lng":-73.79731,"zip":"12569","miles_from_dt":27.65},{"city":"Northvale","state_name":"New Jersey","lat":41.00674,"lng":-73.94255,"zip":"07647","miles_from_dt":27.67},{"city":"Plattekill","state_name":"New York","lat":41.61227,"lng":-74.06228,"zip":"12568","miles_from_dt":27.69},{"city":"Suffern","state_name":"New York","lat":41.14554,"lng":-74.12504,"zip":"10901","miles_from_dt":27.84},{"city":"Woodbury","state_name":"Connecticut","lat":41.56149,"lng":-73.20703,"zip":"06798","miles_from_dt":27.87},{"city":"Yonkers","state_name":"New York","lat":40.96732,"lng":-73.84739,"zip":"10710","miles_from_dt":27.93},{"city":"Poughkeepsie","state_name":"New York","lat":41.70602,"lng":-73.91119,"zip":"12601","miles_from_dt":27.94},{"city":"Monroe","state_name":"New York","lat":41.31919,"lng":-74.19825,"zip":"10950","miles_from_dt":27.96},{"city":"Oxford","state_name":"Connecticut","lat":41.43133,"lng":-73.13499,"zip":"06478","miles_from_dt":28},{"city":"Tuckahoe","state_name":"New York","lat":40.95961,"lng":-73.82291,"zip":"10707","miles_from_dt":28.02},{"city":"Tallman","state_name":"New York","lat":41.10654,"lng":-74.09865,"zip":"10982","miles_from_dt":28.16},{"city":"New Rochelle","state_name":"New York","lat":40.94914,"lng":-73.78629,"zip":"10804","miles_from_dt":28.21},{"city":"Eastchester","state_name":"New York","lat":40.95337,"lng":-73.80885,"zip":"10709","miles_from_dt":28.22},{"city":"Poughkeepsie","state_name":"New York","lat":41.70623,"lng":-73.92854,"zip":"12602","miles_from_dt":28.38},{"city":"Blooming Grove","state_name":"New York","lat":41.41671,"lng":-74.20087,"zip":"10914","miles_from_dt":28.42},{"city":"Bridgeport","state_name":"Connecticut","lat":41.1736,"lng":-73.16696,"zip":"06607","miles_from_dt":28.42},{"city":"Waterbury","state_name":"Connecticut","lat":41.50498,"lng":-73.15243,"zip":"06749","miles_from_dt":28.62},{"city":"Montvale","state_name":"New Jersey","lat":41.05293,"lng":-74.04985,"zip":"07645","miles_from_dt":28.65},{"city":"Norwood","state_name":"New Jersey","lat":40.99335,"lng":-73.95103,"zip":"07648","miles_from_dt":28.68},{"city":"Larchmont","state_name":"New York","lat":40.9376,"lng":-73.75707,"zip":"10538","miles_from_dt":28.68},{"city":"Kent","state_name":"Connecticut","lat":41.73951,"lng":-73.46637,"zip":"06757","miles_from_dt":28.92},{"city":"Stratford","state_name":"Connecticut","lat":41.22989,"lng":-73.12785,"zip":"06614","miles_from_dt":28.95},{"city":"Bridgeport","state_name":"Connecticut","lat":41.18427,"lng":-73.14814,"zip":"06673","miles_from_dt":29.02},{"city":"Yonkers","state_name":"New York","lat":40.95765,"lng":-73.88114,"zip":"10703","miles_from_dt":29.2},{"city":"New Preston Marble Dale","state_name":"Connecticut","lat":41.69412,"lng":-73.33931,"zip":"06777","miles_from_dt":29.22},{"city":"Park Ridge","state_name":"New Jersey","lat":41.03524,"lng":-74.04232,"zip":"07656","miles_from_dt":29.26},{"city":"Bridgeport","state_name":"Connecticut","lat":41.19116,"lng":-73.13801,"zip":"06699","miles_from_dt":29.32},{"city":"Westwood","state_name":"New Jersey","lat":41.00918,"lng":-74.00428,"zip":"07675","miles_from_dt":29.36},{"city":"Bronxville","state_name":"New York","lat":40.9379,"lng":-73.83167,"zip":"10708","miles_from_dt":29.59},{"city":"Harrington Park","state_name":"New Jersey","lat":40.9899,"lng":-73.98037,"zip":"07640","miles_from_dt":29.71},{"city":"Alpine","state_name":"New Jersey","lat":40.96165,"lng":-73.91983,"zip":"07620","miles_from_dt":29.8},{"city":"Yonkers","state_name":"New York","lat":40.94702,"lng":-73.88034,"zip":"10701","miles_from_dt":29.86},{"city":"Seymour","state_name":"Connecticut","lat":41.381,"lng":-73.08726,"zip":"06483","miles_from_dt":29.97}],"targetCityZipCode":"10519","targetCityState":"New York"},"__N_SSG":true}