{"pageProps":{"stateName":"New-york","cityName":"greene","nearbyCities":[{"city":"Smithville Flats","state_name":"New York","lat":42.41408,"lng":-75.84171,"zip":"13841","miles_from_dt":6.2},{"city":"Chenango Forks","state_name":"New York","lat":42.26868,"lng":-75.82085,"zip":"13746","miles_from_dt":6.3},{"city":"Chenango Bridge","state_name":"New York","lat":42.28572,"lng":-75.91077,"zip":"13745","miles_from_dt":8.85},{"city":"Whitney Point","state_name":"New York","lat":42.3369,"lng":-75.9372,"zip":"13862","miles_from_dt":9.12},{"city":"Oxford","state_name":"New York","lat":42.43868,"lng":-75.6295,"zip":"13830","miles_from_dt":9.15},{"city":"Tunnel","state_name":"New York","lat":42.21635,"lng":-75.72815,"zip":"13848","miles_from_dt":9.23},{"city":"Willet","state_name":"New York","lat":42.44164,"lng":-75.904,"zip":"13863","miles_from_dt":9.81},{"city":"Port Crane","state_name":"New York","lat":42.19829,"lng":-75.76432,"zip":"13833","miles_from_dt":10.33},{"city":"Castle Creek","state_name":"New York","lat":42.24078,"lng":-75.90629,"zip":"13744","miles_from_dt":10.54},{"city":"McDonough","state_name":"New York","lat":42.50327,"lng":-75.78028,"zip":"13801","miles_from_dt":10.77},{"city":"Harpursville","state_name":"New York","lat":42.20606,"lng":-75.66334,"zip":"13787","miles_from_dt":10.97},{"city":"Binghamton","state_name":"New York","lat":42.18253,"lng":-75.88048,"zip":"13901","miles_from_dt":12.99},{"city":"Glen Aubrey","state_name":"New York","lat":42.25894,"lng":-75.9866,"zip":"13777","miles_from_dt":13.15},{"city":"Killawog","state_name":"New York","lat":42.39976,"lng":-76.02149,"zip":"13794","miles_from_dt":13.86},{"city":"Afton","state_name":"New York","lat":42.23201,"lng":-75.53127,"zip":"13730","miles_from_dt":14.18},{"city":"East Pharsalia","state_name":"New York","lat":42.55502,"lng":-75.71657,"zip":"13758","miles_from_dt":14.46},{"city":"Lisle","state_name":"New York","lat":42.32765,"lng":-76.04389,"zip":"13797","miles_from_dt":14.62},{"city":"Bainbridge","state_name":"New York","lat":42.30459,"lng":-75.4793,"zip":"13733","miles_from_dt":14.67},{"city":"Binghamton","state_name":"New York","lat":42.18086,"lng":-75.94476,"zip":"13905","miles_from_dt":14.93},{"city":"Guilford","state_name":"New York","lat":42.42496,"lng":-75.48128,"zip":"13780","miles_from_dt":15.21},{"city":"Binghamton","state_name":"New York","lat":42.13072,"lng":-75.81587,"zip":"13904","miles_from_dt":15.27},{"city":"Maine","state_name":"New York","lat":42.25164,"lng":-76.04207,"zip":"13802","miles_from_dt":15.92},{"city":"Nineveh","state_name":"New York","lat":42.16808,"lng":-75.54266,"zip":"13813","miles_from_dt":16.67},{"city":"Cincinnatus","state_name":"New York","lat":42.56033,"lng":-75.93029,"zip":"13040","miles_from_dt":17.05},{"city":"Marathon","state_name":"New York","lat":42.45787,"lng":-76.06028,"zip":"13803","miles_from_dt":17.14},{"city":"Johnson City","state_name":"New York","lat":42.16937,"lng":-75.99796,"zip":"13790","miles_from_dt":17.35},{"city":"Ouaquaga","state_name":"New York","lat":42.10517,"lng":-75.63701,"zip":"13826","miles_from_dt":17.9},{"city":"Norwich","state_name":"New York","lat":42.54712,"lng":-75.53413,"zip":"13815","miles_from_dt":17.95},{"city":"Pitcher","state_name":"New York","lat":42.60368,"lng":-75.84582,"zip":"13136","miles_from_dt":18.19},{"city":"South Plymouth","state_name":"New York","lat":42.60927,"lng":-75.68083,"zip":"13844","miles_from_dt":18.48},{"city":"Sidney","state_name":"New York","lat":42.28423,"lng":-75.39595,"zip":"13838","miles_from_dt":19.15},{"city":"Mount Upton","state_name":"New York","lat":42.40849,"lng":-75.3914,"zip":"13809","miles_from_dt":19.31},{"city":"Kirkwood","state_name":"New York","lat":42.05844,"lng":-75.77419,"zip":"13795","miles_from_dt":20},{"city":"North Pitcher","state_name":"New York","lat":42.64578,"lng":-75.81718,"zip":"13124","miles_from_dt":20.77},{"city":"Windsor","state_name":"New York","lat":42.06282,"lng":-75.62879,"zip":"13865","miles_from_dt":20.8},{"city":"Binghamton","state_name":"New York","lat":42.08895,"lng":-75.96891,"zip":"13902","miles_from_dt":20.85},{"city":"Richford","state_name":"New York","lat":42.38906,"lng":-76.16939,"zip":"13835","miles_from_dt":21.16},{"city":"Endwell","state_name":"New York","lat":42.1072,"lng":-76.0239,"zip":"13762","miles_from_dt":21.44},{"city":"South Otselic","state_name":"New York","lat":42.65945,"lng":-75.77136,"zip":"13155","miles_from_dt":21.51},{"city":"Plymouth","state_name":"New York","lat":42.6531,"lng":-75.66286,"zip":"13832","miles_from_dt":21.64},{"city":"Conklin","state_name":"New York","lat":42.03428,"lng":-75.81727,"zip":"13748","miles_from_dt":21.85},{"city":"Binghamton","state_name":"New York","lat":42.04749,"lng":-75.89573,"zip":"13903","miles_from_dt":21.88},{"city":"Masonville","state_name":"New York","lat":42.20708,"lng":-75.37562,"zip":"13804","miles_from_dt":21.96},{"city":"North Norwich","state_name":"New York","lat":42.61655,"lng":-75.52584,"zip":"13814","miles_from_dt":22.06},{"city":"Endicott","state_name":"New York","lat":42.13425,"lng":-76.08354,"zip":"13760","miles_from_dt":22.21},{"city":"Berkshire","state_name":"New York","lat":42.31722,"lng":-76.19389,"zip":"13736","miles_from_dt":22.33},{"city":"Endicott","state_name":"New York","lat":42.10045,"lng":-76.04884,"zip":"13761","miles_from_dt":22.62},{"city":"Newark Valley","state_name":"New York","lat":42.23099,"lng":-76.17481,"zip":"13811","miles_from_dt":22.75},{"city":"Corbettsville","state_name":"New York","lat":42.01887,"lng":-75.79096,"zip":"13749","miles_from_dt":22.77},{"city":"Unadilla","state_name":"New York","lat":42.33785,"lng":-75.31392,"zip":"13849","miles_from_dt":22.84},{"city":"Gilbertsville","state_name":"New York","lat":42.47023,"lng":-75.33458,"zip":"13776","miles_from_dt":23.33},{"city":"South New Berlin","state_name":"New York","lat":42.53468,"lng":-75.37584,"zip":"13843","miles_from_dt":23.48},{"city":"Endicott","state_name":"New York","lat":42.09448,"lng":-76.06514,"zip":"13763","miles_from_dt":23.48},{"city":"McGraw","state_name":"New York","lat":42.60211,"lng":-76.06665,"zip":"13101","miles_from_dt":23.53},{"city":"Blodgett Mills","state_name":"New York","lat":42.56236,"lng":-76.11986,"zip":"13738","miles_from_dt":23.62},{"city":"Deposit","state_name":"New York","lat":42.09387,"lng":-75.43625,"zip":"13754","miles_from_dt":24.15},{"city":"Harford","state_name":"New York","lat":42.43542,"lng":-76.2177,"zip":"13784","miles_from_dt":24.19},{"city":"Smyrna","state_name":"New York","lat":42.68632,"lng":-75.61998,"zip":"13464","miles_from_dt":24.42},{"city":"Vestal","state_name":"New York","lat":42.04873,"lng":-76.02663,"zip":"13850","miles_from_dt":24.78},{"city":"Great Bend","state_name":"Pennsylvania","lat":41.98588,"lng":-75.73466,"zip":"18821","miles_from_dt":25.02},{"city":"Vestal","state_name":"New York","lat":42.03593,"lng":-76.01958,"zip":"13851","miles_from_dt":25.33},{"city":"Bible School Park","state_name":"New York","lat":42.07838,"lng":-76.09683,"zip":"13737","miles_from_dt":25.4},{"city":"Wells Bridge","state_name":"New York","lat":42.37123,"lng":-75.24916,"zip":"13859","miles_from_dt":26.19},{"city":"Sidney Center","state_name":"New York","lat":42.24824,"lng":-75.26007,"zip":"13839","miles_from_dt":26.51},{"city":"Trout Creek","state_name":"New York","lat":42.20443,"lng":-75.27777,"zip":"13847","miles_from_dt":26.62},{"city":"De Ruyter","state_name":"New York","lat":42.72838,"lng":-75.86957,"zip":"13052","miles_from_dt":26.85},{"city":"Dryden","state_name":"New York","lat":42.47513,"lng":-76.26471,"zip":"13053","miles_from_dt":27.28},{"city":"Cortland","state_name":"New York","lat":42.58692,"lng":-76.19029,"zip":"13045","miles_from_dt":27.5},{"city":"Hallstead","state_name":"Pennsylvania","lat":41.9482,"lng":-75.80116,"zip":"18822","miles_from_dt":27.67},{"city":"Truxton","state_name":"New York","lat":42.71603,"lng":-75.97626,"zip":"13158","miles_from_dt":27.71},{"city":"Sherburne","state_name":"New York","lat":42.68492,"lng":-75.45572,"zip":"13460","miles_from_dt":27.96},{"city":"Brackney","state_name":"Pennsylvania","lat":41.97203,"lng":-75.96822,"zip":"18812","miles_from_dt":28.07},{"city":"East Homer","state_name":"New York","lat":42.67263,"lng":-76.09683,"zip":"13056","miles_from_dt":28.26},{"city":"Lanesboro","state_name":"Pennsylvania","lat":41.95642,"lng":-75.58703,"zip":"18827","miles_from_dt":28.44},{"city":"Morris","state_name":"New York","lat":42.52797,"lng":-75.25657,"zip":"13808","miles_from_dt":28.57},{"city":"Georgetown","state_name":"New York","lat":42.76243,"lng":-75.76296,"zip":"13072","miles_from_dt":28.61},{"city":"Otego","state_name":"New York","lat":42.44329,"lng":-75.20154,"zip":"13825","miles_from_dt":29.31},{"city":"Apalachin","state_name":"New York","lat":42.04396,"lng":-76.16772,"zip":"13732","miles_from_dt":29.64},{"city":"Earlville","state_name":"New York","lat":42.75831,"lng":-75.57452,"zip":"13332","miles_from_dt":29.86}],"targetCityZipCode":"13778","targetCityState":"New York"},"__N_SSG":true}