{"pageProps":{"stateName":"New-york","cityName":"hartwick","nearbyCities":[{"city":"Burlington Flats","state_name":"New York","lat":42.7438,"lng":-75.1385,"zip":"13315","miles_from_dt":4.76},{"city":"Schuyler Lake","state_name":"New York","lat":42.77527,"lng":-75.03691,"zip":"13457","miles_from_dt":5.24},{"city":"Fly Creek","state_name":"New York","lat":42.75114,"lng":-74.9816,"zip":"13337","miles_from_dt":5.39},{"city":"West Burlington","state_name":"New York","lat":42.69661,"lng":-75.17695,"zip":"13482","miles_from_dt":5.76},{"city":"Mount Vision","state_name":"New York","lat":42.61188,"lng":-75.11157,"zip":"13810","miles_from_dt":6.68},{"city":"Milford","state_name":"New York","lat":42.61718,"lng":-74.98612,"zip":"13807","miles_from_dt":7.07},{"city":"Garrattsville","state_name":"New York","lat":42.64766,"lng":-75.18918,"zip":"13342","miles_from_dt":7.4},{"city":"Cooperstown","state_name":"New York","lat":42.71865,"lng":-74.90374,"zip":"13326","miles_from_dt":8.24},{"city":"Edmeston","state_name":"New York","lat":42.70193,"lng":-75.24847,"zip":"13335","miles_from_dt":9.39},{"city":"New Lisbon","state_name":"New York","lat":42.59714,"lng":-75.19729,"zip":"13415","miles_from_dt":9.93},{"city":"Laurens","state_name":"New York","lat":42.5513,"lng":-75.13644,"zip":"13796","miles_from_dt":11.04},{"city":"Richfield Springs","state_name":"New York","lat":42.85491,"lng":-74.99724,"zip":"13439","miles_from_dt":11.09},{"city":"Portlandville","state_name":"New York","lat":42.54903,"lng":-74.96727,"zip":"13834","miles_from_dt":11.65},{"city":"Leonardsville","state_name":"New York","lat":42.80501,"lng":-75.26105,"zip":"13364","miles_from_dt":12.29},{"city":"West Winfield","state_name":"New York","lat":42.85957,"lng":-75.17698,"zip":"13491","miles_from_dt":12.3},{"city":"Roseboom","state_name":"New York","lat":42.7026,"lng":-74.81263,"zip":"13450","miles_from_dt":12.8},{"city":"New Berlin","state_name":"New York","lat":42.63723,"lng":-75.30981,"zip":"13411","miles_from_dt":13.3},{"city":"Maryland","state_name":"New York","lat":42.53849,"lng":-74.91278,"zip":"12116","miles_from_dt":13.67},{"city":"West Edmeston","state_name":"New York","lat":42.7865,"lng":-75.3165,"zip":"13485","miles_from_dt":14.11},{"city":"West Oneonta","state_name":"New York","lat":42.5048,"lng":-75.14156,"zip":"13861","miles_from_dt":14.18},{"city":"Springfield Center","state_name":"New York","lat":42.84696,"lng":-74.86448,"zip":"13468","miles_from_dt":14.25},{"city":"Schenevus","state_name":"New York","lat":42.59229,"lng":-74.82337,"zip":"12155","miles_from_dt":14.41},{"city":"East Springfield","state_name":"New York","lat":42.83091,"lng":-74.82207,"zip":"13333","miles_from_dt":15.18},{"city":"Westford","state_name":"New York","lat":42.67447,"lng":-74.76796,"zip":"13488","miles_from_dt":15.19},{"city":"Colliersville","state_name":"New York","lat":42.49003,"lng":-74.98209,"zip":"13747","miles_from_dt":15.22},{"city":"Brookfield","state_name":"New York","lat":42.82476,"lng":-75.31568,"zip":"13314","miles_from_dt":15.35},{"city":"Morris","state_name":"New York","lat":42.52797,"lng":-75.25657,"zip":"13808","miles_from_dt":15.52},{"city":"Oneonta","state_name":"New York","lat":42.47204,"lng":-75.03893,"zip":"13820","miles_from_dt":15.93},{"city":"Bridgewater","state_name":"New York","lat":42.88715,"lng":-75.26228,"zip":"13313","miles_from_dt":16.28},{"city":"Jordanville","state_name":"New York","lat":42.89807,"lng":-74.86256,"zip":"13361","miles_from_dt":16.97},{"city":"Cherry Valley","state_name":"New York","lat":42.77353,"lng":-74.74325,"zip":"13320","miles_from_dt":17.05},{"city":"West Davenport","state_name":"New York","lat":42.45573,"lng":-74.94989,"zip":"13860","miles_from_dt":17.97},{"city":"Van Hornesville","state_name":"New York","lat":42.88789,"lng":-74.81196,"zip":"13475","miles_from_dt":18.13},{"city":"Cassville","state_name":"New York","lat":42.92366,"lng":-75.25958,"zip":"13318","miles_from_dt":18.25},{"city":"Worcester","state_name":"New York","lat":42.6094,"lng":-74.72587,"zip":"12197","miles_from_dt":18.37},{"city":"Ilion","state_name":"New York","lat":42.96952,"lng":-75.08037,"zip":"13357","miles_from_dt":18.48},{"city":"North Brookfield","state_name":"New York","lat":42.84519,"lng":-75.38213,"zip":"13418","miles_from_dt":18.96},{"city":"Otego","state_name":"New York","lat":42.44329,"lng":-75.20154,"zip":"13825","miles_from_dt":19.19},{"city":"Davenport Center","state_name":"New York","lat":42.45745,"lng":-74.88363,"zip":"13751","miles_from_dt":19.23},{"city":"Davenport","state_name":"New York","lat":42.47739,"lng":-74.83904,"zip":"13750","miles_from_dt":19.29},{"city":"Mohawk","state_name":"New York","lat":42.9677,"lng":-74.94087,"zip":"13407","miles_from_dt":19.38},{"city":"Clayville","state_name":"New York","lat":42.96661,"lng":-75.20445,"zip":"13322","miles_from_dt":19.61},{"city":"South New Berlin","state_name":"New York","lat":42.53468,"lng":-75.37584,"zip":"13843","miles_from_dt":19.65},{"city":"Hubbardsville","state_name":"New York","lat":42.80971,"lng":-75.42401,"zip":"13355","miles_from_dt":19.76},{"city":"Sherburne","state_name":"New York","lat":42.68492,"lng":-75.45572,"zip":"13460","miles_from_dt":19.98},{"city":"Gilbertsville","state_name":"New York","lat":42.47023,"lng":-75.33458,"zip":"13776","miles_from_dt":21.13},{"city":"Waterville","state_name":"New York","lat":42.91424,"lng":-75.36699,"zip":"13480","miles_from_dt":21.25},{"city":"East Worcester","state_name":"New York","lat":42.60711,"lng":-74.65887,"zip":"12064","miles_from_dt":21.66},{"city":"Sangerfield","state_name":"New York","lat":42.91791,"lng":-75.37655,"zip":"13455","miles_from_dt":21.78},{"city":"East Meredith","state_name":"New York","lat":42.40915,"lng":-74.89321,"zip":"13757","miles_from_dt":22.01},{"city":"Charlotteville","state_name":"New York","lat":42.53564,"lng":-74.68468,"zip":"12036","miles_from_dt":22.49},{"city":"Meridale","state_name":"New York","lat":42.37894,"lng":-74.97315,"zip":"13806","miles_from_dt":22.78},{"city":"Sauquoit","state_name":"New York","lat":43.00145,"lng":-75.25855,"zip":"13456","miles_from_dt":22.91},{"city":"Treadwell","state_name":"New York","lat":42.36037,"lng":-75.05465,"zip":"13846","miles_from_dt":23.59},{"city":"Frankfort","state_name":"New York","lat":43.04814,"lng":-75.11502,"zip":"13340","miles_from_dt":24.03},{"city":"North Norwich","state_name":"New York","lat":42.61655,"lng":-75.52584,"zip":"13814","miles_from_dt":24.26},{"city":"Sharon Springs","state_name":"New York","lat":42.77721,"lng":-74.59315,"zip":"13459","miles_from_dt":24.51},{"city":"Chadwicks","state_name":"New York","lat":43.02705,"lng":-75.26593,"zip":"13319","miles_from_dt":24.67},{"city":"Wells Bridge","state_name":"New York","lat":42.37123,"lng":-75.24916,"zip":"13859","miles_from_dt":24.71},{"city":"Herkimer","state_name":"New York","lat":43.06352,"lng":-74.98817,"zip":"13350","miles_from_dt":25.25},{"city":"Franklin","state_name":"New York","lat":42.33706,"lng":-75.14728,"zip":"13775","miles_from_dt":25.55},{"city":"Harpersfield","state_name":"New York","lat":42.4485,"lng":-74.69563,"zip":"13786","miles_from_dt":25.68},{"city":"Hamilton","state_name":"New York","lat":42.82093,"lng":-75.54453,"zip":"13346","miles_from_dt":25.78},{"city":"Richmondville","state_name":"New York","lat":42.62011,"lng":-74.56692,"zip":"12149","miles_from_dt":25.95},{"city":"Fort Plain","state_name":"New York","lat":42.93995,"lng":-74.66631,"zip":"13339","miles_from_dt":26.04},{"city":"Norwich","state_name":"New York","lat":42.54712,"lng":-75.53413,"zip":"13815","miles_from_dt":26.24},{"city":"Mount Upton","state_name":"New York","lat":42.40849,"lng":-75.3914,"zip":"13809","miles_from_dt":26.26},{"city":"Earlville","state_name":"New York","lat":42.75831,"lng":-75.57452,"zip":"13332","miles_from_dt":26.27},{"city":"Canajoharie","state_name":"New York","lat":42.85638,"lng":-74.58844,"zip":"13317","miles_from_dt":26.42},{"city":"Madison","state_name":"New York","lat":42.90209,"lng":-75.50728,"zip":"13402","miles_from_dt":26.43},{"city":"Jefferson","state_name":"New York","lat":42.49599,"lng":-74.6262,"zip":"12093","miles_from_dt":26.47},{"city":"Washington Mills","state_name":"New York","lat":43.0566,"lng":-75.27399,"zip":"13479","miles_from_dt":26.7},{"city":"New Hartford","state_name":"New York","lat":43.0576,"lng":-75.27495,"zip":"13413","miles_from_dt":26.78},{"city":"Deansboro","state_name":"New York","lat":42.98247,"lng":-75.42836,"zip":"13328","miles_from_dt":26.78},{"city":"Bloomville","state_name":"New York","lat":42.36614,"lng":-74.78982,"zip":"13739","miles_from_dt":27.08},{"city":"Utica","state_name":"New York","lat":43.08521,"lng":-75.18838,"zip":"13504","miles_from_dt":27.19},{"city":"Solsville","state_name":"New York","lat":42.91064,"lng":-75.52102,"zip":"13465","miles_from_dt":27.33},{"city":"Cobleskill","state_name":"New York","lat":42.70357,"lng":-74.5267,"zip":"12043","miles_from_dt":27.35},{"city":"Utica","state_name":"New York","lat":43.08138,"lng":-75.22611,"zip":"13501","miles_from_dt":27.45},{"city":"Summit","state_name":"New York","lat":42.55489,"lng":-74.56161,"zip":"12175","miles_from_dt":27.55},{"city":"Nelliston","state_name":"New York","lat":42.92908,"lng":-74.60922,"zip":"13410","miles_from_dt":27.92},{"city":"Delhi","state_name":"New York","lat":42.30873,"lng":-74.92538,"zip":"13753","miles_from_dt":28.05},{"city":"Oriskany Falls","state_name":"New York","lat":42.9635,"lng":-75.48675,"zip":"13425","miles_from_dt":28.06},{"city":"Unadilla","state_name":"New York","lat":42.33785,"lng":-75.31392,"zip":"13849","miles_from_dt":28.19},{"city":"South Kortright","state_name":"New York","lat":42.37922,"lng":-74.72302,"zip":"13842","miles_from_dt":28.27},{"city":"Smyrna","state_name":"New York","lat":42.68632,"lng":-75.61998,"zip":"13464","miles_from_dt":28.33},{"city":"Franklin Springs","state_name":"New York","lat":43.03468,"lng":-75.39075,"zip":"13341","miles_from_dt":28.33},{"city":"Clinton","state_name":"New York","lat":43.04198,"lng":-75.38144,"zip":"13323","miles_from_dt":28.47},{"city":"Utica","state_name":"New York","lat":43.0977,"lng":-75.22926,"zip":"13599","miles_from_dt":28.57},{"city":"Guilford","state_name":"New York","lat":42.42496,"lng":-75.48128,"zip":"13780","miles_from_dt":28.62},{"city":"Utica","state_name":"New York","lat":43.10041,"lng":-75.23047,"zip":"13505","miles_from_dt":28.77},{"city":"Utica","state_name":"New York","lat":43.10014,"lng":-75.23291,"zip":"13503","miles_from_dt":28.79},{"city":"Bouckville","state_name":"New York","lat":42.89055,"lng":-75.57065,"zip":"13310","miles_from_dt":28.86},{"city":"Little Falls","state_name":"New York","lat":43.09804,"lng":-74.84937,"zip":"13365","miles_from_dt":29.43},{"city":"New York Mills","state_name":"New York","lat":43.10002,"lng":-75.29399,"zip":"13417","miles_from_dt":29.85}],"targetCityZipCode":"13348","targetCityState":"New York"},"__N_SSG":true}