{"pageProps":{"stateName":"New-york","cityName":"hunt","nearbyCities":[{"city":"Portageville","state_name":"New York","lat":42.53958,"lng":-78.08358,"zip":"14536","miles_from_dt":4.16},{"city":"Dalton","state_name":"New York","lat":42.51526,"lng":-77.91526,"zip":"14836","miles_from_dt":4.6},{"city":"Castile","state_name":"New York","lat":42.61828,"lng":-78.05442,"zip":"14427","miles_from_dt":6.62},{"city":"Nunda","state_name":"New York","lat":42.59217,"lng":-77.8971,"zip":"14517","miles_from_dt":6.9},{"city":"Swain","state_name":"New York","lat":42.47613,"lng":-77.88724,"zip":"14884","miles_from_dt":7},{"city":"Fillmore","state_name":"New York","lat":42.45027,"lng":-78.09681,"zip":"14735","miles_from_dt":7.3},{"city":"Pike","state_name":"New York","lat":42.55318,"lng":-78.14959,"zip":"14130","miles_from_dt":7.64},{"city":"Hume","state_name":"New York","lat":42.471,"lng":-78.13772,"zip":"14745","miles_from_dt":7.99},{"city":"Canaseraga","state_name":"New York","lat":42.43522,"lng":-77.84702,"zip":"14822","miles_from_dt":10.32},{"city":"Gainesville","state_name":"New York","lat":42.62381,"lng":-78.18051,"zip":"14066","miles_from_dt":11.12},{"city":"Silver Springs","state_name":"New York","lat":42.67757,"lng":-78.09166,"zip":"14550","miles_from_dt":11.13},{"city":"Silver Lake","state_name":"New York","lat":42.69667,"lng":-78.02212,"zip":"14549","miles_from_dt":11.54},{"city":"Angelica","state_name":"New York","lat":42.35279,"lng":-77.98267,"zip":"14709","miles_from_dt":12.28},{"city":"Bliss","state_name":"New York","lat":42.58111,"lng":-78.24431,"zip":"14024","miles_from_dt":12.8},{"city":"Houghton","state_name":"New York","lat":42.4219,"lng":-78.21516,"zip":"14744","miles_from_dt":13.16},{"city":"Mount Morris","state_name":"New York","lat":42.69485,"lng":-77.87167,"zip":"14510","miles_from_dt":13.2},{"city":"Sonyea","state_name":"New York","lat":42.67906,"lng":-77.83222,"zip":"14556","miles_from_dt":13.48},{"city":"Centerville","state_name":"New York","lat":42.47293,"lng":-78.26346,"zip":"14029","miles_from_dt":13.87},{"city":"Dansville","state_name":"New York","lat":42.57072,"lng":-77.73435,"zip":"14437","miles_from_dt":14},{"city":"Perry","state_name":"New York","lat":42.73446,"lng":-78.00276,"zip":"14530","miles_from_dt":14.11},{"city":"Caneadea","state_name":"New York","lat":42.36258,"lng":-78.18235,"zip":"14717","miles_from_dt":14.75},{"city":"Belfast","state_name":"New York","lat":42.32088,"lng":-78.12625,"zip":"14711","miles_from_dt":15.75},{"city":"Freedom","state_name":"New York","lat":42.48741,"lng":-78.31158,"zip":"14065","miles_from_dt":16.02},{"city":"Rushford","state_name":"New York","lat":42.38999,"lng":-78.26167,"zip":"14777","miles_from_dt":16.37},{"city":"Arkport","state_name":"New York","lat":42.41821,"lng":-77.71949,"zip":"14807","miles_from_dt":16.43},{"city":"Groveland","state_name":"New York","lat":42.68652,"lng":-77.75112,"zip":"14462","miles_from_dt":16.79},{"city":"Almond","state_name":"New York","lat":42.31587,"lng":-77.8476,"zip":"14804","miles_from_dt":16.79},{"city":"Farmersville Station","state_name":"New York","lat":42.43986,"lng":-78.30884,"zip":"14060","miles_from_dt":16.81},{"city":"Warsaw","state_name":"New York","lat":42.74012,"lng":-78.17269,"zip":"14569","miles_from_dt":16.88},{"city":"Leicester","state_name":"New York","lat":42.77173,"lng":-77.91643,"zip":"14481","miles_from_dt":17.25},{"city":"Scottsburg","state_name":"New York","lat":42.66166,"lng":-77.71056,"zip":"14545","miles_from_dt":17.47},{"city":"Perkinsville","state_name":"New York","lat":42.53748,"lng":-77.64418,"zip":"14529","miles_from_dt":18.33},{"city":"Sandusky","state_name":"New York","lat":42.49965,"lng":-78.37889,"zip":"14133","miles_from_dt":19.3},{"city":"North Java","state_name":"New York","lat":42.66813,"lng":-78.33624,"zip":"14113","miles_from_dt":19.47},{"city":"Belmont","state_name":"New York","lat":42.24638,"lng":-77.99209,"zip":"14813","miles_from_dt":19.59},{"city":"Arcade","state_name":"New York","lat":42.57542,"lng":-78.39241,"zip":"14009","miles_from_dt":20.11},{"city":"Black Creek","state_name":"New York","lat":42.28368,"lng":-78.23493,"zip":"14714","miles_from_dt":20.73},{"city":"Wyoming","state_name":"New York","lat":42.82865,"lng":-78.09364,"zip":"14591","miles_from_dt":21.12},{"city":"Java Center","state_name":"New York","lat":42.65689,"lng":-78.38435,"zip":"14082","miles_from_dt":21.32},{"city":"Conesus","state_name":"New York","lat":42.71496,"lng":-77.66721,"zip":"14435","miles_from_dt":21.36},{"city":"Geneseo","state_name":"New York","lat":42.79731,"lng":-77.76879,"zip":"14454","miles_from_dt":21.97},{"city":"Retsof","state_name":"New York","lat":42.83418,"lng":-77.87521,"zip":"14539","miles_from_dt":21.98},{"city":"Alfred","state_name":"New York","lat":42.2537,"lng":-77.78989,"zip":"14802","miles_from_dt":21.98},{"city":"Varysburg","state_name":"New York","lat":42.74327,"lng":-78.32629,"zip":"14167","miles_from_dt":22.08},{"city":"Alfred Station","state_name":"New York","lat":42.25135,"lng":-77.78808,"zip":"14803","miles_from_dt":22.17},{"city":"Wayland","state_name":"New York","lat":42.5669,"lng":-77.57017,"zip":"14572","miles_from_dt":22.25},{"city":"Piffard","state_name":"New York","lat":42.84632,"lng":-77.88468,"zip":"14533","miles_from_dt":22.65},{"city":"Dale","state_name":"New York","lat":42.83593,"lng":-78.17101,"zip":"14039","miles_from_dt":22.77},{"city":"Hornell","state_name":"New York","lat":42.32819,"lng":-77.64371,"zip":"14843","miles_from_dt":23.07},{"city":"Pavilion","state_name":"New York","lat":42.87242,"lng":-78.01471,"zip":"14525","miles_from_dt":23.64},{"city":"Yorkshire","state_name":"New York","lat":42.52594,"lng":-78.47306,"zip":"14173","miles_from_dt":23.99},{"city":"York","state_name":"New York","lat":42.86875,"lng":-77.89066,"zip":"14592","miles_from_dt":24.07},{"city":"Java Village","state_name":"New York","lat":42.67921,"lng":-78.43446,"zip":"14083","miles_from_dt":24.28},{"city":"Springwater","state_name":"New York","lat":42.68716,"lng":-77.57691,"zip":"14560","miles_from_dt":24.29},{"city":"Friendship","state_name":"New York","lat":42.1925,"lng":-78.14932,"zip":"14739","miles_from_dt":24.47},{"city":"Scio","state_name":"New York","lat":42.17363,"lng":-77.97334,"zip":"14880","miles_from_dt":24.65},{"city":"Delevan","state_name":"New York","lat":42.46882,"lng":-78.48377,"zip":"14042","miles_from_dt":24.91},{"city":"Linwood","state_name":"New York","lat":42.89293,"lng":-77.92295,"zip":"14486","miles_from_dt":25.38},{"city":"Chaffee","state_name":"New York","lat":42.56518,"lng":-78.50052,"zip":"14030","miles_from_dt":25.5},{"city":"Franklinville","state_name":"New York","lat":42.33524,"lng":-78.42926,"zip":"14737","miles_from_dt":25.6},{"city":"Attica","state_name":"New York","lat":42.83158,"lng":-78.29784,"zip":"14011","miles_from_dt":25.66},{"city":"Strykersville","state_name":"New York","lat":42.73154,"lng":-78.43205,"zip":"14145","miles_from_dt":25.91},{"city":"Lakeville","state_name":"New York","lat":42.83809,"lng":-77.70736,"zip":"14480","miles_from_dt":26.06},{"city":"Cohocton","state_name":"New York","lat":42.49354,"lng":-77.49335,"zip":"14826","miles_from_dt":26.16},{"city":"Sardinia","state_name":"New York","lat":42.53057,"lng":-78.51738,"zip":"14134","miles_from_dt":26.25},{"city":"Cuba","state_name":"New York","lat":42.2129,"lng":-78.29358,"zip":"14727","miles_from_dt":26.46},{"city":"East Bethany","state_name":"New York","lat":42.90606,"lng":-78.1312,"zip":"14054","miles_from_dt":26.76},{"city":"Livonia","state_name":"New York","lat":42.81174,"lng":-77.63873,"zip":"14487","miles_from_dt":26.88},{"city":"Livonia Center","state_name":"New York","lat":42.81881,"lng":-77.64226,"zip":"14488","miles_from_dt":27.11},{"city":"Atlanta","state_name":"New York","lat":42.55817,"lng":-77.46882,"zip":"14808","miles_from_dt":27.34},{"city":"Hemlock","state_name":"New York","lat":42.77773,"lng":-77.5842,"zip":"14466","miles_from_dt":27.35},{"city":"South Lima","state_name":"New York","lat":42.85382,"lng":-77.67765,"zip":"14558","miles_from_dt":27.82},{"city":"Andover","state_name":"New York","lat":42.15543,"lng":-77.78662,"zip":"14806","miles_from_dt":28.14},{"city":"Avon","state_name":"New York","lat":42.89358,"lng":-77.73501,"zip":"14414","miles_from_dt":28.56},{"city":"Holland","state_name":"New York","lat":42.64289,"lng":-78.54886,"zip":"14080","miles_from_dt":28.9},{"city":"Machias","state_name":"New York","lat":42.3863,"lng":-78.54292,"zip":"14101","miles_from_dt":29.32},{"city":"Alexander","state_name":"New York","lat":42.91788,"lng":-78.24703,"zip":"14005","miles_from_dt":29.5},{"city":"Avoca","state_name":"New York","lat":42.41961,"lng":-77.44355,"zip":"14809","miles_from_dt":29.6},{"city":"Canisteo","state_name":"New York","lat":42.23984,"lng":-77.5722,"zip":"14823","miles_from_dt":29.79},{"city":"Cowlesville","state_name":"New York","lat":42.80637,"lng":-78.45448,"zip":"14037","miles_from_dt":29.87},{"city":"Caledonia","state_name":"New York","lat":42.94382,"lng":-77.82788,"zip":"14423","miles_from_dt":29.92}],"targetCityZipCode":"14846","targetCityState":"New York"},"__N_SSG":true}