{"pageProps":{"stateName":"New-york","cityName":"la-fargeville","nearbyCities":[{"city":"Fishers Landing","state_name":"New York","lat":44.27341,"lng":-76.00573,"zip":"13641","miles_from_dt":6.29},{"city":"Depauville","state_name":"New York","lat":44.12698,"lng":-76.06826,"zip":"13632","miles_from_dt":7.35},{"city":"Clayton","state_name":"New York","lat":44.22284,"lng":-76.09736,"zip":"13624","miles_from_dt":7.61},{"city":"Thousand Island Park","state_name":"New York","lat":44.28861,"lng":-76.0258,"zip":"13692","miles_from_dt":7.68},{"city":"Plessis","state_name":"New York","lat":44.28227,"lng":-75.83872,"zip":"13675","miles_from_dt":8.38},{"city":"Evans Mills","state_name":"New York","lat":44.09751,"lng":-75.83346,"zip":"13637","miles_from_dt":8.71},{"city":"Theresa","state_name":"New York","lat":44.22747,"lng":-75.78208,"zip":"13691","miles_from_dt":8.73},{"city":"Wellesley Island","state_name":"New York","lat":44.3198,"lng":-75.99937,"zip":"13640","miles_from_dt":9.19},{"city":"Alexandria Bay","state_name":"New York","lat":44.33233,"lng":-75.91187,"zip":"13607","miles_from_dt":9.92},{"city":"Chaumont","state_name":"New York","lat":44.09654,"lng":-76.115,"zip":"13622","miles_from_dt":10.48},{"city":"Philadelphia","state_name":"New York","lat":44.17105,"lng":-75.72133,"zip":"13673","miles_from_dt":11.48},{"city":"Calcium","state_name":"New York","lat":44.02538,"lng":-75.85896,"zip":"13616","miles_from_dt":12.34},{"city":"Limerick","state_name":"New York","lat":44.0279,"lng":-76.05099,"zip":"13657","miles_from_dt":12.34},{"city":"Brownville","state_name":"New York","lat":44.00569,"lng":-75.98328,"zip":"13615","miles_from_dt":12.93},{"city":"Watertown","state_name":"New York","lat":44.03826,"lng":-75.79765,"zip":"13603","miles_from_dt":13.03},{"city":"Redwood","state_name":"New York","lat":44.32664,"lng":-75.76554,"zip":"13679","miles_from_dt":13.1},{"city":"Dexter","state_name":"New York","lat":44.01197,"lng":-76.07034,"zip":"13634","miles_from_dt":13.75},{"city":"Fort Drum","state_name":"New York","lat":44.04877,"lng":-75.75747,"zip":"13602","miles_from_dt":13.76},{"city":"Felts Mills","state_name":"New York","lat":44.02077,"lng":-75.75443,"zip":"13638","miles_from_dt":15.3},{"city":"Watertown","state_name":"New York","lat":43.96949,"lng":-75.90965,"zip":"13601","miles_from_dt":15.46},{"city":"Great Bend","state_name":"New York","lat":44.03207,"lng":-75.71738,"zip":"13643","miles_from_dt":15.99},{"city":"Antwerp","state_name":"New York","lat":44.23879,"lng":-75.62508,"zip":"13608","miles_from_dt":16.49},{"city":"Black River","state_name":"New York","lat":43.98571,"lng":-75.76911,"zip":"13612","miles_from_dt":16.83},{"city":"Deferiet","state_name":"New York","lat":44.03764,"lng":-75.68307,"zip":"13628","miles_from_dt":17.02},{"city":"Cape Vincent","state_name":"New York","lat":44.11641,"lng":-76.27851,"zip":"13618","miles_from_dt":17.1},{"city":"Antwerp","state_name":"New York","lat":44.28431,"lng":-75.61839,"zip":"13671","miles_from_dt":17.69},{"city":"Three Mile Bay","state_name":"New York","lat":44.03237,"lng":-76.24824,"zip":"13693","miles_from_dt":18.43},{"city":"Sackets Harbor","state_name":"New York","lat":43.93343,"lng":-76.09399,"zip":"13685","miles_from_dt":19.19},{"city":"Chippewa Bay","state_name":"New York","lat":44.44877,"lng":-75.75299,"zip":"13623","miles_from_dt":20.29},{"city":"Hammond","state_name":"New York","lat":44.44144,"lng":-75.69379,"zip":"13646","miles_from_dt":21.45},{"city":"Adams Center","state_name":"New York","lat":43.87007,"lng":-76.01601,"zip":"13606","miles_from_dt":22.42},{"city":"Carthage","state_name":"New York","lat":43.97705,"lng":-75.59432,"zip":"13619","miles_from_dt":23.1},{"city":"Rodman","state_name":"New York","lat":43.84024,"lng":-75.88924,"zip":"13682","miles_from_dt":24.44},{"city":"Henderson Harbor","state_name":"New York","lat":43.86513,"lng":-76.18125,"zip":"13651","miles_from_dt":25.29},{"city":"Deer River","state_name":"New York","lat":43.92915,"lng":-75.59045,"zip":"13627","miles_from_dt":25.48},{"city":"Gouverneur","state_name":"New York","lat":44.3263,"lng":-75.46742,"zip":"13642","miles_from_dt":25.72},{"city":"Copenhagen","state_name":"New York","lat":43.85143,"lng":-75.7202,"zip":"13626","miles_from_dt":26.13},{"city":"Hailesboro","state_name":"New York","lat":44.30878,"lng":-75.44655,"zip":"13645","miles_from_dt":26.29},{"city":"Brier Hill","state_name":"New York","lat":44.53081,"lng":-75.69194,"zip":"13614","miles_from_dt":26.71},{"city":"Natural Bridge","state_name":"New York","lat":44.05227,"lng":-75.44933,"zip":"13665","miles_from_dt":26.72},{"city":"Adams","state_name":"New York","lat":43.80641,"lng":-76.05195,"zip":"13605","miles_from_dt":27.06},{"city":"Denmark","state_name":"New York","lat":43.90036,"lng":-75.58529,"zip":"13631","miles_from_dt":27.11},{"city":"Henderson","state_name":"New York","lat":43.80742,"lng":-76.20629,"zip":"13650","miles_from_dt":29.42},{"city":"Belleville","state_name":"New York","lat":43.77726,"lng":-76.12374,"zip":"13611","miles_from_dt":29.87}],"targetCityZipCode":"13656","targetCityState":"New York"},"__N_SSG":true}