{"pageProps":{"stateName":"New-york","cityName":"lawtons","nearbyCities":[{"city":"North Collins","state_name":"New York","lat":42.58206,"lng":-78.89803,"zip":"14111","miles_from_dt":2.79},{"city":"Collins","state_name":"New York","lat":42.4985,"lng":-78.86238,"zip":"14034","miles_from_dt":3.3},{"city":"Collins Center","state_name":"New York","lat":42.49099,"lng":-78.85936,"zip":"14035","miles_from_dt":3.84},{"city":"Versailles","state_name":"New York","lat":42.51187,"lng":-78.98745,"zip":"14168","miles_from_dt":5.46},{"city":"Eden","state_name":"New York","lat":42.64587,"lng":-78.87542,"zip":"14057","miles_from_dt":7.18},{"city":"Perrysburg","state_name":"New York","lat":42.4805,"lng":-79.0092,"zip":"14129","miles_from_dt":7.49},{"city":"Gowanda","state_name":"New York","lat":42.43673,"lng":-78.92798,"zip":"14070","miles_from_dt":7.55},{"city":"Brant","state_name":"New York","lat":42.59408,"lng":-79.02067,"zip":"14027","miles_from_dt":7.63},{"city":"Irving","state_name":"New York","lat":42.56332,"lng":-79.06528,"zip":"14081","miles_from_dt":9.13},{"city":"Springville","state_name":"New York","lat":42.52366,"lng":-78.7109,"zip":"14141","miles_from_dt":9.17},{"city":"Angola","state_name":"New York","lat":42.63366,"lng":-79.02056,"zip":"14006","miles_from_dt":9.22},{"city":"Boston","state_name":"New York","lat":42.6232,"lng":-78.72609,"zip":"14025","miles_from_dt":10},{"city":"Dayton","state_name":"New York","lat":42.4059,"lng":-78.97699,"zip":"14041","miles_from_dt":10.44},{"city":"Farnham","state_name":"New York","lat":42.59111,"lng":-79.08949,"zip":"14061","miles_from_dt":10.79},{"city":"North Evans","state_name":"New York","lat":42.6981,"lng":-78.9395,"zip":"14112","miles_from_dt":11.07},{"city":"Derby","state_name":"New York","lat":42.68579,"lng":-78.99328,"zip":"14047","miles_from_dt":11.25},{"city":"North Boston","state_name":"New York","lat":42.68453,"lng":-78.77449,"zip":"14110","miles_from_dt":11.42},{"city":"Lake View","state_name":"New York","lat":42.71494,"lng":-78.92691,"zip":"14085","miles_from_dt":12.08},{"city":"Hamburg","state_name":"New York","lat":42.71297,"lng":-78.82985,"zip":"14075","miles_from_dt":12.16},{"city":"East Otto","state_name":"New York","lat":42.40404,"lng":-78.73628,"zip":"14729","miles_from_dt":12.31},{"city":"Colden","state_name":"New York","lat":42.65865,"lng":-78.68436,"zip":"14033","miles_from_dt":13.16},{"city":"Otto","state_name":"New York","lat":42.34931,"lng":-78.8288,"zip":"14766","miles_from_dt":13.66},{"city":"Cattaraugus","state_name":"New York","lat":42.34323,"lng":-78.87198,"zip":"14719","miles_from_dt":13.76},{"city":"Glenwood","state_name":"New York","lat":42.59984,"lng":-78.62984,"zip":"14069","miles_from_dt":13.79},{"city":"South Dayton","state_name":"New York","lat":42.37497,"lng":-79.05376,"zip":"14138","miles_from_dt":14.3},{"city":"Silver Creek","state_name":"New York","lat":42.52387,"lng":-79.16935,"zip":"14136","miles_from_dt":14.38},{"city":"East Concord","state_name":"New York","lat":42.5536,"lng":-78.60121,"zip":"14055","miles_from_dt":14.69},{"city":"Forestville","state_name":"New York","lat":42.44364,"lng":-79.14897,"zip":"14062","miles_from_dt":14.94},{"city":"West Valley","state_name":"New York","lat":42.42491,"lng":-78.64286,"zip":"14171","miles_from_dt":14.94},{"city":"West Falls","state_name":"New York","lat":42.70115,"lng":-78.67294,"zip":"14170","miles_from_dt":15.53},{"city":"Athol Springs","state_name":"New York","lat":42.77325,"lng":-78.86595,"zip":"14010","miles_from_dt":15.99},{"city":"Orchard Park","state_name":"New York","lat":42.75204,"lng":-78.74402,"zip":"14127","miles_from_dt":16.25},{"city":"Buffalo","state_name":"New York","lat":42.78903,"lng":-78.82694,"zip":"14219","miles_from_dt":17.32},{"city":"Leon","state_name":"New York","lat":42.29368,"lng":-79.01798,"zip":"14751","miles_from_dt":18.39},{"city":"Sheridan","state_name":"New York","lat":42.48489,"lng":-79.2437,"zip":"14135","miles_from_dt":18.56},{"city":"Holland","state_name":"New York","lat":42.64289,"lng":-78.54886,"zip":"14080","miles_from_dt":18.67},{"city":"Sardinia","state_name":"New York","lat":42.53057,"lng":-78.51738,"zip":"14134","miles_from_dt":18.97},{"city":"Buffalo","state_name":"New York","lat":42.81921,"lng":-78.82772,"zip":"14218","miles_from_dt":19.37},{"city":"Chaffee","state_name":"New York","lat":42.56518,"lng":-78.50052,"zip":"14030","miles_from_dt":19.87},{"city":"Cherry Creek","state_name":"New York","lat":42.3101,"lng":-79.13489,"zip":"14723","miles_from_dt":20.38},{"city":"Ellicottville","state_name":"New York","lat":42.30063,"lng":-78.65092,"zip":"14731","miles_from_dt":20.64},{"city":"Machias","state_name":"New York","lat":42.3863,"lng":-78.54292,"zip":"14101","miles_from_dt":20.69},{"city":"Conewango Valley","state_name":"New York","lat":42.25255,"lng":-79.02221,"zip":"14726","miles_from_dt":21.13},{"city":"Spring Brook","state_name":"New York","lat":42.80125,"lng":-78.66507,"zip":"14140","miles_from_dt":21.2},{"city":"Buffalo","state_name":"New York","lat":42.84571,"lng":-78.82264,"zip":"14220","miles_from_dt":21.22},{"city":"Yorkshire","state_name":"New York","lat":42.52594,"lng":-78.47306,"zip":"14173","miles_from_dt":21.25},{"city":"Delevan","state_name":"New York","lat":42.46882,"lng":-78.48377,"zip":"14042","miles_from_dt":21.29},{"city":"Little Valley","state_name":"New York","lat":42.23477,"lng":-78.81398,"zip":"14755","miles_from_dt":21.56},{"city":"Buffalo","state_name":"New York","lat":42.83767,"lng":-78.74771,"zip":"14224","miles_from_dt":21.62},{"city":"South Wales","state_name":"New York","lat":42.71723,"lng":-78.53606,"zip":"14139","miles_from_dt":21.65},{"city":"Dunkirk","state_name":"New York","lat":42.48087,"lng":-79.31128,"zip":"14048","miles_from_dt":21.99},{"city":"Buffalo","state_name":"New York","lat":42.86244,"lng":-78.86507,"zip":"14203","miles_from_dt":22.13},{"city":"East Aurora","state_name":"New York","lat":42.77054,"lng":-78.58084,"zip":"14052","miles_from_dt":22.23},{"city":"Buffalo","state_name":"New York","lat":42.86514,"lng":-78.86949,"zip":"14269","miles_from_dt":22.31},{"city":"Buffalo","state_name":"New York","lat":42.86407,"lng":-78.82811,"zip":"14210","miles_from_dt":22.43},{"city":"Buffalo","state_name":"New York","lat":42.87072,"lng":-78.8697,"zip":"14273","miles_from_dt":22.69},{"city":"Buffalo","state_name":"New York","lat":42.87227,"lng":-78.87025,"zip":"14272","miles_from_dt":22.8},{"city":"Buffalo","state_name":"New York","lat":42.87,"lng":-78.83221,"zip":"14270","miles_from_dt":22.81},{"city":"Buffalo","state_name":"New York","lat":42.87338,"lng":-78.86924,"zip":"14263","miles_from_dt":22.88},{"city":"Buffalo","state_name":"New York","lat":42.8751,"lng":-78.86902,"zip":"14233","miles_from_dt":23},{"city":"Buffalo","state_name":"New York","lat":42.882,"lng":-78.8614,"zip":"14204","miles_from_dt":23.49},{"city":"Buffalo","state_name":"New York","lat":42.87884,"lng":-78.80962,"zip":"14240","miles_from_dt":23.58},{"city":"Buffalo","state_name":"New York","lat":42.88078,"lng":-78.81018,"zip":"14206","miles_from_dt":23.71},{"city":"Buffalo","state_name":"New York","lat":42.88568,"lng":-78.87116,"zip":"14276","miles_from_dt":23.72},{"city":"Elma","state_name":"New York","lat":42.83241,"lng":-78.63678,"zip":"14059","miles_from_dt":23.78},{"city":"Buffalo","state_name":"New York","lat":42.88693,"lng":-78.87124,"zip":"14280","miles_from_dt":23.81},{"city":"Buffalo","state_name":"New York","lat":42.88798,"lng":-78.88358,"zip":"14202","miles_from_dt":23.87},{"city":"Wales Center","state_name":"New York","lat":42.76446,"lng":-78.52938,"zip":"14169","miles_from_dt":23.88},{"city":"Fredonia","state_name":"New York","lat":42.41451,"lng":-79.32518,"zip":"14063","miles_from_dt":23.98},{"city":"Buffalo","state_name":"New York","lat":42.88721,"lng":-78.82344,"zip":"14264","miles_from_dt":24.04},{"city":"Buffalo","state_name":"New York","lat":42.89235,"lng":-78.8688,"zip":"14205","miles_from_dt":24.19},{"city":"Buffalo","state_name":"New York","lat":42.89706,"lng":-78.88752,"zip":"14201","miles_from_dt":24.49},{"city":"Buffalo","state_name":"New York","lat":42.89438,"lng":-78.81957,"zip":"14212","miles_from_dt":24.56},{"city":"Cassadaga","state_name":"New York","lat":42.34417,"lng":-79.28813,"zip":"14718","miles_from_dt":24.57},{"city":"Buffalo","state_name":"New York","lat":42.88402,"lng":-78.74665,"zip":"14227","miles_from_dt":24.67},{"city":"Ellington","state_name":"New York","lat":42.2188,"lng":-79.10696,"zip":"14732","miles_from_dt":24.96},{"city":"Java Village","state_name":"New York","lat":42.67921,"lng":-78.43446,"zip":"14083","miles_from_dt":25.01},{"city":"Arcade","state_name":"New York","lat":42.57542,"lng":-78.39241,"zip":"14009","miles_from_dt":25.43},{"city":"Buffalo","state_name":"New York","lat":42.90813,"lng":-78.81883,"zip":"14211","miles_from_dt":25.51},{"city":"Buffalo","state_name":"New York","lat":42.91365,"lng":-78.86622,"zip":"14209","miles_from_dt":25.66},{"city":"Lily Dale","state_name":"New York","lat":42.3517,"lng":-79.31965,"zip":"14752","miles_from_dt":25.66},{"city":"Buffalo","state_name":"New York","lat":42.9146,"lng":-78.85146,"zip":"14208","miles_from_dt":25.77},{"city":"East Randolph","state_name":"New York","lat":42.17125,"lng":-78.94814,"zip":"14730","miles_from_dt":25.79},{"city":"Buffalo","state_name":"New York","lat":42.9167,"lng":-78.87708,"zip":"14267","miles_from_dt":25.85},{"city":"Buffalo","state_name":"New York","lat":42.91762,"lng":-78.89099,"zip":"14213","miles_from_dt":25.91},{"city":"Buffalo","state_name":"New York","lat":42.92002,"lng":-78.8771,"zip":"14222","miles_from_dt":26.08},{"city":"Sandusky","state_name":"New York","lat":42.49965,"lng":-78.37889,"zip":"14133","miles_from_dt":26.19},{"city":"Depew","state_name":"New York","lat":42.90142,"lng":-78.70431,"zip":"14043","miles_from_dt":26.51},{"city":"Strykersville","state_name":"New York","lat":42.73154,"lng":-78.43205,"zip":"14145","miles_from_dt":26.69},{"city":"Sinclairville","state_name":"New York","lat":42.2665,"lng":-79.2559,"zip":"14782","miles_from_dt":26.74},{"city":"Gerry","state_name":"New York","lat":42.21962,"lng":-79.18053,"zip":"14740","miles_from_dt":26.81},{"city":"Marilla","state_name":"New York","lat":42.84272,"lng":-78.55481,"zip":"14102","miles_from_dt":26.82},{"city":"Great Valley","state_name":"New York","lat":42.21868,"lng":-78.5963,"zip":"14741","miles_from_dt":26.88},{"city":"Java Center","state_name":"New York","lat":42.65689,"lng":-78.38435,"zip":"14082","miles_from_dt":26.91},{"city":"Randolph","state_name":"New York","lat":42.15383,"lng":-78.95086,"zip":"14772","miles_from_dt":27},{"city":"Buffalo","state_name":"New York","lat":42.93451,"lng":-78.81023,"zip":"14215","miles_from_dt":27.37},{"city":"Franklinville","state_name":"New York","lat":42.33524,"lng":-78.42926,"zip":"14737","miles_from_dt":27.49},{"city":"Buffalo","state_name":"New York","lat":42.93936,"lng":-78.84101,"zip":"14214","miles_from_dt":27.52},{"city":"Buffalo","state_name":"New York","lat":42.92792,"lng":-78.74765,"zip":"14241","miles_from_dt":27.57},{"city":"Buffalo","state_name":"New York","lat":42.92879,"lng":-78.752,"zip":"14225","miles_from_dt":27.57},{"city":"Van Buren Point","state_name":"New York","lat":42.45088,"lng":-79.41592,"zip":"14166","miles_from_dt":27.66},{"city":"Buffalo","state_name":"New York","lat":42.94855,"lng":-78.862,"zip":"14216","miles_from_dt":28.08},{"city":"Buffalo","state_name":"New York","lat":42.95201,"lng":-78.89824,"zip":"14207","miles_from_dt":28.29},{"city":"Lancaster","state_name":"New York","lat":42.90661,"lng":-78.6291,"zip":"14086","miles_from_dt":28.41},{"city":"Cowlesville","state_name":"New York","lat":42.80637,"lng":-78.45448,"zip":"14037","miles_from_dt":28.66},{"city":"Kennedy","state_name":"New York","lat":42.15346,"lng":-79.09061,"zip":"14747","miles_from_dt":28.76},{"city":"Bowmansville","state_name":"New York","lat":42.94212,"lng":-78.68794,"zip":"14026","miles_from_dt":29.43},{"city":"North Java","state_name":"New York","lat":42.66813,"lng":-78.33624,"zip":"14113","miles_from_dt":29.48},{"city":"Stockton","state_name":"New York","lat":42.31445,"lng":-79.38028,"zip":"14784","miles_from_dt":29.65},{"city":"Buffalo","state_name":"New York","lat":42.97189,"lng":-78.87674,"zip":"14217","miles_from_dt":29.66},{"city":"Freedom","state_name":"New York","lat":42.48741,"lng":-78.31158,"zip":"14065","miles_from_dt":29.71},{"city":"Buffalo","state_name":"New York","lat":42.97348,"lng":-78.84612,"zip":"14223","miles_from_dt":29.85},{"city":"Buffalo","state_name":"New York","lat":42.97078,"lng":-78.79844,"zip":"14226","miles_from_dt":29.93}],"targetCityZipCode":"14091","targetCityState":"New York"},"__N_SSG":true}