{"pageProps":{"stateName":"New-york","cityName":"lindley","nearbyCities":[{"city":"Lawrenceville","state_name":"Pennsylvania","lat":41.97352,"lng":-77.15028,"zip":"16929","miles_from_dt":3.94},{"city":"Nelson","state_name":"Pennsylvania","lat":41.97752,"lng":-77.23373,"zip":"16940","miles_from_dt":6.28},{"city":"Tioga","state_name":"Pennsylvania","lat":41.91422,"lng":-77.13999,"zip":"16946","miles_from_dt":7.94},{"city":"Elkland","state_name":"Pennsylvania","lat":41.98218,"lng":-77.28851,"zip":"16920","miles_from_dt":8.63},{"city":"Corning","state_name":"New York","lat":42.12927,"lng":-77.02783,"zip":"14830","miles_from_dt":8.78},{"city":"Corning","state_name":"New York","lat":42.14715,"lng":-77.05647,"zip":"14831","miles_from_dt":9.05},{"city":"Addison","state_name":"New York","lat":42.09718,"lng":-77.28461,"zip":"14801","miles_from_dt":9.1},{"city":"Painted Post","state_name":"New York","lat":42.16816,"lng":-77.13234,"zip":"14870","miles_from_dt":9.6},{"city":"Coopers Plains","state_name":"New York","lat":42.18069,"lng":-77.14292,"zip":"14827","miles_from_dt":10.48},{"city":"Millerton","state_name":"Pennsylvania","lat":41.94318,"lng":-76.95837,"zip":"16936","miles_from_dt":10.78},{"city":"Pine City","state_name":"New York","lat":42.03838,"lng":-76.91093,"zip":"14871","miles_from_dt":11.45},{"city":"Osceola","state_name":"Pennsylvania","lat":41.9654,"lng":-77.35414,"zip":"16942","miles_from_dt":12.2},{"city":"Big Flats","state_name":"New York","lat":42.15525,"lng":-76.95148,"zip":"14814","miles_from_dt":12.77},{"city":"Elmira","state_name":"New York","lat":42.12372,"lng":-76.87771,"zip":"14903","miles_from_dt":14.67},{"city":"Middlebury Center","state_name":"Pennsylvania","lat":41.87032,"lng":-77.32404,"zip":"16935","miles_from_dt":14.72},{"city":"Campbell","state_name":"New York","lat":42.23541,"lng":-77.21623,"zip":"14821","miles_from_dt":14.87},{"city":"Mansfield","state_name":"Pennsylvania","lat":41.81904,"lng":-77.06716,"zip":"16933","miles_from_dt":14.89},{"city":"Elmira","state_name":"New York","lat":42.08692,"lng":-76.84284,"zip":"14905","miles_from_dt":15.46},{"city":"Woodhull","state_name":"New York","lat":42.05729,"lng":-77.43482,"zip":"14898","miles_from_dt":15.64},{"city":"Cameron Mills","state_name":"New York","lat":42.18629,"lng":-77.36258,"zip":"14820","miles_from_dt":16.02},{"city":"Knoxville","state_name":"Pennsylvania","lat":41.95203,"lng":-77.43371,"zip":"16928","miles_from_dt":16.36},{"city":"Elmira","state_name":"New York","lat":42.07007,"lng":-76.80798,"zip":"14904","miles_from_dt":16.96},{"city":"Elmira","state_name":"New York","lat":42.10412,"lng":-76.81218,"zip":"14902","miles_from_dt":17.3},{"city":"Gillett","state_name":"Pennsylvania","lat":41.95319,"lng":-76.78997,"zip":"16925","miles_from_dt":18.43},{"city":"Wellsburg","state_name":"New York","lat":42.02442,"lng":-76.77185,"zip":"14894","miles_from_dt":18.6},{"city":"Beaver Dams","state_name":"New York","lat":42.29199,"lng":-76.99413,"zip":"14812","miles_from_dt":19.5},{"city":"Horseheads","state_name":"New York","lat":42.20225,"lng":-76.8334,"zip":"14845","miles_from_dt":19.5},{"city":"Savona","state_name":"New York","lat":42.31521,"lng":-77.19323,"zip":"14879","miles_from_dt":19.99},{"city":"Mainesburg","state_name":"Pennsylvania","lat":41.77574,"lng":-76.94017,"zip":"16932","miles_from_dt":20.12},{"city":"Pine Valley","state_name":"New York","lat":42.24141,"lng":-76.86473,"zip":"14872","miles_from_dt":20.12},{"city":"Cameron","state_name":"New York","lat":42.21924,"lng":-77.43466,"zip":"14819","miles_from_dt":20.3},{"city":"Elmira","state_name":"New York","lat":42.07363,"lng":-76.74137,"zip":"14901","miles_from_dt":20.39},{"city":"Jasper","state_name":"New York","lat":42.13978,"lng":-77.50112,"zip":"14855","miles_from_dt":20.4},{"city":"Sylvania","state_name":"Pennsylvania","lat":41.80546,"lng":-76.85648,"zip":"16945","miles_from_dt":21.01},{"city":"Covington","state_name":"Pennsylvania","lat":41.723,"lng":-77.05519,"zip":"16917","miles_from_dt":21.5},{"city":"Columbia Cross Roads","state_name":"Pennsylvania","lat":41.8618,"lng":-76.77687,"zip":"16914","miles_from_dt":21.69},{"city":"Westfield","state_name":"Pennsylvania","lat":41.89816,"lng":-77.53429,"zip":"16950","miles_from_dt":22.55},{"city":"Troupsburg","state_name":"New York","lat":42.048,"lng":-77.57117,"zip":"14885","miles_from_dt":22.57},{"city":"Wellsboro","state_name":"Pennsylvania","lat":41.73038,"lng":-77.31841,"zip":"16901","miles_from_dt":22.72},{"city":"Millport","state_name":"New York","lat":42.2804,"lng":-76.84205,"zip":"14864","miles_from_dt":22.9},{"city":"Lowman","state_name":"New York","lat":42.0914,"lng":-76.6888,"zip":"14861","miles_from_dt":23.26},{"city":"Breesport","state_name":"New York","lat":42.19728,"lng":-76.73161,"zip":"14816","miles_from_dt":23.68},{"city":"Bradford","state_name":"New York","lat":42.37335,"lng":-77.09463,"zip":"14815","miles_from_dt":23.84},{"city":"Arnot","state_name":"Pennsylvania","lat":41.67787,"lng":-77.10392,"zip":"16911","miles_from_dt":24.29},{"city":"Bath","state_name":"New York","lat":42.34678,"lng":-77.34599,"zip":"14810","miles_from_dt":24.5},{"city":"Morris Run","state_name":"Pennsylvania","lat":41.68097,"lng":-77.0141,"zip":"16939","miles_from_dt":24.8},{"city":"Troy","state_name":"Pennsylvania","lat":41.76969,"lng":-76.79519,"zip":"16947","miles_from_dt":24.98},{"city":"Blossburg","state_name":"Pennsylvania","lat":41.66803,"lng":-77.05845,"zip":"16912","miles_from_dt":25.22},{"city":"Watkins Glen","state_name":"New York","lat":42.37823,"lng":-76.95035,"zip":"14891","miles_from_dt":25.86},{"city":"Tyrone","state_name":"New York","lat":42.40247,"lng":-77.06989,"zip":"14887","miles_from_dt":25.97},{"city":"Chemung","state_name":"New York","lat":42.05564,"lng":-76.62116,"zip":"14825","miles_from_dt":26.4},{"city":"Erin","state_name":"New York","lat":42.18951,"lng":-76.66635,"zip":"14838","miles_from_dt":26.42},{"city":"Canisteo","state_name":"New York","lat":42.23984,"lng":-77.5722,"zip":"14823","miles_from_dt":26.84},{"city":"Kanona","state_name":"New York","lat":42.37737,"lng":-77.36944,"zip":"14856","miles_from_dt":26.92},{"city":"Montour Falls","state_name":"New York","lat":42.35091,"lng":-76.83178,"zip":"14865","miles_from_dt":27.07},{"city":"Alba","state_name":"Pennsylvania","lat":41.70477,"lng":-76.83124,"zip":"16910","miles_from_dt":27.27},{"city":"Greenwood","state_name":"New York","lat":42.13961,"lng":-77.64331,"zip":"14839","miles_from_dt":27.32},{"city":"Cayuta","state_name":"New York","lat":42.26875,"lng":-76.70881,"zip":"14824","miles_from_dt":27.36},{"city":"Harrison Valley","state_name":"Pennsylvania","lat":41.9655,"lng":-77.65941,"zip":"16927","miles_from_dt":27.45},{"city":"Sabinsville","state_name":"Pennsylvania","lat":41.8406,"lng":-77.61915,"zip":"16943","miles_from_dt":28.22},{"city":"Rexville","state_name":"New York","lat":42.06181,"lng":-77.68384,"zip":"14877","miles_from_dt":28.42},{"city":"East Smithfield","state_name":"Pennsylvania","lat":41.87431,"lng":-76.62075,"zip":"18817","miles_from_dt":28.48},{"city":"Hammondsport","state_name":"New York","lat":42.44119,"lng":-77.18758,"zip":"14840","miles_from_dt":28.58},{"city":"Milan","state_name":"Pennsylvania","lat":41.89356,"lng":-76.60832,"zip":"18831","miles_from_dt":28.61},{"city":"Reading Center","state_name":"New York","lat":42.43372,"lng":-76.95015,"zip":"14876","miles_from_dt":29.46},{"city":"Odessa","state_name":"New York","lat":42.36403,"lng":-76.77052,"zip":"14869","miles_from_dt":29.68}],"targetCityZipCode":"14858","targetCityState":"New York"},"__N_SSG":true}