{"pageProps":{"stateName":"New-york","cityName":"loch-sheldrake","nearbyCities":[{"city":"Hurleyville","state_name":"New York","lat":41.76596,"lng":-74.65934,"zip":"12747","miles_from_dt":1.25},{"city":"Woodbourne","state_name":"New York","lat":41.79552,"lng":-74.58846,"zip":"12788","miles_from_dt":3.66},{"city":"Liberty","state_name":"New York","lat":41.80004,"lng":-74.73643,"zip":"12754","miles_from_dt":4.22},{"city":"Fallsburg","state_name":"New York","lat":41.73378,"lng":-74.6102,"zip":"12733","miles_from_dt":4.24},{"city":"Neversink","state_name":"New York","lat":41.85265,"lng":-74.6281,"zip":"12765","miles_from_dt":4.98},{"city":"Harris","state_name":"New York","lat":41.71796,"lng":-74.72108,"zip":"12742","miles_from_dt":5.62},{"city":"Ferndale","state_name":"New York","lat":41.7354,"lng":-74.7531,"zip":"12734","miles_from_dt":5.97},{"city":"South Fallsburg","state_name":"New York","lat":41.69804,"lng":-74.62703,"zip":"12779","miles_from_dt":6.14},{"city":"Kiamesha Lake","state_name":"New York","lat":41.69209,"lng":-74.66119,"zip":"12751","miles_from_dt":6.35},{"city":"Woodridge","state_name":"New York","lat":41.71374,"lng":-74.57233,"zip":"12789","miles_from_dt":6.55},{"city":"Parksville","state_name":"New York","lat":41.87157,"lng":-74.71507,"zip":"12768","miles_from_dt":6.73},{"city":"Thompsonville","state_name":"New York","lat":41.66907,"lng":-74.61485,"zip":"12784","miles_from_dt":8.23},{"city":"Greenfield Park","state_name":"New York","lat":41.72715,"lng":-74.51148,"zip":"12435","miles_from_dt":8.51},{"city":"Glen Wild","state_name":"New York","lat":41.66009,"lng":-74.59119,"zip":"12738","miles_from_dt":9.21},{"city":"White Sulphur Springs","state_name":"New York","lat":41.7931,"lng":-74.8365,"zip":"12787","miles_from_dt":9.26},{"city":"Monticello","state_name":"New York","lat":41.65125,"lng":-74.6982,"zip":"12701","miles_from_dt":9.4},{"city":"Swan Lake","state_name":"New York","lat":41.74026,"lng":-74.83502,"zip":"12783","miles_from_dt":9.65},{"city":"Mountain Dale","state_name":"New York","lat":41.68221,"lng":-74.52205,"zip":"12763","miles_from_dt":9.92},{"city":"Kauneonga Lake","state_name":"New York","lat":41.69149,"lng":-74.82768,"zip":"12749","miles_from_dt":10.87},{"city":"Mongaup Valley","state_name":"New York","lat":41.65582,"lng":-74.79462,"zip":"12762","miles_from_dt":11.33},{"city":"Ellenville","state_name":"New York","lat":41.73817,"lng":-74.44615,"zip":"12428","miles_from_dt":11.37},{"city":"Smallwood","state_name":"New York","lat":41.66174,"lng":-74.8138,"zip":"12778","miles_from_dt":11.68},{"city":"Rock Hill","state_name":"New York","lat":41.62266,"lng":-74.58232,"zip":"12775","miles_from_dt":11.79},{"city":"Livingston Manor","state_name":"New York","lat":41.9428,"lng":-74.74942,"zip":"12758","miles_from_dt":11.94},{"city":"Youngsville","state_name":"New York","lat":41.81126,"lng":-74.88692,"zip":"12791","miles_from_dt":11.99},{"city":"Grahamsville","state_name":"New York","lat":41.89499,"lng":-74.46616,"zip":"12740","miles_from_dt":12.5},{"city":"Napanoch","state_name":"New York","lat":41.82273,"lng":-74.41666,"zip":"12458","miles_from_dt":12.72},{"city":"Phillipsport","state_name":"New York","lat":41.65925,"lng":-74.47071,"zip":"12769","miles_from_dt":12.94},{"city":"Claryville","state_name":"New York","lat":41.95679,"lng":-74.54794,"zip":"12725","miles_from_dt":13.2},{"city":"Jeffersonville","state_name":"New York","lat":41.77604,"lng":-74.91845,"zip":"12748","miles_from_dt":13.49},{"city":"Spring Glen","state_name":"New York","lat":41.66796,"lng":-74.44184,"zip":"12483","miles_from_dt":13.73},{"city":"White Lake","state_name":"New York","lat":41.64306,"lng":-74.85393,"zip":"12786","miles_from_dt":14.06},{"city":"Callicoon Center","state_name":"New York","lat":41.85195,"lng":-74.93535,"zip":"12724","miles_from_dt":15.09},{"city":"Summitville","state_name":"New York","lat":41.61448,"lng":-74.47208,"zip":"12781","miles_from_dt":15.13},{"city":"Bethel","state_name":"New York","lat":41.65794,"lng":-74.90029,"zip":"12720","miles_from_dt":15.27},{"city":"Wurtsboro","state_name":"New York","lat":41.5863,"lng":-74.51705,"zip":"12790","miles_from_dt":15.46},{"city":"Wawarsing","state_name":"New York","lat":41.75597,"lng":-74.35462,"zip":"12489","miles_from_dt":15.77},{"city":"Kenoza Lake","state_name":"New York","lat":41.73595,"lng":-74.96382,"zip":"12750","miles_from_dt":16.17},{"city":"Forestburgh","state_name":"New York","lat":41.55172,"lng":-74.71067,"zip":"12777","miles_from_dt":16.26},{"city":"Cragsmoor","state_name":"New York","lat":41.6743,"lng":-74.37769,"zip":"12420","miles_from_dt":16.33},{"city":"North Branch","state_name":"New York","lat":41.81408,"lng":-74.97923,"zip":"12766","miles_from_dt":16.74},{"city":"Cochecton","state_name":"New York","lat":41.69269,"lng":-74.96902,"zip":"12726","miles_from_dt":17.29},{"city":"Kerhonkson","state_name":"New York","lat":41.79063,"lng":-74.31655,"zip":"12446","miles_from_dt":17.62},{"city":"Walker Valley","state_name":"New York","lat":41.6335,"lng":-74.37718,"zip":"12588","miles_from_dt":17.84},{"city":"Obernburg","state_name":"New York","lat":41.83504,"lng":-75.00284,"zip":"12767","miles_from_dt":18.17},{"city":"Westbrookville","state_name":"New York","lat":41.52429,"lng":-74.58051,"zip":"12785","miles_from_dt":18.36},{"city":"Lake Huntington","state_name":"New York","lat":41.68278,"lng":-74.9905,"zip":"12752","miles_from_dt":18.57},{"city":"Cochecton","state_name":"New York","lat":41.64061,"lng":-74.96813,"zip":"12727","miles_from_dt":18.86},{"city":"Roscoe","state_name":"New York","lat":41.96486,"lng":-74.93197,"zip":"12776","miles_from_dt":18.87},{"city":"Eldred","state_name":"New York","lat":41.56075,"lng":-74.87353,"zip":"12732","miles_from_dt":19.03},{"city":"Hortonville","state_name":"New York","lat":41.78503,"lng":-75.02633,"zip":"12745","miles_from_dt":19.05},{"city":"Bloomingburg","state_name":"New York","lat":41.56741,"lng":-74.42832,"zip":"12721","miles_from_dt":19.08},{"city":"Callicoon","state_name":"New York","lat":41.77809,"lng":-75.02751,"zip":"12723","miles_from_dt":19.11},{"city":"Fremont Center","state_name":"New York","lat":41.85327,"lng":-75.01917,"zip":"12736","miles_from_dt":19.27},{"city":"Highland Lake","state_name":"New York","lat":41.54065,"lng":-74.84687,"zip":"12743","miles_from_dt":19.44},{"city":"Burlingham","state_name":"New York","lat":41.59042,"lng":-74.3748,"zip":"12722","miles_from_dt":19.81},{"city":"Cuddebackville","state_name":"New York","lat":41.49411,"lng":-74.61582,"zip":"12729","miles_from_dt":20.12},{"city":"Pine Bush","state_name":"New York","lat":41.62223,"lng":-74.33256,"zip":"12566","miles_from_dt":20.18},{"city":"Glen Spey","state_name":"New York","lat":41.50529,"lng":-74.79941,"zip":"12737","miles_from_dt":20.59},{"city":"Thompson Ridge","state_name":"New York","lat":41.57697,"lng":-74.35782,"zip":"10985","miles_from_dt":21.09},{"city":"Narrowsburg","state_name":"New York","lat":41.59639,"lng":-74.98515,"zip":"12764","miles_from_dt":21.33},{"city":"West Shokan","state_name":"New York","lat":41.94857,"lng":-74.30169,"zip":"12494","miles_from_dt":21.59},{"city":"Accord","state_name":"New York","lat":41.81602,"lng":-74.23632,"zip":"12404","miles_from_dt":21.87},{"city":"Arkville","state_name":"New York","lat":42.09647,"lng":-74.56502,"zip":"12406","miles_from_dt":22.09},{"city":"Hankins","state_name":"New York","lat":41.84368,"lng":-75.07816,"zip":"12741","miles_from_dt":22.1},{"city":"Big Indian","state_name":"New York","lat":42.0706,"lng":-74.45212,"zip":"12410","miles_from_dt":22.44},{"city":"Olivebridge","state_name":"New York","lat":41.90531,"lng":-74.25246,"zip":"12461","miles_from_dt":22.52},{"city":"Circleville","state_name":"New York","lat":41.52836,"lng":-74.38327,"zip":"10919","miles_from_dt":22.65},{"city":"Otisville","state_name":"New York","lat":41.4669,"lng":-74.54121,"zip":"10963","miles_from_dt":22.7},{"city":"Bullville","state_name":"New York","lat":41.54022,"lng":-74.35714,"zip":"10915","miles_from_dt":22.91},{"city":"Huguenot","state_name":"New York","lat":41.44929,"lng":-74.65582,"zip":"12746","miles_from_dt":23.1},{"city":"Howells","state_name":"New York","lat":41.482,"lng":-74.46352,"zip":"10932","miles_from_dt":23.14},{"city":"Sparrow Bush","state_name":"New York","lat":41.44514,"lng":-74.71989,"zip":"12780","miles_from_dt":23.61},{"city":"Damascus","state_name":"Pennsylvania","lat":41.74821,"lng":-75.11315,"zip":"18415","miles_from_dt":23.67},{"city":"Phoenicia","state_name":"New York","lat":42.04071,"lng":-74.34452,"zip":"12464","miles_from_dt":23.97},{"city":"Yulan","state_name":"New York","lat":41.51447,"lng":-74.95172,"zip":"12792","miles_from_dt":24.04},{"city":"Barryville","state_name":"New York","lat":41.48431,"lng":-74.90543,"zip":"12719","miles_from_dt":24.34},{"city":"Long Eddy","state_name":"New York","lat":41.90063,"lng":-75.10559,"zip":"12760","miles_from_dt":24.48},{"city":"Andes","state_name":"New York","lat":42.13059,"lng":-74.7882,"zip":"13731","miles_from_dt":24.85},{"city":"Milanville","state_name":"Pennsylvania","lat":41.66262,"lng":-75.11059,"zip":"18443","miles_from_dt":24.87},{"city":"Middletown","state_name":"New York","lat":41.45149,"lng":-74.46997,"zip":"10940","miles_from_dt":24.92},{"city":"Boiceville","state_name":"New York","lat":42.01218,"lng":-74.27698,"zip":"12412","miles_from_dt":25.16},{"city":"Margaretville","state_name":"New York","lat":42.14871,"lng":-74.66334,"zip":"12455","miles_from_dt":25.17},{"city":"Pond Eddy","state_name":"New York","lat":41.44681,"lng":-74.85028,"zip":"12770","miles_from_dt":25.32},{"city":"High Falls","state_name":"New York","lat":41.78665,"lng":-74.16338,"zip":"12440","miles_from_dt":25.53},{"city":"Stone Ridge","state_name":"New York","lat":41.87024,"lng":-74.17338,"zip":"12484","miles_from_dt":25.69},{"city":"Gardiner","state_name":"New York","lat":41.68115,"lng":-74.17751,"zip":"12525","miles_from_dt":25.81},{"city":"Shokan","state_name":"New York","lat":41.97519,"lng":-74.22718,"zip":"12481","miles_from_dt":25.83},{"city":"Millrift","state_name":"Pennsylvania","lat":41.42027,"lng":-74.77503,"zip":"18340","miles_from_dt":25.83},{"city":"Tyler Hill","state_name":"Pennsylvania","lat":41.70352,"lng":-75.14597,"zip":"18469","miles_from_dt":25.85},{"city":"Middletown","state_name":"New York","lat":41.48923,"lng":-74.34556,"zip":"10941","miles_from_dt":25.98},{"city":"Beach Lake","state_name":"Pennsylvania","lat":41.59792,"lng":-75.09509,"zip":"18405","miles_from_dt":26.02},{"city":"Highmount","state_name":"New York","lat":42.1502,"lng":-74.50625,"zip":"12441","miles_from_dt":26.45},{"city":"Downsville","state_name":"New York","lat":42.05976,"lng":-75.01524,"zip":"13755","miles_from_dt":26.5},{"city":"Lackawaxen","state_name":"Pennsylvania","lat":41.49221,"lng":-75.00661,"zip":"18435","miles_from_dt":27.06},{"city":"Montgomery","state_name":"New York","lat":41.52957,"lng":-74.25843,"zip":"12549","miles_from_dt":27.11},{"city":"Pine Hill","state_name":"New York","lat":42.15278,"lng":-74.46725,"zip":"12465","miles_from_dt":27.28},{"city":"Mount Tremper","state_name":"New York","lat":42.03997,"lng":-74.24659,"zip":"12457","miles_from_dt":27.59},{"city":"East Branch","state_name":"New York","lat":42.01025,"lng":-75.10394,"zip":"13756","miles_from_dt":27.81},{"city":"Wallkill","state_name":"New York","lat":41.6278,"lng":-74.15875,"zip":"12589","miles_from_dt":27.96},{"city":"Equinunk","state_name":"Pennsylvania","lat":41.80705,"lng":-75.20122,"zip":"18417","miles_from_dt":28.12},{"city":"Port Jervis","state_name":"New York","lat":41.37394,"lng":-74.62429,"zip":"12771","miles_from_dt":28.35},{"city":"Shandaken","state_name":"New York","lat":42.13803,"lng":-74.37683,"zip":"12480","miles_from_dt":28.39},{"city":"Matamoras","state_name":"Pennsylvania","lat":41.37566,"lng":-74.73674,"zip":"18336","miles_from_dt":28.48},{"city":"Chichester","state_name":"New York","lat":42.09554,"lng":-74.28592,"zip":"12416","miles_from_dt":28.79},{"city":"New Paltz","state_name":"New York","lat":41.75602,"lng":-74.0958,"zip":"12561","miles_from_dt":29.09},{"city":"Cottekill","state_name":"New York","lat":41.85948,"lng":-74.10265,"zip":"12419","miles_from_dt":29.12},{"city":"Slate Hill","state_name":"New York","lat":41.38442,"lng":-74.47566,"zip":"10973","miles_from_dt":29.14},{"city":"Shohola","state_name":"Pennsylvania","lat":41.40916,"lng":-74.91757,"zip":"18458","miles_from_dt":29.16},{"city":"Walden","state_name":"New York","lat":41.5657,"lng":-74.17289,"zip":"12586","miles_from_dt":29.26},{"city":"Fishs Eddy","state_name":"New York","lat":41.96192,"lng":-75.17283,"zip":"13774","miles_from_dt":29.28},{"city":"Willow","state_name":"New York","lat":42.08264,"lng":-74.24563,"zip":"12495","miles_from_dt":29.59},{"city":"Delancey","state_name":"New York","lat":42.17257,"lng":-74.90379,"zip":"13752","miles_from_dt":29.67},{"city":"Halcottsville","state_name":"New York","lat":42.21251,"lng":-74.59667,"zip":"12438","miles_from_dt":29.74},{"city":"Rowland","state_name":"Pennsylvania","lat":41.4696,"lng":-75.05084,"zip":"18457","miles_from_dt":29.76},{"city":"Johnson","state_name":"New York","lat":41.36527,"lng":-74.51106,"zip":"10933","miles_from_dt":29.88},{"city":"West Hurley","state_name":"New York","lat":41.96957,"lng":-74.13311,"zip":"12491","miles_from_dt":29.93},{"city":"Modena","state_name":"New York","lat":41.66307,"lng":-74.10157,"zip":"12548","miles_from_dt":29.93}],"targetCityZipCode":"12759","targetCityState":"New York"},"__N_SSG":true}