{"pageProps":{"stateName":"New-york","cityName":"mount-upton","nearbyCities":[{"city":"Guilford","state_name":"New York","lat":42.42496,"lng":-75.48128,"zip":"13780","miles_from_dt":4.74},{"city":"Gilbertsville","state_name":"New York","lat":42.47023,"lng":-75.33458,"zip":"13776","miles_from_dt":5.16},{"city":"Unadilla","state_name":"New York","lat":42.33785,"lng":-75.31392,"zip":"13849","miles_from_dt":6.28},{"city":"Wells Bridge","state_name":"New York","lat":42.37123,"lng":-75.24916,"zip":"13859","miles_from_dt":7.72},{"city":"Bainbridge","state_name":"New York","lat":42.30459,"lng":-75.4793,"zip":"13733","miles_from_dt":8.47},{"city":"Sidney","state_name":"New York","lat":42.28423,"lng":-75.39595,"zip":"13838","miles_from_dt":8.58},{"city":"South New Berlin","state_name":"New York","lat":42.53468,"lng":-75.37584,"zip":"13843","miles_from_dt":8.75},{"city":"Otego","state_name":"New York","lat":42.44329,"lng":-75.20154,"zip":"13825","miles_from_dt":10},{"city":"Morris","state_name":"New York","lat":42.52797,"lng":-75.25657,"zip":"13808","miles_from_dt":10.75},{"city":"Norwich","state_name":"New York","lat":42.54712,"lng":-75.53413,"zip":"13815","miles_from_dt":12.03},{"city":"Oxford","state_name":"New York","lat":42.43868,"lng":-75.6295,"zip":"13830","miles_from_dt":12.35},{"city":"Sidney Center","state_name":"New York","lat":42.24824,"lng":-75.26007,"zip":"13839","miles_from_dt":12.95},{"city":"Franklin","state_name":"New York","lat":42.33706,"lng":-75.14728,"zip":"13775","miles_from_dt":13.43},{"city":"Masonville","state_name":"New York","lat":42.20708,"lng":-75.37562,"zip":"13804","miles_from_dt":13.93},{"city":"Afton","state_name":"New York","lat":42.23201,"lng":-75.53127,"zip":"13730","miles_from_dt":14.13},{"city":"West Oneonta","state_name":"New York","lat":42.5048,"lng":-75.14156,"zip":"13861","miles_from_dt":14.4},{"city":"Trout Creek","state_name":"New York","lat":42.20443,"lng":-75.27777,"zip":"13847","miles_from_dt":15.24},{"city":"North Norwich","state_name":"New York","lat":42.61655,"lng":-75.52584,"zip":"13814","miles_from_dt":15.92},{"city":"New Berlin","state_name":"New York","lat":42.63723,"lng":-75.30981,"zip":"13411","miles_from_dt":16.33},{"city":"Laurens","state_name":"New York","lat":42.5513,"lng":-75.13644,"zip":"13796","miles_from_dt":16.34},{"city":"New Lisbon","state_name":"New York","lat":42.59714,"lng":-75.19729,"zip":"13415","miles_from_dt":16.37},{"city":"Treadwell","state_name":"New York","lat":42.36037,"lng":-75.05465,"zip":"13846","miles_from_dt":17.55},{"city":"Nineveh","state_name":"New York","lat":42.16808,"lng":-75.54266,"zip":"13813","miles_from_dt":18.31},{"city":"Oneonta","state_name":"New York","lat":42.47204,"lng":-75.03893,"zip":"13820","miles_from_dt":18.55},{"city":"Greene","state_name":"New York","lat":42.34795,"lng":-75.75977,"zip":"13778","miles_from_dt":19.31},{"city":"Sherburne","state_name":"New York","lat":42.68492,"lng":-75.45572,"zip":"13460","miles_from_dt":19.36},{"city":"East Pharsalia","state_name":"New York","lat":42.55502,"lng":-75.71657,"zip":"13758","miles_from_dt":19.45},{"city":"Garrattsville","state_name":"New York","lat":42.64766,"lng":-75.18918,"zip":"13342","miles_from_dt":19.47},{"city":"Harpursville","state_name":"New York","lat":42.20606,"lng":-75.66334,"zip":"13787","miles_from_dt":19.73},{"city":"Mount Vision","state_name":"New York","lat":42.61188,"lng":-75.11157,"zip":"13810","miles_from_dt":20.03},{"city":"South Plymouth","state_name":"New York","lat":42.60927,"lng":-75.68083,"zip":"13844","miles_from_dt":20.26},{"city":"Walton","state_name":"New York","lat":42.16666,"lng":-75.16633,"zip":"13856","miles_from_dt":20.29},{"city":"McDonough","state_name":"New York","lat":42.50327,"lng":-75.78028,"zip":"13801","miles_from_dt":20.93},{"city":"Meridale","state_name":"New York","lat":42.37894,"lng":-74.97315,"zip":"13806","miles_from_dt":21.5},{"city":"Edmeston","state_name":"New York","lat":42.70193,"lng":-75.24847,"zip":"13335","miles_from_dt":21.53},{"city":"Colliersville","state_name":"New York","lat":42.49003,"lng":-74.98209,"zip":"13747","miles_from_dt":21.67},{"city":"Tunnel","state_name":"New York","lat":42.21635,"lng":-75.72815,"zip":"13848","miles_from_dt":21.76},{"city":"Plymouth","state_name":"New York","lat":42.6531,"lng":-75.66286,"zip":"13832","miles_from_dt":21.84},{"city":"Deposit","state_name":"New York","lat":42.09387,"lng":-75.43625,"zip":"13754","miles_from_dt":21.84},{"city":"Smyrna","state_name":"New York","lat":42.68632,"lng":-75.61998,"zip":"13464","miles_from_dt":22.45},{"city":"West Burlington","state_name":"New York","lat":42.69661,"lng":-75.17695,"zip":"13482","miles_from_dt":22.7},{"city":"West Davenport","state_name":"New York","lat":42.45573,"lng":-74.94989,"zip":"13860","miles_from_dt":22.81},{"city":"Smithville Flats","state_name":"New York","lat":42.41408,"lng":-75.84171,"zip":"13841","miles_from_dt":23.04},{"city":"Portlandville","state_name":"New York","lat":42.54903,"lng":-74.96727,"zip":"13834","miles_from_dt":23.74},{"city":"Port Crane","state_name":"New York","lat":42.19829,"lng":-75.76432,"zip":"13833","miles_from_dt":23.99},{"city":"Chenango Forks","state_name":"New York","lat":42.26868,"lng":-75.82085,"zip":"13746","miles_from_dt":24.02},{"city":"Ouaquaga","state_name":"New York","lat":42.10517,"lng":-75.63701,"zip":"13826","miles_from_dt":24.43},{"city":"Delhi","state_name":"New York","lat":42.30873,"lng":-74.92538,"zip":"13753","miles_from_dt":24.83},{"city":"Milford","state_name":"New York","lat":42.61718,"lng":-74.98612,"zip":"13807","miles_from_dt":25.22},{"city":"East Meredith","state_name":"New York","lat":42.40915,"lng":-74.89321,"zip":"13757","miles_from_dt":25.48},{"city":"Earlville","state_name":"New York","lat":42.75831,"lng":-75.57452,"zip":"13332","miles_from_dt":25.89},{"city":"South Otselic","state_name":"New York","lat":42.65945,"lng":-75.77136,"zip":"13155","miles_from_dt":26.01},{"city":"Maryland","state_name":"New York","lat":42.53849,"lng":-74.91278,"zip":"12116","miles_from_dt":26.05},{"city":"Davenport Center","state_name":"New York","lat":42.45745,"lng":-74.88363,"zip":"13751","miles_from_dt":26.18},{"city":"Hartwick","state_name":"New York","lat":42.70202,"lng":-75.06398,"zip":"13348","miles_from_dt":26.26},{"city":"Willet","state_name":"New York","lat":42.44164,"lng":-75.904,"zip":"13863","miles_from_dt":26.31},{"city":"West Edmeston","state_name":"New York","lat":42.7865,"lng":-75.3165,"zip":"13485","miles_from_dt":26.37},{"city":"Hamden","state_name":"New York","lat":42.17304,"lng":-74.9836,"zip":"13782","miles_from_dt":26.47},{"city":"Burlington Flats","state_name":"New York","lat":42.7438,"lng":-75.1385,"zip":"13315","miles_from_dt":26.5},{"city":"Windsor","state_name":"New York","lat":42.06282,"lng":-75.62879,"zip":"13865","miles_from_dt":26.79},{"city":"Pitcher","state_name":"New York","lat":42.60368,"lng":-75.84582,"zip":"13136","miles_from_dt":26.83},{"city":"North Pitcher","state_name":"New York","lat":42.64578,"lng":-75.81718,"zip":"13124","miles_from_dt":27.22},{"city":"Hubbardsville","state_name":"New York","lat":42.80971,"lng":-75.42401,"zip":"13355","miles_from_dt":27.74},{"city":"Chenango Bridge","state_name":"New York","lat":42.28572,"lng":-75.91077,"zip":"13745","miles_from_dt":27.91},{"city":"Leonardsville","state_name":"New York","lat":42.80501,"lng":-75.26105,"zip":"13364","miles_from_dt":28.17},{"city":"Whitney Point","state_name":"New York","lat":42.3369,"lng":-75.9372,"zip":"13862","miles_from_dt":28.37},{"city":"Davenport","state_name":"New York","lat":42.47739,"lng":-74.83904,"zip":"13750","miles_from_dt":28.64},{"city":"Castle Creek","state_name":"New York","lat":42.24078,"lng":-75.90629,"zip":"13744","miles_from_dt":28.8},{"city":"Brookfield","state_name":"New York","lat":42.82476,"lng":-75.31568,"zip":"13314","miles_from_dt":28.99},{"city":"Binghamton","state_name":"New York","lat":42.13072,"lng":-75.81587,"zip":"13904","miles_from_dt":29},{"city":"Cincinnatus","state_name":"New York","lat":42.56033,"lng":-75.93029,"zip":"13040","miles_from_dt":29.46},{"city":"Hamilton","state_name":"New York","lat":42.82093,"lng":-75.54453,"zip":"13346","miles_from_dt":29.52},{"city":"Binghamton","state_name":"New York","lat":42.18253,"lng":-75.88048,"zip":"13901","miles_from_dt":29.52},{"city":"Hancock","state_name":"New York","lat":41.99037,"lng":-75.26764,"zip":"13783","miles_from_dt":29.55},{"city":"Delancey","state_name":"New York","lat":42.17257,"lng":-74.90379,"zip":"13752","miles_from_dt":29.83}],"targetCityZipCode":"13809","targetCityState":"New York"},"__N_SSG":true}