{"pageProps":{"stateName":"New-york","cityName":"north-tonawanda","nearbyCities":[{"city":"Buffalo","state_name":"New York","lat":43.04214,"lng":-78.7798,"zip":"14228","miles_from_dt":3.56},{"city":"Tonawanda","state_name":"New York","lat":43.01688,"lng":-78.87819,"zip":"14151","miles_from_dt":4.45},{"city":"Getzville","state_name":"New York","lat":43.02696,"lng":-78.75808,"zip":"14068","miles_from_dt":5.08},{"city":"Buffalo","state_name":"New York","lat":43.00165,"lng":-78.79066,"zip":"14260","miles_from_dt":5.45},{"city":"Buffalo","state_name":"New York","lat":43.00188,"lng":-78.7848,"zip":"14261","miles_from_dt":5.57},{"city":"Sanborn","state_name":"New York","lat":43.14787,"lng":-78.87856,"zip":"14132","miles_from_dt":5.58},{"city":"Tonawanda","state_name":"New York","lat":42.99794,"lng":-78.87815,"zip":"14150","miles_from_dt":5.63},{"city":"Niagara Falls","state_name":"New York","lat":43.10197,"lng":-78.95282,"zip":"14304","miles_from_dt":6.24},{"city":"Buffalo","state_name":"New York","lat":42.97348,"lng":-78.84612,"zip":"14223","miles_from_dt":6.92},{"city":"East Amherst","state_name":"New York","lat":43.04168,"lng":-78.69927,"zip":"14051","miles_from_dt":7.25},{"city":"Buffalo","state_name":"New York","lat":42.97189,"lng":-78.87674,"zip":"14217","miles_from_dt":7.3},{"city":"Buffalo","state_name":"New York","lat":42.97078,"lng":-78.79844,"zip":"14226","miles_from_dt":7.33},{"city":"Grand Island","state_name":"New York","lat":43.01673,"lng":-78.96308,"zip":"14072","miles_from_dt":7.54},{"city":"Buffalo","state_name":"New York","lat":42.97856,"lng":-78.75003,"zip":"14265","miles_from_dt":7.86},{"city":"Buffalo","state_name":"New York","lat":42.98039,"lng":-78.73785,"zip":"14231","miles_from_dt":8.11},{"city":"Buffalo","state_name":"New York","lat":42.97918,"lng":-78.72158,"zip":"14221","miles_from_dt":8.7},{"city":"Buffalo","state_name":"New York","lat":42.94855,"lng":-78.862,"zip":"14216","miles_from_dt":8.72},{"city":"Buffalo","state_name":"New York","lat":42.95201,"lng":-78.89824,"zip":"14207","miles_from_dt":8.95},{"city":"Lockport","state_name":"New York","lat":43.15989,"lng":-78.70032,"zip":"14094","miles_from_dt":9.09},{"city":"Buffalo","state_name":"New York","lat":42.93936,"lng":-78.84101,"zip":"14214","miles_from_dt":9.25},{"city":"Buffalo","state_name":"New York","lat":42.93451,"lng":-78.81023,"zip":"14215","miles_from_dt":9.67},{"city":"Niagara Falls","state_name":"New York","lat":43.1199,"lng":-79.02265,"zip":"14305","miles_from_dt":9.98},{"city":"Lockport","state_name":"New York","lat":43.17105,"lng":-78.68883,"zip":"14095","miles_from_dt":10.04},{"city":"Niagara Falls","state_name":"New York","lat":43.08428,"lng":-79.03908,"zip":"14303","miles_from_dt":10.31},{"city":"Niagara Falls","state_name":"New York","lat":43.09701,"lng":-79.03726,"zip":"14301","miles_from_dt":10.32},{"city":"Clarence Center","state_name":"New York","lat":43.04587,"lng":-78.63189,"zip":"14032","miles_from_dt":10.5},{"city":"Lewiston","state_name":"New York","lat":43.17314,"lng":-78.99521,"zip":"14092","miles_from_dt":10.6},{"city":"Buffalo","state_name":"New York","lat":42.92002,"lng":-78.8771,"zip":"14222","miles_from_dt":10.79},{"city":"Buffalo","state_name":"New York","lat":42.92879,"lng":-78.752,"zip":"14225","miles_from_dt":10.85},{"city":"Niagara Falls","state_name":"New York","lat":43.0939,"lng":-79.04919,"zip":"14302","miles_from_dt":10.89},{"city":"Buffalo","state_name":"New York","lat":42.9146,"lng":-78.85146,"zip":"14208","miles_from_dt":10.99},{"city":"Buffalo","state_name":"New York","lat":42.92792,"lng":-78.74765,"zip":"14241","miles_from_dt":10.99},{"city":"Niagara University","state_name":"New York","lat":43.13718,"lng":-79.03516,"zip":"14109","miles_from_dt":11},{"city":"Buffalo","state_name":"New York","lat":42.9167,"lng":-78.87708,"zip":"14267","miles_from_dt":11.01},{"city":"Buffalo","state_name":"New York","lat":42.91762,"lng":-78.89099,"zip":"14213","miles_from_dt":11.11},{"city":"Buffalo","state_name":"New York","lat":42.91365,"lng":-78.86622,"zip":"14209","miles_from_dt":11.13},{"city":"Model City","state_name":"New York","lat":43.19313,"lng":-78.98327,"zip":"14107","miles_from_dt":11.13},{"city":"Buffalo","state_name":"New York","lat":42.90813,"lng":-78.81883,"zip":"14211","miles_from_dt":11.44},{"city":"Ransomville","state_name":"New York","lat":43.23556,"lng":-78.89935,"zip":"14131","miles_from_dt":11.65},{"city":"Bowmansville","state_name":"New York","lat":42.94212,"lng":-78.68794,"zip":"14026","miles_from_dt":11.76},{"city":"Buffalo","state_name":"New York","lat":42.89438,"lng":-78.81957,"zip":"14212","miles_from_dt":12.38},{"city":"Buffalo","state_name":"New York","lat":42.89706,"lng":-78.88752,"zip":"14201","miles_from_dt":12.45},{"city":"Buffalo","state_name":"New York","lat":42.89235,"lng":-78.8688,"zip":"14205","miles_from_dt":12.61},{"city":"Buffalo","state_name":"New York","lat":42.88721,"lng":-78.82344,"zip":"14264","miles_from_dt":12.87},{"city":"Clarence","state_name":"New York","lat":42.98661,"lng":-78.60908,"zip":"14031","miles_from_dt":12.95},{"city":"Buffalo","state_name":"New York","lat":42.88693,"lng":-78.87124,"zip":"14280","miles_from_dt":12.99},{"city":"Buffalo","state_name":"New York","lat":42.88798,"lng":-78.88358,"zip":"14202","miles_from_dt":13.02},{"city":"Buffalo","state_name":"New York","lat":42.88568,"lng":-78.87116,"zip":"14276","miles_from_dt":13.08},{"city":"Buffalo","state_name":"New York","lat":42.882,"lng":-78.8614,"zip":"14204","miles_from_dt":13.27},{"city":"Buffalo","state_name":"New York","lat":42.88078,"lng":-78.81018,"zip":"14206","miles_from_dt":13.36},{"city":"Buffalo","state_name":"New York","lat":42.87884,"lng":-78.80962,"zip":"14240","miles_from_dt":13.49},{"city":"Depew","state_name":"New York","lat":42.90142,"lng":-78.70431,"zip":"14043","miles_from_dt":13.61},{"city":"Stella Niagara","state_name":"New York","lat":43.19788,"lng":-79.04641,"zip":"14144","miles_from_dt":13.68},{"city":"Buffalo","state_name":"New York","lat":42.8751,"lng":-78.86902,"zip":"14233","miles_from_dt":13.79},{"city":"Buffalo","state_name":"New York","lat":42.88402,"lng":-78.74665,"zip":"14227","miles_from_dt":13.83},{"city":"Buffalo","state_name":"New York","lat":42.87338,"lng":-78.86924,"zip":"14263","miles_from_dt":13.91},{"city":"Buffalo","state_name":"New York","lat":42.87227,"lng":-78.87025,"zip":"14272","miles_from_dt":13.99},{"city":"Buffalo","state_name":"New York","lat":42.87,"lng":-78.83221,"zip":"14270","miles_from_dt":14.04},{"city":"Buffalo","state_name":"New York","lat":42.87072,"lng":-78.8697,"zip":"14273","miles_from_dt":14.09},{"city":"Newfane","state_name":"New York","lat":43.26365,"lng":-78.7274,"zip":"14108","miles_from_dt":14.23},{"city":"Wilson","state_name":"New York","lat":43.28201,"lng":-78.81757,"zip":"14172","miles_from_dt":14.43},{"city":"Youngstown","state_name":"New York","lat":43.24178,"lng":-79.00548,"zip":"14174","miles_from_dt":14.44},{"city":"Buffalo","state_name":"New York","lat":42.86407,"lng":-78.82811,"zip":"14210","miles_from_dt":14.45},{"city":"Buffalo","state_name":"New York","lat":42.86514,"lng":-78.86949,"zip":"14269","miles_from_dt":14.47},{"city":"Buffalo","state_name":"New York","lat":42.86244,"lng":-78.86507,"zip":"14203","miles_from_dt":14.64},{"city":"Lancaster","state_name":"New York","lat":42.90661,"lng":-78.6291,"zip":"14086","miles_from_dt":15.57},{"city":"Buffalo","state_name":"New York","lat":42.84571,"lng":-78.82264,"zip":"14220","miles_from_dt":15.73},{"city":"Akron","state_name":"New York","lat":43.03149,"lng":-78.51154,"zip":"14001","miles_from_dt":16.67},{"city":"Gasport","state_name":"New York","lat":43.21565,"lng":-78.56644,"zip":"14067","miles_from_dt":16.79},{"city":"Buffalo","state_name":"New York","lat":42.83767,"lng":-78.74771,"zip":"14224","miles_from_dt":16.87},{"city":"Buffalo","state_name":"New York","lat":42.81921,"lng":-78.82772,"zip":"14218","miles_from_dt":17.55},{"city":"Burt","state_name":"New York","lat":43.31498,"lng":-78.71664,"zip":"14028","miles_from_dt":17.73},{"city":"Olcott","state_name":"New York","lat":43.33529,"lng":-78.72335,"zip":"14126","miles_from_dt":18.95},{"city":"Appleton","state_name":"New York","lat":43.30792,"lng":-78.62728,"zip":"14008","miles_from_dt":19.32},{"city":"Elma","state_name":"New York","lat":42.83241,"lng":-78.63678,"zip":"14059","miles_from_dt":19.46},{"city":"Buffalo","state_name":"New York","lat":42.78903,"lng":-78.82694,"zip":"14219","miles_from_dt":19.63},{"city":"Middleport","state_name":"New York","lat":43.19043,"lng":-78.4813,"zip":"14105","miles_from_dt":19.66},{"city":"Crittenden","state_name":"New York","lat":42.94867,"lng":-78.47606,"zip":"14038","miles_from_dt":20.16},{"city":"Alden","state_name":"New York","lat":42.89487,"lng":-78.51008,"zip":"14004","miles_from_dt":20.6},{"city":"Spring Brook","state_name":"New York","lat":42.80125,"lng":-78.66507,"zip":"14140","miles_from_dt":20.69},{"city":"Athol Springs","state_name":"New York","lat":42.77325,"lng":-78.86595,"zip":"14010","miles_from_dt":20.77},{"city":"Marilla","state_name":"New York","lat":42.84272,"lng":-78.55481,"zip":"14102","miles_from_dt":21.37},{"city":"Basom","state_name":"New York","lat":43.07639,"lng":-78.39704,"zip":"14013","miles_from_dt":22.21},{"city":"Orchard Park","state_name":"New York","lat":42.75204,"lng":-78.74402,"zip":"14127","miles_from_dt":22.67},{"city":"Corfu","state_name":"New York","lat":42.97447,"lng":-78.38712,"zip":"14036","miles_from_dt":23.73},{"city":"Barker","state_name":"New York","lat":43.33431,"lng":-78.52572,"zip":"14012","miles_from_dt":23.87},{"city":"East Aurora","state_name":"New York","lat":42.77054,"lng":-78.58084,"zip":"14052","miles_from_dt":24.58},{"city":"Hamburg","state_name":"New York","lat":42.71297,"lng":-78.82985,"zip":"14075","miles_from_dt":24.88},{"city":"Medina","state_name":"New York","lat":43.2125,"lng":-78.37696,"zip":"14103","miles_from_dt":25.11},{"city":"Lake View","state_name":"New York","lat":42.71494,"lng":-78.92691,"zip":"14085","miles_from_dt":25.17},{"city":"Wales Center","state_name":"New York","lat":42.76446,"lng":-78.52938,"zip":"14169","miles_from_dt":26.39},{"city":"North Evans","state_name":"New York","lat":42.6981,"lng":-78.9395,"zip":"14112","miles_from_dt":26.43},{"city":"Darien Center","state_name":"New York","lat":42.88809,"lng":-78.37847,"zip":"14040","miles_from_dt":26.48},{"city":"Cowlesville","state_name":"New York","lat":42.80637,"lng":-78.45448,"zip":"14037","miles_from_dt":26.72},{"city":"West Falls","state_name":"New York","lat":42.70115,"lng":-78.67294,"zip":"14170","miles_from_dt":26.99},{"city":"North Boston","state_name":"New York","lat":42.68453,"lng":-78.77449,"zip":"14110","miles_from_dt":27.02},{"city":"East Pembroke","state_name":"New York","lat":42.99183,"lng":-78.30663,"zip":"14056","miles_from_dt":27.38},{"city":"Derby","state_name":"New York","lat":42.68579,"lng":-78.99328,"zip":"14047","miles_from_dt":27.92},{"city":"Oakfield","state_name":"New York","lat":43.08773,"lng":-78.28207,"zip":"14125","miles_from_dt":28.04},{"city":"Knowlesville","state_name":"New York","lat":43.23768,"lng":-78.31008,"zip":"14479","miles_from_dt":28.89},{"city":"South Wales","state_name":"New York","lat":42.71723,"lng":-78.53606,"zip":"14139","miles_from_dt":28.91},{"city":"Lyndonville","state_name":"New York","lat":43.33464,"lng":-78.37827,"zip":"14098","miles_from_dt":29.31},{"city":"Eden","state_name":"New York","lat":42.64587,"lng":-78.87542,"zip":"14057","miles_from_dt":29.58},{"city":"Colden","state_name":"New York","lat":42.65865,"lng":-78.68436,"zip":"14033","miles_from_dt":29.64}],"targetCityZipCode":"14120","targetCityState":"New York"},"__N_SSG":true}