{"pageProps":{"stateName":"New-york","cityName":"patterson","nearbyCities":[{"city":"Holmes","state_name":"New York","lat":41.53689,"lng":-73.66917,"zip":"12531","miles_from_dt":5.09},{"city":"New Fairfield","state_name":"Connecticut","lat":41.48796,"lng":-73.48827,"zip":"06812","miles_from_dt":5.25},{"city":"Brewster","state_name":"New York","lat":41.41205,"lng":-73.5937,"zip":"10509","miles_from_dt":5.67},{"city":"Pawling","state_name":"New York","lat":41.57827,"lng":-73.5862,"zip":"12564","miles_from_dt":5.81},{"city":"Carmel","state_name":"New York","lat":41.4483,"lng":-73.71054,"zip":"10512","miles_from_dt":7.05},{"city":"Danbury","state_name":"Connecticut","lat":41.42427,"lng":-73.4821,"zip":"06811","miles_from_dt":7.36},{"city":"Sherman","state_name":"Connecticut","lat":41.58018,"lng":-73.49853,"zip":"06784","miles_from_dt":7.57},{"city":"Stormville","state_name":"New York","lat":41.54693,"lng":-73.72919,"zip":"12582","miles_from_dt":8.13},{"city":"Danbury","state_name":"Connecticut","lat":41.39777,"lng":-73.45523,"zip":"06813","miles_from_dt":9.62},{"city":"Poughquag","state_name":"New York","lat":41.62377,"lng":-73.66983,"zip":"12570","miles_from_dt":9.87},{"city":"Brookfield","state_name":"Connecticut","lat":41.46731,"lng":-73.39232,"zip":"06804","miles_from_dt":10.38},{"city":"Danbury","state_name":"Connecticut","lat":41.37627,"lng":-73.45904,"zip":"06810","miles_from_dt":10.57},{"city":"Croton Falls","state_name":"New York","lat":41.34701,"lng":-73.66196,"zip":"10519","miles_from_dt":10.84},{"city":"North Salem","state_name":"New York","lat":41.33303,"lng":-73.60264,"zip":"10560","miles_from_dt":11.14},{"city":"Hopewell Junction","state_name":"New York","lat":41.55925,"lng":-73.79401,"zip":"12533","miles_from_dt":11.54},{"city":"New Milford","state_name":"Connecticut","lat":41.60011,"lng":-73.4162,"zip":"06776","miles_from_dt":11.57},{"city":"Wingdale","state_name":"New York","lat":41.66049,"lng":-73.56004,"zip":"12594","miles_from_dt":11.58},{"city":"Mahopac","state_name":"New York","lat":41.37855,"lng":-73.75122,"zip":"10541","miles_from_dt":11.6},{"city":"Bridgewater","state_name":"Connecticut","lat":41.52082,"lng":-73.35965,"zip":"06752","miles_from_dt":12.04},{"city":"Gaylordsville","state_name":"Connecticut","lat":41.64915,"lng":-73.48143,"zip":"06755","miles_from_dt":12.06},{"city":"Mahopac Falls","state_name":"New York","lat":41.37115,"lng":-73.76436,"zip":"10542","miles_from_dt":12.45},{"city":"Somers","state_name":"New York","lat":41.33178,"lng":-73.6933,"zip":"10589","miles_from_dt":12.45},{"city":"Purdys","state_name":"New York","lat":41.31815,"lng":-73.673,"zip":"10578","miles_from_dt":12.91},{"city":"Hawleyville","state_name":"Connecticut","lat":41.43302,"lng":-73.35369,"zip":"06440","miles_from_dt":12.93},{"city":"Bethel","state_name":"Connecticut","lat":41.37468,"lng":-73.39275,"zip":"06801","miles_from_dt":13.11},{"city":"Baldwin Place","state_name":"New York","lat":41.34207,"lng":-73.74791,"zip":"10505","miles_from_dt":13.35},{"city":"Lincolndale","state_name":"New York","lat":41.32575,"lng":-73.72745,"zip":"10540","miles_from_dt":13.67},{"city":"Ridgefield","state_name":"Connecticut","lat":41.30642,"lng":-73.50216,"zip":"06877","miles_from_dt":13.72},{"city":"Waccabuc","state_name":"New York","lat":41.29423,"lng":-73.59703,"zip":"10597","miles_from_dt":13.8},{"city":"Shenorock","state_name":"New York","lat":41.32713,"lng":-73.73674,"zip":"10587","miles_from_dt":13.85},{"city":"Lagrangeville","state_name":"New York","lat":41.67073,"lng":-73.72524,"zip":"12540","miles_from_dt":14.08},{"city":"Goldens Bridge","state_name":"New York","lat":41.29388,"lng":-73.66171,"zip":"10526","miles_from_dt":14.33},{"city":"Putnam Valley","state_name":"New York","lat":41.39651,"lng":-73.83384,"zip":"10579","miles_from_dt":14.38},{"city":"Granite Springs","state_name":"New York","lat":41.3195,"lng":-73.76502,"zip":"10527","miles_from_dt":15.13},{"city":"Billings","state_name":"New York","lat":41.67232,"lng":-73.76247,"zip":"12510","miles_from_dt":15.23},{"city":"Jefferson Valley","state_name":"New York","lat":41.33536,"lng":-73.79965,"zip":"10535","miles_from_dt":15.48},{"city":"Roxbury","state_name":"Connecticut","lat":41.55424,"lng":-73.29998,"zip":"06783","miles_from_dt":15.56},{"city":"Newtown","state_name":"Connecticut","lat":41.3943,"lng":-73.31918,"zip":"06470","miles_from_dt":15.62},{"city":"Cross River","state_name":"New York","lat":41.26787,"lng":-73.60073,"zip":"10518","miles_from_dt":15.63},{"city":"Fishkill","state_name":"New York","lat":41.53092,"lng":-73.89245,"zip":"12524","miles_from_dt":15.94},{"city":"Ridgefield","state_name":"Connecticut","lat":41.27254,"lng":-73.49702,"zip":"06879","miles_from_dt":16.03},{"city":"Dover Plains","state_name":"New York","lat":41.72693,"lng":-73.58893,"zip":"12522","miles_from_dt":16.06},{"city":"Amawalk","state_name":"New York","lat":41.2954,"lng":-73.76006,"zip":"10501","miles_from_dt":16.34},{"city":"Katonah","state_name":"New York","lat":41.26971,"lng":-73.68943,"zip":"10536","miles_from_dt":16.34},{"city":"Redding Center","state_name":"Connecticut","lat":41.32404,"lng":-73.37014,"zip":"06875","miles_from_dt":16.35},{"city":"Cold Spring","state_name":"New York","lat":41.45342,"lng":-73.90233,"zip":"10516","miles_from_dt":16.5},{"city":"South Kent","state_name":"Connecticut","lat":41.70491,"lng":-73.43815,"zip":"06785","miles_from_dt":16.51},{"city":"Redding","state_name":"Connecticut","lat":41.3051,"lng":-73.39139,"zip":"06896","miles_from_dt":16.61},{"city":"Shrub Oak","state_name":"New York","lat":41.33222,"lng":-73.82624,"zip":"10588","miles_from_dt":16.63},{"city":"South Salem","state_name":"New York","lat":41.25421,"lng":-73.53719,"zip":"10590","miles_from_dt":16.78},{"city":"Verbank","state_name":"New York","lat":41.72396,"lng":-73.7025,"zip":"12585","miles_from_dt":16.91},{"city":"Wappingers Falls","state_name":"New York","lat":41.59559,"lng":-73.88774,"zip":"12590","miles_from_dt":16.99},{"city":"Redding Ridge","state_name":"Connecticut","lat":41.31964,"lng":-73.35588,"zip":"06876","miles_from_dt":17.08},{"city":"Washington Depot","state_name":"Connecticut","lat":41.64932,"lng":-73.32511,"zip":"06794","miles_from_dt":17.37},{"city":"South Britain","state_name":"Connecticut","lat":41.46967,"lng":-73.25173,"zip":"06487","miles_from_dt":17.59},{"city":"Yorktown Heights","state_name":"New York","lat":41.28309,"lng":-73.79516,"zip":"10598","miles_from_dt":18.08},{"city":"Kent","state_name":"Connecticut","lat":41.73951,"lng":-73.46637,"zip":"06757","miles_from_dt":18.09},{"city":"Glenham","state_name":"New York","lat":41.51931,"lng":-73.93703,"zip":"12527","miles_from_dt":18.13},{"city":"Washington","state_name":"Connecticut","lat":41.63089,"lng":-73.28835,"zip":"06793","miles_from_dt":18.22},{"city":"Georgetown","state_name":"Connecticut","lat":41.25759,"lng":-73.43245,"zip":"06829","miles_from_dt":18.24},{"city":"Mohegan Lake","state_name":"New York","lat":41.31178,"lng":-73.84637,"zip":"10547","miles_from_dt":18.36},{"city":"Southbury","state_name":"Connecticut","lat":41.47451,"lng":-73.23288,"zip":"06488","miles_from_dt":18.54},{"city":"Hughsonville","state_name":"New York","lat":41.58315,"lng":-73.92722,"zip":"12537","miles_from_dt":18.58},{"city":"Lake Peekskill","state_name":"New York","lat":41.33784,"lng":-73.88528,"zip":"10537","miles_from_dt":18.79},{"city":"Sandy Hook","state_name":"Connecticut","lat":41.4067,"lng":-73.24474,"zip":"06482","miles_from_dt":18.87},{"city":"Beacon","state_name":"New York","lat":41.49637,"lng":-73.95351,"zip":"12508","miles_from_dt":18.91},{"city":"New Preston Marble Dale","state_name":"Connecticut","lat":41.69412,"lng":-73.33931,"zip":"06777","miles_from_dt":18.92},{"city":"Bedford Hills","state_name":"New York","lat":41.22879,"lng":-73.6878,"zip":"10507","miles_from_dt":19.02},{"city":"Poughkeepsie","state_name":"New York","lat":41.67816,"lng":-73.86744,"zip":"12603","miles_from_dt":19.21},{"city":"Garrison","state_name":"New York","lat":41.37076,"lng":-73.92201,"zip":"10524","miles_from_dt":19.27},{"city":"Pound Ridge","state_name":"New York","lat":41.21323,"lng":-73.57289,"zip":"10576","miles_from_dt":19.41},{"city":"Crompond","state_name":"New York","lat":41.29837,"lng":-73.86013,"zip":"10517","miles_from_dt":19.52},{"city":"Castle Point","state_name":"New York","lat":41.52822,"lng":-73.96344,"zip":"12511","miles_from_dt":19.56},{"city":"Pleasant Valley","state_name":"New York","lat":41.7346,"lng":-73.79731,"zip":"12569","miles_from_dt":19.79},{"city":"Chelsea","state_name":"New York","lat":41.5542,"lng":-73.96471,"zip":"12512","miles_from_dt":19.92},{"city":"Wassaic","state_name":"New York","lat":41.78601,"lng":-73.5528,"zip":"12592","miles_from_dt":20.23},{"city":"Woodbury","state_name":"Connecticut","lat":41.56149,"lng":-73.20703,"zip":"06798","miles_from_dt":20.35},{"city":"Poughkeepsie","state_name":"New York","lat":41.68844,"lng":-73.89448,"zip":"12604","miles_from_dt":20.74},{"city":"Millbrook","state_name":"New York","lat":41.7914,"lng":-73.67251,"zip":"12545","miles_from_dt":20.96},{"city":"West Point","state_name":"New York","lat":41.38996,"lng":-73.97257,"zip":"10996","miles_from_dt":21.17},{"city":"Bedford","state_name":"New York","lat":41.1889,"lng":-73.63411,"zip":"10506","miles_from_dt":21.2},{"city":"Wilton","state_name":"Connecticut","lat":41.20705,"lng":-73.44009,"zip":"06897","miles_from_dt":21.28},{"city":"Cortlandt Manor","state_name":"New York","lat":41.28922,"lng":-73.89633,"zip":"10567","miles_from_dt":21.33},{"city":"Mount Kisco","state_name":"New York","lat":41.19981,"lng":-73.72028,"zip":"10549","miles_from_dt":21.43},{"city":"Weston","state_name":"Connecticut","lat":41.22842,"lng":-73.37256,"zip":"06883","miles_from_dt":21.52},{"city":"Botsford","state_name":"Connecticut","lat":41.36182,"lng":-73.21362,"zip":"06404","miles_from_dt":21.54},{"city":"Monroe","state_name":"Connecticut","lat":41.33791,"lng":-73.22499,"zip":"06468","miles_from_dt":21.77},{"city":"Easton","state_name":"Connecticut","lat":41.26493,"lng":-73.30006,"zip":"06612","miles_from_dt":21.82},{"city":"Bethlehem","state_name":"Connecticut","lat":41.63792,"lng":-73.2122,"zip":"06751","miles_from_dt":21.91},{"city":"Newburgh","state_name":"New York","lat":41.5086,"lng":-74.01337,"zip":"12555","miles_from_dt":22.03},{"city":"Cornwall On Hudson","state_name":"New York","lat":41.43362,"lng":-74.00693,"zip":"12520","miles_from_dt":22.09},{"city":"Poughkeepsie","state_name":"New York","lat":41.70602,"lng":-73.91119,"zip":"12601","miles_from_dt":22.18},{"city":"Peekskill","state_name":"New York","lat":41.28924,"lng":-73.91837,"zip":"10566","miles_from_dt":22.2},{"city":"Stevenson","state_name":"Connecticut","lat":41.3814,"lng":-73.18774,"zip":"06491","miles_from_dt":22.25},{"city":"Cornwall Bridge","state_name":"Connecticut","lat":41.76841,"lng":-73.36127,"zip":"06754","miles_from_dt":22.3},{"city":"Marlboro","state_name":"New York","lat":41.60772,"lng":-73.99666,"zip":"12542","miles_from_dt":22.53},{"city":"Lakeside","state_name":"Connecticut","lat":41.67672,"lng":-73.2286,"zip":"06758","miles_from_dt":22.53},{"city":"Waterbury","state_name":"Connecticut","lat":41.50498,"lng":-73.15243,"zip":"06749","miles_from_dt":22.67},{"city":"Poughkeepsie","state_name":"New York","lat":41.70623,"lng":-73.92854,"zip":"12602","miles_from_dt":22.88},{"city":"Bantam","state_name":"Connecticut","lat":41.72327,"lng":-73.2624,"zip":"06750","miles_from_dt":23.16},{"city":"Milton","state_name":"New York","lat":41.65463,"lng":-73.98322,"zip":"12547","miles_from_dt":23.23},{"city":"Millwood","state_name":"New York","lat":41.19472,"lng":-73.8002,"zip":"10546","miles_from_dt":23.4},{"city":"New Canaan","state_name":"Connecticut","lat":41.15925,"lng":-73.49916,"zip":"06840","miles_from_dt":23.58},{"city":"Cornwall","state_name":"New York","lat":41.41847,"lng":-74.03571,"zip":"12518","miles_from_dt":23.77},{"city":"Highland Falls","state_name":"New York","lat":41.3457,"lng":-74.00265,"zip":"10928","miles_from_dt":23.8},{"city":"Croton On Hudson","state_name":"New York","lat":41.22183,"lng":-73.87348,"zip":"10520","miles_from_dt":23.91},{"city":"Newburgh","state_name":"New York","lat":41.54077,"lng":-74.04673,"zip":"12551","miles_from_dt":23.95},{"city":"Vails Gate","state_name":"New York","lat":41.46623,"lng":-74.04924,"zip":"12584","miles_from_dt":23.96},{"city":"Oxford","state_name":"Connecticut","lat":41.43133,"lng":-73.13499,"zip":"06478","miles_from_dt":23.97},{"city":"Morris","state_name":"Connecticut","lat":41.69027,"lng":-73.20714,"zip":"06763","miles_from_dt":23.97},{"city":"Fort Montgomery","state_name":"New York","lat":41.32794,"lng":-73.99604,"zip":"10922","miles_from_dt":24.05},{"city":"Newburgh","state_name":"New York","lat":41.53802,"lng":-74.04901,"zip":"12552","miles_from_dt":24.05},{"city":"Salt Point","state_name":"New York","lat":41.80629,"lng":-73.79673,"zip":"12578","miles_from_dt":24.07},{"city":"Chappaqua","state_name":"New York","lat":41.17331,"lng":-73.77071,"zip":"10514","miles_from_dt":24.07},{"city":"Newburgh","state_name":"New York","lat":41.53671,"lng":-74.05196,"zip":"12550","miles_from_dt":24.19},{"city":"Ossining","state_name":"New York","lat":41.19295,"lng":-73.8305,"zip":"10562","miles_from_dt":24.28},{"city":"Middlebury","state_name":"Connecticut","lat":41.5271,"lng":-73.1228,"zip":"06762","miles_from_dt":24.3},{"city":"Buchanan","state_name":"New York","lat":41.26302,"lng":-73.94391,"zip":"10511","miles_from_dt":24.38},{"city":"West Point","state_name":"New York","lat":41.3615,"lng":-74.02705,"zip":"10997","miles_from_dt":24.52},{"city":"Bear Mountain","state_name":"New York","lat":41.30798,"lng":-73.99243,"zip":"10911","miles_from_dt":24.58},{"city":"Stamford","state_name":"Connecticut","lat":41.13571,"lng":-73.57207,"zip":"06903","miles_from_dt":24.75},{"city":"Montrose","state_name":"New York","lat":41.24599,"lng":-73.93643,"zip":"10548","miles_from_dt":24.89},{"city":"Croton On Hudson","state_name":"New York","lat":41.23452,"lng":-73.92434,"zip":"10521","miles_from_dt":25},{"city":"Amenia","state_name":"New York","lat":41.85664,"lng":-73.55953,"zip":"12501","miles_from_dt":25.06},{"city":"New Windsor","state_name":"New York","lat":41.46146,"lng":-74.07311,"zip":"12553","miles_from_dt":25.22},{"city":"Maryknoll","state_name":"New York","lat":41.17861,"lng":-73.83547,"zip":"10545","miles_from_dt":25.27},{"city":"Verplanck","state_name":"New York","lat":41.25552,"lng":-73.95854,"zip":"10596","miles_from_dt":25.3},{"city":"Trumbull","state_name":"Connecticut","lat":41.26009,"lng":-73.20823,"zip":"06611","miles_from_dt":25.55},{"city":"Watertown","state_name":"Connecticut","lat":41.61873,"lng":-73.12336,"zip":"06795","miles_from_dt":25.63},{"city":"Tomkins Cove","state_name":"New York","lat":41.27917,"lng":-73.99445,"zip":"10986","miles_from_dt":25.77},{"city":"Armonk","state_name":"New York","lat":41.13065,"lng":-73.70629,"zip":"10504","miles_from_dt":25.82},{"city":"Fairfield","state_name":"Connecticut","lat":41.21827,"lng":-73.25276,"zip":"06828","miles_from_dt":25.85},{"city":"Plattekill","state_name":"New York","lat":41.61227,"lng":-74.06228,"zip":"12568","miles_from_dt":25.85},{"city":"Hyde Park","state_name":"New York","lat":41.79246,"lng":-73.89336,"zip":"12538","miles_from_dt":25.92},{"city":"Sharon","state_name":"Connecticut","lat":41.85392,"lng":-73.4448,"zip":"06069","miles_from_dt":25.93},{"city":"Mountainville","state_name":"New York","lat":41.40581,"lng":-74.07783,"zip":"10953","miles_from_dt":26.1},{"city":"Cornwall","state_name":"Connecticut","lat":41.82514,"lng":-73.34471,"zip":"06753","miles_from_dt":26.11},{"city":"Norwalk","state_name":"Connecticut","lat":41.13047,"lng":-73.44044,"zip":"06858","miles_from_dt":26.26},{"city":"Norwalk","state_name":"Connecticut","lat":41.13948,"lng":-73.40387,"zip":"06851","miles_from_dt":26.31},{"city":"Norwalk","state_name":"Connecticut","lat":41.1263,"lng":-73.44316,"zip":"06850","miles_from_dt":26.5},{"city":"Litchfield","state_name":"Connecticut","lat":41.75757,"lng":-73.21544,"zip":"06759","miles_from_dt":26.55},{"city":"Highland","state_name":"New York","lat":41.72273,"lng":-74.00477,"zip":"12528","miles_from_dt":26.69},{"city":"Shelton","state_name":"Connecticut","lat":41.30601,"lng":-73.13828,"zip":"06484","miles_from_dt":26.78},{"city":"Bangall","state_name":"New York","lat":41.87513,"lng":-73.69038,"zip":"12506","miles_from_dt":26.81},{"city":"Westport","state_name":"Connecticut","lat":41.14237,"lng":-73.36012,"zip":"06889","miles_from_dt":27.04},{"city":"Fairfield","state_name":"Connecticut","lat":41.17571,"lng":-73.28111,"zip":"06824","miles_from_dt":27.2},{"city":"Seymour","state_name":"Connecticut","lat":41.381,"lng":-73.08726,"zip":"06483","miles_from_dt":27.21},{"city":"Westport","state_name":"Connecticut","lat":41.13776,"lng":-73.36503,"zip":"06881","miles_from_dt":27.22},{"city":"Westport","state_name":"Connecticut","lat":41.14379,"lng":-73.34698,"zip":"06880","miles_from_dt":27.26},{"city":"Stamford","state_name":"Connecticut","lat":41.09997,"lng":-73.55154,"zip":"06914","miles_from_dt":27.27},{"city":"Oakville","state_name":"Connecticut","lat":41.59562,"lng":-73.08058,"zip":"06779","miles_from_dt":27.28},{"city":"Stamford","state_name":"Connecticut","lat":41.1021,"lng":-73.52033,"zip":"06907","miles_from_dt":27.29},{"city":"Pleasantville","state_name":"New York","lat":41.12854,"lng":-73.78917,"zip":"10570","miles_from_dt":27.3},{"city":"Fairfield","state_name":"Connecticut","lat":41.19685,"lng":-73.24221,"zip":"06825","miles_from_dt":27.32},{"city":"Waterbury","state_name":"Connecticut","lat":41.54939,"lng":-73.06738,"zip":"06708","miles_from_dt":27.33},{"city":"Briarcliff Manor","state_name":"New York","lat":41.14152,"lng":-73.83411,"zip":"10510","miles_from_dt":27.47},{"city":"Clinton Corners","state_name":"New York","lat":41.87137,"lng":-73.76274,"zip":"12514","miles_from_dt":27.54},{"city":"Bridgeport","state_name":"Connecticut","lat":41.21218,"lng":-73.20829,"zip":"06606","miles_from_dt":27.76},{"city":"Clintondale","state_name":"New York","lat":41.68008,"lng":-74.06451,"zip":"12515","miles_from_dt":27.77},{"city":"Thornwood","state_name":"New York","lat":41.11579,"lng":-73.771,"zip":"10594","miles_from_dt":27.77},{"city":"Norwalk","state_name":"Connecticut","lat":41.11103,"lng":-73.42261,"zip":"06856","miles_from_dt":27.82},{"city":"Waterbury","state_name":"Connecticut","lat":41.55985,"lng":-73.05903,"zip":"06721","miles_from_dt":27.86},{"city":"Salisbury Mills","state_name":"New York","lat":41.42048,"lng":-74.11678,"zip":"12577","miles_from_dt":27.86},{"city":"Naugatuck","state_name":"Connecticut","lat":41.48913,"lng":-73.05181,"zip":"06770","miles_from_dt":27.88},{"city":"Beacon Falls","state_name":"Connecticut","lat":41.43902,"lng":-73.05679,"zip":"06403","miles_from_dt":27.89},{"city":"West Haverstraw","state_name":"New York","lat":41.21011,"lng":-73.97565,"zip":"10993","miles_from_dt":28.08},{"city":"Stamford","state_name":"Connecticut","lat":41.08792,"lng":-73.54351,"zip":"06905","miles_from_dt":28.14},{"city":"Waterbury","state_name":"Connecticut","lat":41.55876,"lng":-73.05218,"zip":"06701","miles_from_dt":28.2},{"city":"Greenwich","state_name":"Connecticut","lat":41.08782,"lng":-73.66078,"zip":"06831","miles_from_dt":28.29},{"city":"Highland Mills","state_name":"New York","lat":41.3667,"lng":-74.11035,"zip":"10930","miles_from_dt":28.47},{"city":"Waterbury","state_name":"Connecticut","lat":41.55713,"lng":-73.04539,"zip":"06702","miles_from_dt":28.53},{"city":"Southport","state_name":"Connecticut","lat":41.14639,"lng":-73.28944,"zip":"06890","miles_from_dt":28.62},{"city":"West Park","state_name":"New York","lat":41.79316,"lng":-73.97283,"zip":"12493","miles_from_dt":28.64},{"city":"Haverstraw","state_name":"New York","lat":41.19263,"lng":-73.96735,"zip":"10927","miles_from_dt":28.64},{"city":"Waterbury","state_name":"Connecticut","lat":41.56958,"lng":-73.04598,"zip":"06710","miles_from_dt":28.64},{"city":"Norwalk","state_name":"Connecticut","lat":41.09475,"lng":-73.43407,"zip":"06857","miles_from_dt":28.72},{"city":"Waterbury","state_name":"Connecticut","lat":41.55266,"lng":-73.04093,"zip":"06725","miles_from_dt":28.72},{"city":"Derby","state_name":"Connecticut","lat":41.32647,"lng":-73.08324,"zip":"06418","miles_from_dt":28.72},{"city":"Westport","state_name":"Connecticut","lat":41.12005,"lng":-73.34642,"zip":"06888","miles_from_dt":28.74},{"city":"Norwalk","state_name":"Connecticut","lat":41.0864,"lng":-73.47559,"zip":"06860","miles_from_dt":28.75},{"city":"Waterbury","state_name":"Connecticut","lat":41.55961,"lng":-73.04141,"zip":"06724","miles_from_dt":28.76},{"city":"Thomaston","state_name":"Connecticut","lat":41.67033,"lng":-73.08568,"zip":"06787","miles_from_dt":28.78},{"city":"Staatsburg","state_name":"New York","lat":41.85348,"lng":-73.87302,"zip":"12580","miles_from_dt":28.82},{"city":"Waterbury","state_name":"Connecticut","lat":41.55647,"lng":-73.03858,"zip":"06722","miles_from_dt":28.87},{"city":"Waterbury","state_name":"Connecticut","lat":41.55503,"lng":-73.03798,"zip":"06726","miles_from_dt":28.89},{"city":"Waterbury","state_name":"Connecticut","lat":41.55703,"lng":-73.03805,"zip":"06720","miles_from_dt":28.91},{"city":"Ansonia","state_name":"Connecticut","lat":41.34424,"lng":-73.06896,"zip":"06401","miles_from_dt":28.93},{"city":"Stanfordville","state_name":"New York","lat":41.90625,"lng":-73.69374,"zip":"12581","miles_from_dt":28.95},{"city":"Waterbury","state_name":"Connecticut","lat":41.55707,"lng":-73.03674,"zip":"06723","miles_from_dt":28.97},{"city":"Norwalk","state_name":"Connecticut","lat":41.09148,"lng":-73.42972,"zip":"06854","miles_from_dt":29},{"city":"Modena","state_name":"New York","lat":41.66307,"lng":-74.10157,"zip":"12548","miles_from_dt":29},{"city":"Norwalk","state_name":"Connecticut","lat":41.0936,"lng":-73.41726,"zip":"06852","miles_from_dt":29.05},{"city":"Darien","state_name":"Connecticut","lat":41.07983,"lng":-73.48242,"zip":"06820","miles_from_dt":29.13},{"city":"Greens Farms","state_name":"Connecticut","lat":41.12294,"lng":-73.31809,"zip":"06838","miles_from_dt":29.24},{"city":"Stamford","state_name":"Connecticut","lat":41.07244,"lng":-73.52217,"zip":"06906","miles_from_dt":29.31},{"city":"Northfield","state_name":"Connecticut","lat":41.71469,"lng":-73.10459,"zip":"06778","miles_from_dt":29.35},{"city":"Garnerville","state_name":"New York","lat":41.20265,"lng":-74.00031,"zip":"10923","miles_from_dt":29.36},{"city":"Hawthorne","state_name":"New York","lat":41.09873,"lng":-73.80066,"zip":"10532","miles_from_dt":29.43},{"city":"Waterbury","state_name":"Connecticut","lat":41.53285,"lng":-73.02389,"zip":"06706","miles_from_dt":29.44},{"city":"Rock Tavern","state_name":"New York","lat":41.48514,"lng":-74.15714,"zip":"12575","miles_from_dt":29.48},{"city":"West Cornwall","state_name":"Connecticut","lat":41.87595,"lng":-73.33255,"zip":"06796","miles_from_dt":29.5},{"city":"Waterbury","state_name":"Connecticut","lat":41.58601,"lng":-73.03296,"zip":"06704","miles_from_dt":29.52},{"city":"Bridgeport","state_name":"Connecticut","lat":41.20457,"lng":-73.16933,"zip":"06610","miles_from_dt":29.6},{"city":"Congers","state_name":"New York","lat":41.15477,"lng":-73.9393,"zip":"10920","miles_from_dt":29.67},{"city":"Norwalk","state_name":"Connecticut","lat":41.08922,"lng":-73.39615,"zip":"06855","miles_from_dt":29.69},{"city":"Central Valley","state_name":"New York","lat":41.31851,"lng":-74.11094,"zip":"10917","miles_from_dt":29.7},{"city":"Bridgeport","state_name":"Connecticut","lat":41.17645,"lng":-73.20293,"zip":"06601","miles_from_dt":29.74},{"city":"Thiells","state_name":"New York","lat":41.20928,"lng":-74.02008,"zip":"10984","miles_from_dt":29.81},{"city":"Bridgeport","state_name":"Connecticut","lat":41.17684,"lng":-73.20027,"zip":"06604","miles_from_dt":29.81},{"city":"Valhalla","state_name":"New York","lat":41.08626,"lng":-73.78097,"zip":"10595","miles_from_dt":29.87},{"city":"Cos Cob","state_name":"Connecticut","lat":41.0611,"lng":-73.59215,"zip":"06807","miles_from_dt":29.89},{"city":"Bridgeport","state_name":"Connecticut","lat":41.16348,"lng":-73.21763,"zip":"06605","miles_from_dt":29.9},{"city":"Bridgeport","state_name":"Connecticut","lat":41.17365,"lng":-73.20047,"zip":"06602","miles_from_dt":29.96}],"targetCityZipCode":"12563","targetCityState":"New York"},"__N_SSG":true}