{"pageProps":{"stateName":"New-york","cityName":"randolph","nearbyCities":[{"city":"East Randolph","state_name":"New York","lat":42.17125,"lng":-78.94814,"zip":"14730","miles_from_dt":1.21},{"city":"Steamburg","state_name":"New York","lat":42.06014,"lng":-78.91816,"zip":"14783","miles_from_dt":6.68},{"city":"Kennedy","state_name":"New York","lat":42.15346,"lng":-79.09061,"zip":"14747","miles_from_dt":7.18},{"city":"Conewango Valley","state_name":"New York","lat":42.25255,"lng":-79.02221,"zip":"14726","miles_from_dt":7.74},{"city":"Little Valley","state_name":"New York","lat":42.23477,"lng":-78.81398,"zip":"14755","miles_from_dt":8.98},{"city":"Ellington","state_name":"New York","lat":42.2188,"lng":-79.10696,"zip":"14732","miles_from_dt":9.18},{"city":"Frewsburg","state_name":"New York","lat":42.04539,"lng":-79.05926,"zip":"14738","miles_from_dt":9.33},{"city":"Salamanca","state_name":"New York","lat":42.10703,"lng":-78.76977,"zip":"14779","miles_from_dt":9.85},{"city":"Leon","state_name":"New York","lat":42.29368,"lng":-79.01798,"zip":"14751","miles_from_dt":10.25},{"city":"Falconer","state_name":"New York","lat":42.14996,"lng":-79.17499,"zip":"14733","miles_from_dt":11.51},{"city":"Gerry","state_name":"New York","lat":42.21962,"lng":-79.18053,"zip":"14740","miles_from_dt":12.63},{"city":"Cattaraugus","state_name":"New York","lat":42.34323,"lng":-78.87198,"zip":"14719","miles_from_dt":13.68},{"city":"Cherry Creek","state_name":"New York","lat":42.3101,"lng":-79.13489,"zip":"14723","miles_from_dt":14.33},{"city":"Otto","state_name":"New York","lat":42.34931,"lng":-78.8288,"zip":"14766","miles_from_dt":14.87},{"city":"Jamestown","state_name":"New York","lat":42.0966,"lng":-79.23498,"zip":"14702","miles_from_dt":15.12},{"city":"Russell","state_name":"Pennsylvania","lat":41.95085,"lng":-79.07548,"zip":"16345","miles_from_dt":15.41},{"city":"South Dayton","state_name":"New York","lat":42.37497,"lng":-79.05376,"zip":"14138","miles_from_dt":16.15},{"city":"Kill Buck","state_name":"New York","lat":42.1392,"lng":-78.63636,"zip":"14748","miles_from_dt":16.19},{"city":"Jamestown","state_name":"New York","lat":42.08091,"lng":-79.25502,"zip":"14701","miles_from_dt":16.42},{"city":"Celoron","state_name":"New York","lat":42.10857,"lng":-79.27997,"zip":"14720","miles_from_dt":17.19},{"city":"Dayton","state_name":"New York","lat":42.4059,"lng":-78.97699,"zip":"14041","miles_from_dt":17.45},{"city":"Sinclairville","state_name":"New York","lat":42.2665,"lng":-79.2559,"zip":"14782","miles_from_dt":17.48},{"city":"Limestone","state_name":"New York","lat":42.03899,"lng":-78.63516,"zip":"14753","miles_from_dt":18.06},{"city":"Ellicottville","state_name":"New York","lat":42.30063,"lng":-78.65092,"zip":"14731","miles_from_dt":18.42},{"city":"Greenhurst","state_name":"New York","lat":42.11934,"lng":-79.30878,"zip":"14742","miles_from_dt":18.54},{"city":"Great Valley","state_name":"New York","lat":42.21868,"lng":-78.5963,"zip":"14741","miles_from_dt":18.74},{"city":"Bradford","state_name":"Pennsylvania","lat":41.91105,"lng":-78.77385,"zip":"16701","miles_from_dt":19.07},{"city":"Gowanda","state_name":"New York","lat":42.43673,"lng":-78.92798,"zip":"14070","miles_from_dt":19.56},{"city":"Lakewood","state_name":"New York","lat":42.07939,"lng":-79.32752,"zip":"14750","miles_from_dt":20.03},{"city":"East Otto","state_name":"New York","lat":42.40404,"lng":-78.73628,"zip":"14729","miles_from_dt":20.47},{"city":"Bemus Point","state_name":"New York","lat":42.18163,"lng":-79.36812,"zip":"14712","miles_from_dt":21.51},{"city":"Cassadaga","state_name":"New York","lat":42.34417,"lng":-79.28813,"zip":"14718","miles_from_dt":21.72},{"city":"Allegany","state_name":"New York","lat":42.10663,"lng":-78.52795,"zip":"14706","miles_from_dt":21.97},{"city":"Forestville","state_name":"New York","lat":42.44364,"lng":-79.14897,"zip":"14062","miles_from_dt":22.43},{"city":"Perrysburg","state_name":"New York","lat":42.4805,"lng":-79.0092,"zip":"14129","miles_from_dt":22.74},{"city":"Custer City","state_name":"Pennsylvania","lat":41.89881,"lng":-78.66328,"zip":"16725","miles_from_dt":23},{"city":"Stow","state_name":"New York","lat":42.15572,"lng":-79.40337,"zip":"14785","miles_from_dt":23.24},{"city":"Lily Dale","state_name":"New York","lat":42.3517,"lng":-79.31965,"zip":"14752","miles_from_dt":23.33},{"city":"Warren","state_name":"Pennsylvania","lat":41.84876,"lng":-79.14668,"zip":"16368","miles_from_dt":23.34},{"city":"Warren","state_name":"Pennsylvania","lat":41.84749,"lng":-79.14589,"zip":"16369","miles_from_dt":23.41},{"city":"Warren","state_name":"Pennsylvania","lat":41.84644,"lng":-79.14642,"zip":"16367","miles_from_dt":23.48},{"city":"Warren","state_name":"Pennsylvania","lat":41.84396,"lng":-79.1411,"zip":"16366","miles_from_dt":23.52},{"city":"Sugar Grove","state_name":"Pennsylvania","lat":41.96323,"lng":-79.3322,"zip":"16350","miles_from_dt":23.62},{"city":"Chandlers Valley","state_name":"Pennsylvania","lat":41.93218,"lng":-79.30324,"zip":"16312","miles_from_dt":23.72},{"city":"Collins Center","state_name":"New York","lat":42.49099,"lng":-78.85936,"zip":"14035","miles_from_dt":23.74},{"city":"Warren","state_name":"Pennsylvania","lat":41.83943,"lng":-79.15324,"zip":"16365","miles_from_dt":24.07},{"city":"Collins","state_name":"New York","lat":42.4985,"lng":-78.86238,"zip":"14034","miles_from_dt":24.22},{"city":"Derrick City","state_name":"Pennsylvania","lat":41.98501,"lng":-78.5338,"zip":"16727","miles_from_dt":24.41},{"city":"Maple Springs","state_name":"New York","lat":42.19708,"lng":-79.42373,"zip":"14756","miles_from_dt":24.46},{"city":"West Valley","state_name":"New York","lat":42.42491,"lng":-78.64286,"zip":"14171","miles_from_dt":24.48},{"city":"Saint Bonaventure","state_name":"New York","lat":42.07759,"lng":-78.4827,"zip":"14778","miles_from_dt":24.63},{"city":"Stockton","state_name":"New York","lat":42.31445,"lng":-79.38028,"zip":"14784","miles_from_dt":24.66},{"city":"Ashville","state_name":"New York","lat":42.08957,"lng":-79.42306,"zip":"14710","miles_from_dt":24.66},{"city":"Versailles","state_name":"New York","lat":42.51187,"lng":-78.98745,"zip":"14168","miles_from_dt":24.78},{"city":"Dewittville","state_name":"New York","lat":42.2648,"lng":-79.41689,"zip":"14728","miles_from_dt":25.11},{"city":"Fredonia","state_name":"New York","lat":42.41451,"lng":-79.32518,"zip":"14063","miles_from_dt":26.3},{"city":"Machias","state_name":"New York","lat":42.3863,"lng":-78.54292,"zip":"14101","miles_from_dt":26.36},{"city":"Lewis Run","state_name":"Pennsylvania","lat":41.80511,"lng":-78.73929,"zip":"16738","miles_from_dt":26.42},{"city":"Chautauqua","state_name":"New York","lat":42.20961,"lng":-79.46882,"zip":"14722","miles_from_dt":26.87},{"city":"Gifford","state_name":"Pennsylvania","lat":41.85921,"lng":-78.60843,"zip":"16732","miles_from_dt":26.91},{"city":"Lawtons","state_name":"New York","lat":42.54224,"lng":-78.88868,"zip":"14091","miles_from_dt":27},{"city":"Tiona","state_name":"Pennsylvania","lat":41.76615,"lng":-79.03644,"zip":"16352","miles_from_dt":27.12},{"city":"Sheridan","state_name":"New York","lat":42.48489,"lng":-79.2437,"zip":"14135","miles_from_dt":27.33},{"city":"Youngsville","state_name":"Pennsylvania","lat":41.86751,"lng":-79.3187,"zip":"16371","miles_from_dt":27.37},{"city":"Rew","state_name":"Pennsylvania","lat":41.87567,"lng":-78.56941,"zip":"16744","miles_from_dt":27.46},{"city":"Niobe","state_name":"New York","lat":42.01142,"lng":-79.45041,"zip":"14758","miles_from_dt":27.5},{"city":"Duke Center","state_name":"Pennsylvania","lat":41.96501,"lng":-78.4788,"zip":"16729","miles_from_dt":27.56},{"city":"Silver Creek","state_name":"New York","lat":42.52387,"lng":-79.16935,"zip":"14136","miles_from_dt":27.88},{"city":"Ludlow","state_name":"Pennsylvania","lat":41.74922,"lng":-78.9323,"zip":"16333","miles_from_dt":27.94},{"city":"Olean","state_name":"New York","lat":42.07098,"lng":-78.41421,"zip":"14760","miles_from_dt":28.17},{"city":"Hinsdale","state_name":"New York","lat":42.20532,"lng":-78.40631,"zip":"14743","miles_from_dt":28.18},{"city":"Springville","state_name":"New York","lat":42.52366,"lng":-78.7109,"zip":"14141","miles_from_dt":28.33},{"city":"Rixford","state_name":"Pennsylvania","lat":41.92578,"lng":-78.49042,"zip":"16745","miles_from_dt":28.44},{"city":"Irving","state_name":"New York","lat":42.56332,"lng":-79.06528,"zip":"14081","miles_from_dt":28.86},{"city":"Mayville","state_name":"New York","lat":42.23944,"lng":-79.50457,"zip":"14757","miles_from_dt":29.03},{"city":"Dunkirk","state_name":"New York","lat":42.48087,"lng":-79.31128,"zip":"14048","miles_from_dt":29.16},{"city":"Irvine","state_name":"Pennsylvania","lat":41.80642,"lng":-79.27684,"zip":"16329","miles_from_dt":29.27},{"city":"Brocton","state_name":"New York","lat":42.38056,"lng":-79.43406,"zip":"14716","miles_from_dt":29.3},{"city":"Franklinville","state_name":"New York","lat":42.33524,"lng":-78.42926,"zip":"14737","miles_from_dt":29.53},{"city":"North Collins","state_name":"New York","lat":42.58206,"lng":-78.89803,"zip":"14111","miles_from_dt":29.68},{"city":"Panama","state_name":"New York","lat":42.05344,"lng":-79.51583,"zip":"14767","miles_from_dt":29.85}],"targetCityZipCode":"14772","targetCityState":"New York"},"__N_SSG":true}