{"pageProps":{"stateName":"New-york","cityName":"spring-glen","nearbyCities":[{"city":"Phillipsport","state_name":"New York","lat":41.65925,"lng":-74.47071,"zip":"12769","miles_from_dt":1.61},{"city":"Cragsmoor","state_name":"New York","lat":41.6743,"lng":-74.37769,"zip":"12420","miles_from_dt":3.35},{"city":"Summitville","state_name":"New York","lat":41.61448,"lng":-74.47208,"zip":"12781","miles_from_dt":4.01},{"city":"Walker Valley","state_name":"New York","lat":41.6335,"lng":-74.37718,"zip":"12588","miles_from_dt":4.11},{"city":"Mountain Dale","state_name":"New York","lat":41.68221,"lng":-74.52205,"zip":"12763","miles_from_dt":4.27},{"city":"Ellenville","state_name":"New York","lat":41.73817,"lng":-74.44615,"zip":"12428","miles_from_dt":4.85},{"city":"Greenfield Park","state_name":"New York","lat":41.72715,"lng":-74.51148,"zip":"12435","miles_from_dt":5.45},{"city":"Burlingham","state_name":"New York","lat":41.59042,"lng":-74.3748,"zip":"12722","miles_from_dt":6.38},{"city":"Pine Bush","state_name":"New York","lat":41.62223,"lng":-74.33256,"zip":"12566","miles_from_dt":6.48},{"city":"Wurtsboro","state_name":"New York","lat":41.5863,"lng":-74.51705,"zip":"12790","miles_from_dt":6.85},{"city":"Bloomingburg","state_name":"New York","lat":41.56741,"lng":-74.42832,"zip":"12721","miles_from_dt":6.97},{"city":"Woodridge","state_name":"New York","lat":41.71374,"lng":-74.57233,"zip":"12789","miles_from_dt":7.45},{"city":"Wawarsing","state_name":"New York","lat":41.75597,"lng":-74.35462,"zip":"12489","miles_from_dt":7.57},{"city":"Thompson Ridge","state_name":"New York","lat":41.57697,"lng":-74.35782,"zip":"10985","miles_from_dt":7.64},{"city":"Glen Wild","state_name":"New York","lat":41.66009,"lng":-74.59119,"zip":"12738","miles_from_dt":7.75},{"city":"Rock Hill","state_name":"New York","lat":41.62266,"lng":-74.58232,"zip":"12775","miles_from_dt":7.92},{"city":"Thompsonville","state_name":"New York","lat":41.66907,"lng":-74.61485,"zip":"12784","miles_from_dt":8.95},{"city":"South Fallsburg","state_name":"New York","lat":41.69804,"lng":-74.62703,"zip":"12779","miles_from_dt":9.8},{"city":"Fallsburg","state_name":"New York","lat":41.73378,"lng":-74.6102,"zip":"12733","miles_from_dt":9.82},{"city":"Bullville","state_name":"New York","lat":41.54022,"lng":-74.35714,"zip":"10915","miles_from_dt":9.85},{"city":"Circleville","state_name":"New York","lat":41.52836,"lng":-74.38327,"zip":"10919","miles_from_dt":10.1},{"city":"Kerhonkson","state_name":"New York","lat":41.79063,"lng":-74.31655,"zip":"12446","miles_from_dt":10.66},{"city":"Napanoch","state_name":"New York","lat":41.82273,"lng":-74.41666,"zip":"12458","miles_from_dt":10.76},{"city":"Kiamesha Lake","state_name":"New York","lat":41.69209,"lng":-74.66119,"zip":"12751","miles_from_dt":11.47},{"city":"Woodbourne","state_name":"New York","lat":41.79552,"lng":-74.58846,"zip":"12788","miles_from_dt":11.62},{"city":"Westbrookville","state_name":"New York","lat":41.52429,"lng":-74.58051,"zip":"12785","miles_from_dt":12.24},{"city":"Howells","state_name":"New York","lat":41.482,"lng":-74.46352,"zip":"10932","miles_from_dt":12.88},{"city":"Hurleyville","state_name":"New York","lat":41.76596,"lng":-74.65934,"zip":"12747","miles_from_dt":13.12},{"city":"Middletown","state_name":"New York","lat":41.48923,"lng":-74.34556,"zip":"10941","miles_from_dt":13.31},{"city":"Monticello","state_name":"New York","lat":41.65125,"lng":-74.6982,"zip":"12701","miles_from_dt":13.32},{"city":"Montgomery","state_name":"New York","lat":41.52957,"lng":-74.25843,"zip":"12549","miles_from_dt":13.47},{"city":"Gardiner","state_name":"New York","lat":41.68115,"lng":-74.17751,"zip":"12525","miles_from_dt":13.71},{"city":"Loch Sheldrake","state_name":"New York","lat":41.78399,"lng":-74.65758,"zip":"12759","miles_from_dt":13.73},{"city":"Accord","state_name":"New York","lat":41.81602,"lng":-74.23632,"zip":"12404","miles_from_dt":14.74},{"city":"Otisville","state_name":"New York","lat":41.4669,"lng":-74.54121,"zip":"10963","miles_from_dt":14.8},{"city":"Harris","state_name":"New York","lat":41.71796,"lng":-74.72108,"zip":"12742","miles_from_dt":14.85},{"city":"Wallkill","state_name":"New York","lat":41.6278,"lng":-74.15875,"zip":"12589","miles_from_dt":14.91},{"city":"Cuddebackville","state_name":"New York","lat":41.49411,"lng":-74.61582,"zip":"12729","miles_from_dt":15.01},{"city":"Middletown","state_name":"New York","lat":41.45149,"lng":-74.46997,"zip":"10940","miles_from_dt":15.01},{"city":"Walden","state_name":"New York","lat":41.5657,"lng":-74.17289,"zip":"12586","miles_from_dt":15.61},{"city":"Grahamsville","state_name":"New York","lat":41.89499,"lng":-74.46616,"zip":"12740","miles_from_dt":15.72},{"city":"Neversink","state_name":"New York","lat":41.85265,"lng":-74.6281,"zip":"12765","miles_from_dt":15.97},{"city":"Forestburgh","state_name":"New York","lat":41.55172,"lng":-74.71067,"zip":"12777","miles_from_dt":16.07},{"city":"High Falls","state_name":"New York","lat":41.78665,"lng":-74.16338,"zip":"12440","miles_from_dt":16.56},{"city":"Ferndale","state_name":"New York","lat":41.7354,"lng":-74.7531,"zip":"12734","miles_from_dt":16.76},{"city":"Maybrook","state_name":"New York","lat":41.48602,"lng":-74.22354,"zip":"12543","miles_from_dt":16.9},{"city":"Modena","state_name":"New York","lat":41.66307,"lng":-74.10157,"zip":"12548","miles_from_dt":17.61},{"city":"Liberty","state_name":"New York","lat":41.80004,"lng":-74.73643,"zip":"12754","miles_from_dt":17.75},{"city":"Mongaup Valley","state_name":"New York","lat":41.65582,"lng":-74.79462,"zip":"12762","miles_from_dt":18.28},{"city":"Campbell Hall","state_name":"New York","lat":41.44881,"lng":-74.24311,"zip":"10916","miles_from_dt":18.3},{"city":"Huguenot","state_name":"New York","lat":41.44929,"lng":-74.65582,"zip":"12746","miles_from_dt":18.73},{"city":"New Paltz","state_name":"New York","lat":41.75602,"lng":-74.0958,"zip":"12561","miles_from_dt":18.9},{"city":"Olivebridge","state_name":"New York","lat":41.90531,"lng":-74.25246,"zip":"12461","miles_from_dt":19.08},{"city":"Smallwood","state_name":"New York","lat":41.66174,"lng":-74.8138,"zip":"12778","miles_from_dt":19.25},{"city":"Rock Tavern","state_name":"New York","lat":41.48514,"lng":-74.15714,"zip":"12575","miles_from_dt":19.41},{"city":"Clintondale","state_name":"New York","lat":41.68008,"lng":-74.06451,"zip":"12515","miles_from_dt":19.54},{"city":"Slate Hill","state_name":"New York","lat":41.38442,"lng":-74.47566,"zip":"10973","miles_from_dt":19.65},{"city":"Stone Ridge","state_name":"New York","lat":41.87024,"lng":-74.17338,"zip":"12484","miles_from_dt":19.68},{"city":"Parksville","state_name":"New York","lat":41.87157,"lng":-74.71507,"zip":"12768","miles_from_dt":19.92},{"city":"Plattekill","state_name":"New York","lat":41.61227,"lng":-74.06228,"zip":"12568","miles_from_dt":20.02},{"city":"Kauneonga Lake","state_name":"New York","lat":41.69149,"lng":-74.82768,"zip":"12749","miles_from_dt":20.03},{"city":"New Hampton","state_name":"New York","lat":41.3764,"lng":-74.42881,"zip":"10958","miles_from_dt":20.13},{"city":"Goshen","state_name":"New York","lat":41.3788,"lng":-74.3512,"zip":"10924","miles_from_dt":20.5},{"city":"West Shokan","state_name":"New York","lat":41.94857,"lng":-74.30169,"zip":"12494","miles_from_dt":20.67},{"city":"Claryville","state_name":"New York","lat":41.95679,"lng":-74.54794,"zip":"12725","miles_from_dt":20.67},{"city":"Swan Lake","state_name":"New York","lat":41.74026,"lng":-74.83502,"zip":"12783","miles_from_dt":20.94},{"city":"Sparrow Bush","state_name":"New York","lat":41.44514,"lng":-74.71989,"zip":"12780","miles_from_dt":21.08},{"city":"Johnson","state_name":"New York","lat":41.36527,"lng":-74.51106,"zip":"10933","miles_from_dt":21.2},{"city":"Blooming Grove","state_name":"New York","lat":41.41671,"lng":-74.20087,"zip":"10914","miles_from_dt":21.37},{"city":"White Lake","state_name":"New York","lat":41.64306,"lng":-74.85393,"zip":"12786","miles_from_dt":21.4},{"city":"Glen Spey","state_name":"New York","lat":41.50529,"lng":-74.79941,"zip":"12737","miles_from_dt":21.66},{"city":"Cottekill","state_name":"New York","lat":41.85948,"lng":-74.10265,"zip":"12419","miles_from_dt":21.95},{"city":"Washingtonville","state_name":"New York","lat":41.42648,"lng":-74.16567,"zip":"10992","miles_from_dt":21.97},{"city":"Newburgh","state_name":"New York","lat":41.53671,"lng":-74.05196,"zip":"12550","miles_from_dt":22.13},{"city":"White Sulphur Springs","state_name":"New York","lat":41.7931,"lng":-74.8365,"zip":"12787","miles_from_dt":22.16},{"city":"Newburgh","state_name":"New York","lat":41.53802,"lng":-74.04901,"zip":"12552","miles_from_dt":22.24},{"city":"Newburgh","state_name":"New York","lat":41.54077,"lng":-74.04673,"zip":"12551","miles_from_dt":22.27},{"city":"Port Jervis","state_name":"New York","lat":41.37394,"lng":-74.62429,"zip":"12771","miles_from_dt":22.39},{"city":"Rosendale","state_name":"New York","lat":41.84732,"lng":-74.07447,"zip":"12472","miles_from_dt":22.66},{"city":"Tillson","state_name":"New York","lat":41.83438,"lng":-74.06235,"zip":"12486","miles_from_dt":22.73},{"city":"Highland Lake","state_name":"New York","lat":41.54065,"lng":-74.84687,"zip":"12743","miles_from_dt":22.75},{"city":"Highland","state_name":"New York","lat":41.72273,"lng":-74.00477,"zip":"12528","miles_from_dt":22.92},{"city":"Marlboro","state_name":"New York","lat":41.60772,"lng":-73.99666,"zip":"12542","miles_from_dt":23.42},{"city":"Eldred","state_name":"New York","lat":41.56075,"lng":-74.87353,"zip":"12732","miles_from_dt":23.55},{"city":"Florida","state_name":"New York","lat":41.3292,"lng":-74.3651,"zip":"10921","miles_from_dt":23.72},{"city":"Bethel","state_name":"New York","lat":41.65794,"lng":-74.90029,"zip":"12720","miles_from_dt":23.74},{"city":"Milton","state_name":"New York","lat":41.65463,"lng":-73.98322,"zip":"12547","miles_from_dt":23.75},{"city":"Rifton","state_name":"New York","lat":41.83799,"lng":-74.04195,"zip":"12471","miles_from_dt":23.77},{"city":"Westtown","state_name":"New York","lat":41.33118,"lng":-74.53989,"zip":"10998","miles_from_dt":23.79},{"city":"New Windsor","state_name":"New York","lat":41.46146,"lng":-74.07311,"zip":"12553","miles_from_dt":23.84},{"city":"Shokan","state_name":"New York","lat":41.97519,"lng":-74.22718,"zip":"12481","miles_from_dt":23.92},{"city":"Salisbury Mills","state_name":"New York","lat":41.42048,"lng":-74.11678,"zip":"12577","miles_from_dt":23.99},{"city":"Chester","state_name":"New York","lat":41.34816,"lng":-74.25828,"zip":"10918","miles_from_dt":24.04},{"city":"Millrift","state_name":"Pennsylvania","lat":41.42027,"lng":-74.77503,"zip":"18340","miles_from_dt":24.3},{"city":"Vails Gate","state_name":"New York","lat":41.46623,"lng":-74.04924,"zip":"12584","miles_from_dt":24.65},{"city":"Livingston Manor","state_name":"New York","lat":41.9428,"lng":-74.74942,"zip":"12758","miles_from_dt":24.74},{"city":"Newburgh","state_name":"New York","lat":41.5086,"lng":-74.01337,"zip":"12555","miles_from_dt":24.77},{"city":"Youngsville","state_name":"New York","lat":41.81126,"lng":-74.88692,"zip":"12791","miles_from_dt":25.04},{"city":"Sugar Loaf","state_name":"New York","lat":41.32301,"lng":-74.28559,"zip":"10981","miles_from_dt":25.15},{"city":"Boiceville","state_name":"New York","lat":42.01218,"lng":-74.27698,"zip":"12412","miles_from_dt":25.23},{"city":"Matamoras","state_name":"Pennsylvania","lat":41.37566,"lng":-74.73674,"zip":"18336","miles_from_dt":25.32},{"city":"Bloomington","state_name":"New York","lat":41.87975,"lng":-74.04094,"zip":"12411","miles_from_dt":25.35},{"city":"West Park","state_name":"New York","lat":41.79316,"lng":-73.97283,"zip":"12493","miles_from_dt":25.74},{"city":"Jeffersonville","state_name":"New York","lat":41.77604,"lng":-74.91845,"zip":"12748","miles_from_dt":25.75},{"city":"Chelsea","state_name":"New York","lat":41.5542,"lng":-73.96471,"zip":"12512","miles_from_dt":25.93},{"city":"Hurley","state_name":"New York","lat":41.93388,"lng":-74.08536,"zip":"12443","miles_from_dt":25.99},{"city":"Pine Island","state_name":"New York","lat":41.292,"lng":-74.48879,"zip":"10969","miles_from_dt":26.06},{"city":"Unionville","state_name":"New York","lat":41.30133,"lng":-74.56218,"zip":"10988","miles_from_dt":26.06},{"city":"Pond Eddy","state_name":"New York","lat":41.44681,"lng":-74.85028,"zip":"12770","miles_from_dt":26.1},{"city":"Mountainville","state_name":"New York","lat":41.40581,"lng":-74.07783,"zip":"10953","miles_from_dt":26.15},{"city":"Phoenicia","state_name":"New York","lat":42.04071,"lng":-74.34452,"zip":"12464","miles_from_dt":26.21},{"city":"West Hurley","state_name":"New York","lat":41.96957,"lng":-74.13311,"zip":"12491","miles_from_dt":26.22},{"city":"Castle Point","state_name":"New York","lat":41.52822,"lng":-73.96344,"zip":"12511","miles_from_dt":26.59},{"city":"Ulster Park","state_name":"New York","lat":41.86095,"lng":-73.99555,"zip":"12487","miles_from_dt":26.63},{"city":"Monroe","state_name":"New York","lat":41.33,"lng":-74.19219,"zip":"10949","miles_from_dt":26.68},{"city":"Poughkeepsie","state_name":"New York","lat":41.70623,"lng":-73.92854,"zip":"12602","miles_from_dt":26.69},{"city":"Highland Mills","state_name":"New York","lat":41.3667,"lng":-74.11035,"zip":"10930","miles_from_dt":26.98},{"city":"Barryville","state_name":"New York","lat":41.48431,"lng":-74.90543,"zip":"12719","miles_from_dt":27.16},{"city":"Monroe","state_name":"New York","lat":41.31919,"lng":-74.19825,"zip":"10950","miles_from_dt":27.19},{"city":"Cornwall","state_name":"New York","lat":41.41847,"lng":-74.03571,"zip":"12518","miles_from_dt":27.2},{"city":"Kingston","state_name":"New York","lat":41.93504,"lng":-74.05446,"zip":"12401","miles_from_dt":27.2},{"city":"Hughsonville","state_name":"New York","lat":41.58315,"lng":-73.92722,"zip":"12537","miles_from_dt":27.28},{"city":"Cochecton","state_name":"New York","lat":41.64061,"lng":-74.96813,"zip":"12727","miles_from_dt":27.31},{"city":"Cochecton","state_name":"New York","lat":41.69269,"lng":-74.96902,"zip":"12726","miles_from_dt":27.33},{"city":"Esopus","state_name":"New York","lat":41.83323,"lng":-73.961,"zip":"12429","miles_from_dt":27.34},{"city":"Kenoza Lake","state_name":"New York","lat":41.73595,"lng":-74.96382,"zip":"12750","miles_from_dt":27.4},{"city":"Poughkeepsie","state_name":"New York","lat":41.70602,"lng":-73.91119,"zip":"12601","miles_from_dt":27.58},{"city":"Glenford","state_name":"New York","lat":42.00533,"lng":-74.15526,"zip":"12433","miles_from_dt":27.58},{"city":"Mount Tremper","state_name":"New York","lat":42.03997,"lng":-74.24659,"zip":"12457","miles_from_dt":27.58},{"city":"Cornwall On Hudson","state_name":"New York","lat":41.43362,"lng":-74.00693,"zip":"12520","miles_from_dt":27.75},{"city":"Big Indian","state_name":"New York","lat":42.0706,"lng":-74.45212,"zip":"12410","miles_from_dt":27.79},{"city":"Kingston","state_name":"New York","lat":41.93239,"lng":-74.03233,"zip":"12402","miles_from_dt":27.93},{"city":"Beacon","state_name":"New York","lat":41.49637,"lng":-73.95351,"zip":"12508","miles_from_dt":27.94},{"city":"Warwick","state_name":"New York","lat":41.2651,"lng":-74.3663,"zip":"10990","miles_from_dt":28.08},{"city":"Glenham","state_name":"New York","lat":41.51931,"lng":-73.93703,"zip":"12527","miles_from_dt":28.09},{"city":"Poughkeepsie","state_name":"New York","lat":41.68844,"lng":-73.89448,"zip":"12604","miles_from_dt":28.36},{"city":"Lake Huntington","state_name":"New York","lat":41.68278,"lng":-74.9905,"zip":"12752","miles_from_dt":28.41},{"city":"Yulan","state_name":"New York","lat":41.51447,"lng":-74.95172,"zip":"12792","miles_from_dt":28.46},{"city":"Callicoon Center","state_name":"New York","lat":41.85195,"lng":-74.93535,"zip":"12724","miles_from_dt":28.49},{"city":"Narrowsburg","state_name":"New York","lat":41.59639,"lng":-74.98515,"zip":"12764","miles_from_dt":28.56},{"city":"Connelly","state_name":"New York","lat":41.9073,"lng":-73.98943,"zip":"12417","miles_from_dt":28.62},{"city":"Port Ewen","state_name":"New York","lat":41.90671,"lng":-73.97826,"zip":"12466","miles_from_dt":29.07},{"city":"Wappingers Falls","state_name":"New York","lat":41.59559,"lng":-73.88774,"zip":"12590","miles_from_dt":29.12},{"city":"North Branch","state_name":"New York","lat":41.81408,"lng":-74.97923,"zip":"12766","miles_from_dt":29.55},{"city":"Central Valley","state_name":"New York","lat":41.31851,"lng":-74.11094,"zip":"10917","miles_from_dt":29.6},{"city":"Hyde Park","state_name":"New York","lat":41.79246,"lng":-73.89336,"zip":"12538","miles_from_dt":29.63},{"city":"Glenwood","state_name":"New Jersey","lat":41.2387,"lng":-74.4873,"zip":"07418","miles_from_dt":29.72},{"city":"Poughkeepsie","state_name":"New York","lat":41.67816,"lng":-73.86744,"zip":"12603","miles_from_dt":29.73},{"city":"Bellvale","state_name":"New York","lat":41.24733,"lng":-74.30386,"zip":"10912","miles_from_dt":29.9},{"city":"New Milford","state_name":"New York","lat":41.23454,"lng":-74.41307,"zip":"10959","miles_from_dt":29.95},{"city":"Fishkill","state_name":"New York","lat":41.53092,"lng":-73.89245,"zip":"12524","miles_from_dt":29.99}],"targetCityZipCode":"12483","targetCityState":"New York"},"__N_SSG":true}