{"pageProps":{"stateName":"New-york","cityName":"west-fulton","nearbyCities":[{"city":"Fultonham","state_name":"New York","lat":42.56971,"lng":-74.41521,"zip":"12071","miles_from_dt":2.94},{"city":"North Blenheim","state_name":"New York","lat":42.46573,"lng":-74.46249,"zip":"12131","miles_from_dt":5.03},{"city":"Summit","state_name":"New York","lat":42.55489,"lng":-74.56161,"zip":"12175","miles_from_dt":5.59},{"city":"Warnerville","state_name":"New York","lat":42.62632,"lng":-74.46537,"zip":"12187","miles_from_dt":6.1},{"city":"Middleburgh","state_name":"New York","lat":42.54341,"lng":-74.31138,"zip":"12122","miles_from_dt":7.3},{"city":"Richmondville","state_name":"New York","lat":42.62011,"lng":-74.56692,"zip":"12149","miles_from_dt":8.05},{"city":"Jefferson","state_name":"New York","lat":42.49599,"lng":-74.6262,"zip":"12093","miles_from_dt":9.25},{"city":"Gilboa","state_name":"New York","lat":42.40868,"lng":-74.38506,"zip":"12076","miles_from_dt":9.63},{"city":"Stamford","state_name":"New York","lat":42.42101,"lng":-74.59011,"zip":"12167","miles_from_dt":10.67},{"city":"East Worcester","state_name":"New York","lat":42.60711,"lng":-74.65887,"zip":"12064","miles_from_dt":11.46},{"city":"Charlotteville","state_name":"New York","lat":42.53564,"lng":-74.68468,"zip":"12036","miles_from_dt":11.76},{"city":"Schoharie","state_name":"New York","lat":42.66742,"lng":-74.29892,"zip":"12157","miles_from_dt":11.92},{"city":"Howes Cave","state_name":"New York","lat":42.70396,"lng":-74.38456,"zip":"12092","miles_from_dt":11.97},{"city":"Cobleskill","state_name":"New York","lat":42.70357,"lng":-74.5267,"zip":"12043","miles_from_dt":11.98},{"city":"Grand Gorge","state_name":"New York","lat":42.36491,"lng":-74.50793,"zip":"12434","miles_from_dt":12.28},{"city":"Preston Hollow","state_name":"New York","lat":42.44521,"lng":-74.2421,"zip":"12469","miles_from_dt":12.6},{"city":"Harpersfield","state_name":"New York","lat":42.4485,"lng":-74.69563,"zip":"13786","miles_from_dt":13.8},{"city":"Central Bridge","state_name":"New York","lat":42.73453,"lng":-74.37534,"zip":"12035","miles_from_dt":14.12},{"city":"Gallupville","state_name":"New York","lat":42.66207,"lng":-74.22992,"zip":"12073","miles_from_dt":14.28},{"city":"Dormansville","state_name":"New York","lat":42.43842,"lng":-74.20308,"zip":"12055","miles_from_dt":14.57},{"city":"Worcester","state_name":"New York","lat":42.6094,"lng":-74.72587,"zip":"12197","miles_from_dt":14.7},{"city":"Berne","state_name":"New York","lat":42.60656,"lng":-74.16573,"zip":"12023","miles_from_dt":15.46},{"city":"Rensselaerville","state_name":"New York","lat":42.51365,"lng":-74.15147,"zip":"12147","miles_from_dt":15.56},{"city":"Carlisle","state_name":"New York","lat":42.76579,"lng":-74.46617,"zip":"12031","miles_from_dt":15.71},{"city":"Sloansville","state_name":"New York","lat":42.76325,"lng":-74.36619,"zip":"12160","miles_from_dt":16.16},{"city":"Durham","state_name":"New York","lat":42.39205,"lng":-74.20232,"zip":"12422","miles_from_dt":16.37},{"city":"Prattsville","state_name":"New York","lat":42.29998,"lng":-74.41375,"zip":"12468","miles_from_dt":16.59},{"city":"Hobart","state_name":"New York","lat":42.34914,"lng":-74.65658,"zip":"13788","miles_from_dt":16.66},{"city":"Oak Hill","state_name":"New York","lat":42.42357,"lng":-74.16676,"zip":"12460","miles_from_dt":16.69},{"city":"Medusa","state_name":"New York","lat":42.45781,"lng":-74.1409,"zip":"12120","miles_from_dt":16.95},{"city":"Ashland","state_name":"New York","lat":42.30075,"lng":-74.35343,"zip":"12407","miles_from_dt":17.19},{"city":"Windham","state_name":"New York","lat":42.32669,"lng":-74.27256,"zip":"12496","miles_from_dt":17.32},{"city":"South Kortright","state_name":"New York","lat":42.37922,"lng":-74.72302,"zip":"13842","miles_from_dt":17.59},{"city":"Sharon Springs","state_name":"New York","lat":42.77721,"lng":-74.59315,"zip":"13459","miles_from_dt":17.94},{"city":"Roxbury","state_name":"New York","lat":42.29378,"lng":-74.58117,"zip":"12474","miles_from_dt":18.09},{"city":"Esperance","state_name":"New York","lat":42.78011,"lng":-74.30291,"zip":"12066","miles_from_dt":18.38},{"city":"Westford","state_name":"New York","lat":42.67447,"lng":-74.76796,"zip":"13488","miles_from_dt":18.55},{"city":"Quaker Street","state_name":"New York","lat":42.733,"lng":-74.1866,"zip":"12141","miles_from_dt":19.15},{"city":"Schenevus","state_name":"New York","lat":42.59229,"lng":-74.82337,"zip":"12155","miles_from_dt":19.19},{"city":"Knox","state_name":"New York","lat":42.66981,"lng":-74.11989,"zip":"12107","miles_from_dt":19.32},{"city":"Cornwallville","state_name":"New York","lat":42.35863,"lng":-74.1609,"zip":"12418","miles_from_dt":19.47},{"city":"Delanson","state_name":"New York","lat":42.75283,"lng":-74.18791,"zip":"12053","miles_from_dt":20.08},{"city":"Davenport","state_name":"New York","lat":42.47739,"lng":-74.83904,"zip":"13750","miles_from_dt":20.09},{"city":"Denver","state_name":"New York","lat":42.2512,"lng":-74.5336,"zip":"12421","miles_from_dt":20.23},{"city":"East Durham","state_name":"New York","lat":42.37968,"lng":-74.11136,"zip":"12423","miles_from_dt":20.67},{"city":"Sprakers","state_name":"New York","lat":42.83846,"lng":-74.45644,"zip":"12166","miles_from_dt":20.71},{"city":"Bloomville","state_name":"New York","lat":42.36614,"lng":-74.78982,"zip":"13739","miles_from_dt":20.87},{"city":"East Berne","state_name":"New York","lat":42.61403,"lng":-74.05811,"zip":"12059","miles_from_dt":20.88},{"city":"Westerlo","state_name":"New York","lat":42.51713,"lng":-74.04327,"zip":"12193","miles_from_dt":21.04},{"city":"Lexington","state_name":"New York","lat":42.23891,"lng":-74.34986,"zip":"12452","miles_from_dt":21.35},{"city":"Roseboom","state_name":"New York","lat":42.7026,"lng":-74.81263,"zip":"13450","miles_from_dt":21.5},{"city":"Hensonville","state_name":"New York","lat":42.29674,"lng":-74.18789,"zip":"12439","miles_from_dt":21.54},{"city":"Jewett","state_name":"New York","lat":42.24942,"lng":-74.28993,"zip":"12444","miles_from_dt":21.65},{"city":"Cherry Valley","state_name":"New York","lat":42.77353,"lng":-74.74325,"zip":"13320","miles_from_dt":21.91},{"city":"Davenport Center","state_name":"New York","lat":42.45745,"lng":-74.88363,"zip":"13751","miles_from_dt":22.63},{"city":"Greenville","state_name":"New York","lat":42.43151,"lng":-74.03155,"zip":"12083","miles_from_dt":22.82},{"city":"Canajoharie","state_name":"New York","lat":42.85638,"lng":-74.58844,"zip":"13317","miles_from_dt":22.99},{"city":"Fleischmanns","state_name":"New York","lat":42.20306,"lng":-74.49933,"zip":"12430","miles_from_dt":23.26},{"city":"Maplecrest","state_name":"New York","lat":42.2869,"lng":-74.15038,"zip":"12454","miles_from_dt":23.3},{"city":"Maryland","state_name":"New York","lat":42.53849,"lng":-74.91278,"zip":"12116","miles_from_dt":23.4},{"city":"Bovina Center","state_name":"New York","lat":42.27535,"lng":-74.74498,"zip":"13740","miles_from_dt":23.47},{"city":"New Kingston","state_name":"New York","lat":42.23976,"lng":-74.6805,"zip":"12459","miles_from_dt":23.64},{"city":"Halcottsville","state_name":"New York","lat":42.21251,"lng":-74.59667,"zip":"12438","miles_from_dt":23.64},{"city":"Acra","state_name":"New York","lat":42.31585,"lng":-74.0989,"zip":"12405","miles_from_dt":23.8},{"city":"Altamont","state_name":"New York","lat":42.69824,"lng":-74.03398,"zip":"12009","miles_from_dt":24.1},{"city":"Fultonville","state_name":"New York","lat":42.88102,"lng":-74.36164,"zip":"12072","miles_from_dt":24.12},{"city":"East Meredith","state_name":"New York","lat":42.40915,"lng":-74.89321,"zip":"13757","miles_from_dt":24.14},{"city":"Duanesburg","state_name":"New York","lat":42.76761,"lng":-74.0905,"zip":"12056","miles_from_dt":24.37},{"city":"Hunter","state_name":"New York","lat":42.22275,"lng":-74.23545,"zip":"12442","miles_from_dt":24.5},{"city":"Clarksville","state_name":"New York","lat":42.55893,"lng":-73.97028,"zip":"12041","miles_from_dt":24.74},{"city":"West Kill","state_name":"New York","lat":42.18758,"lng":-74.33453,"zip":"12492","miles_from_dt":24.98},{"city":"Voorheesville","state_name":"New York","lat":42.62502,"lng":-73.9737,"zip":"12186","miles_from_dt":25.23},{"city":"Freehold","state_name":"New York","lat":42.35877,"lng":-74.01843,"zip":"12431","miles_from_dt":25.5},{"city":"East Jewett","state_name":"New York","lat":42.24689,"lng":-74.14358,"zip":"12424","miles_from_dt":25.64},{"city":"Albany","state_name":"New York","lat":42.69718,"lng":-73.99431,"zip":"12249","miles_from_dt":25.89},{"city":"West Davenport","state_name":"New York","lat":42.45573,"lng":-74.94989,"zip":"13860","miles_from_dt":25.95},{"city":"Cooperstown","state_name":"New York","lat":42.71865,"lng":-74.90374,"zip":"13326","miles_from_dt":26.07},{"city":"Portlandville","state_name":"New York","lat":42.54903,"lng":-74.96727,"zip":"13834","miles_from_dt":26.19},{"city":"Pine Hill","state_name":"New York","lat":42.15278,"lng":-74.46725,"zip":"12465","miles_from_dt":26.62},{"city":"Palatine Bridge","state_name":"New York","lat":42.92096,"lng":-74.53311,"zip":"13428","miles_from_dt":26.71},{"city":"Cairo","state_name":"New York","lat":42.31338,"lng":-74.02628,"zip":"12413","miles_from_dt":26.84},{"city":"Alcove","state_name":"New York","lat":42.48889,"lng":-73.93159,"zip":"12007","miles_from_dt":26.91},{"city":"Highmount","state_name":"New York","lat":42.1502,"lng":-74.50625,"zip":"12441","miles_from_dt":26.93},{"city":"Surprise","state_name":"New York","lat":42.38839,"lng":-73.96787,"zip":"12176","miles_from_dt":26.93},{"city":"Colliersville","state_name":"New York","lat":42.49003,"lng":-74.98209,"zip":"13747","miles_from_dt":27.16},{"city":"Guilderland Center","state_name":"New York","lat":42.70043,"lng":-73.96659,"zip":"12085","miles_from_dt":27.26},{"city":"Coeymans Hollow","state_name":"New York","lat":42.48864,"lng":-73.92119,"zip":"12046","miles_from_dt":27.44},{"city":"Feura Bush","state_name":"New York","lat":42.56083,"lng":-73.91663,"zip":"12067","miles_from_dt":27.48},{"city":"Pattersonville","state_name":"New York","lat":42.85727,"lng":-74.12922,"zip":"12137","miles_from_dt":27.54},{"city":"East Springfield","state_name":"New York","lat":42.83091,"lng":-74.82207,"zip":"13333","miles_from_dt":27.54},{"city":"Purling","state_name":"New York","lat":42.26932,"lng":-74.05515,"zip":"12470","miles_from_dt":27.6},{"city":"Milford","state_name":"New York","lat":42.61718,"lng":-74.98612,"zip":"13807","miles_from_dt":27.67},{"city":"Tannersville","state_name":"New York","lat":42.20507,"lng":-74.15288,"zip":"12485","miles_from_dt":27.7},{"city":"Auriesville","state_name":"New York","lat":42.92878,"lng":-74.31964,"zip":"12016","miles_from_dt":27.8},{"city":"Shandaken","state_name":"New York","lat":42.13803,"lng":-74.37683,"zip":"12480","miles_from_dt":27.92},{"city":"Nelliston","state_name":"New York","lat":42.92908,"lng":-74.60922,"zip":"13410","miles_from_dt":28.1},{"city":"Schenectady","state_name":"New York","lat":42.80686,"lng":-74.03344,"zip":"12306","miles_from_dt":28.34},{"city":"Meridale","state_name":"New York","lat":42.37894,"lng":-74.97315,"zip":"13806","miles_from_dt":28.71},{"city":"Delhi","state_name":"New York","lat":42.30873,"lng":-74.92538,"zip":"13753","miles_from_dt":28.84},{"city":"Margaretville","state_name":"New York","lat":42.14871,"lng":-74.66334,"zip":"12455","miles_from_dt":28.95},{"city":"Round Top","state_name":"New York","lat":42.26157,"lng":-74.02827,"zip":"12473","miles_from_dt":28.98},{"city":"Fonda","state_name":"New York","lat":42.95701,"lng":-74.40467,"zip":"12068","miles_from_dt":29.01},{"city":"Fort Hunter","state_name":"New York","lat":42.94336,"lng":-74.28193,"zip":"12069","miles_from_dt":29.3},{"city":"Hannacroix","state_name":"New York","lat":42.42794,"lng":-73.8931,"zip":"12087","miles_from_dt":29.67},{"city":"Fort Plain","state_name":"New York","lat":42.93995,"lng":-74.66631,"zip":"13339","miles_from_dt":29.74},{"city":"Tribes Hill","state_name":"New York","lat":42.95184,"lng":-74.28459,"zip":"12177","miles_from_dt":29.82},{"city":"Springfield Center","state_name":"New York","lat":42.84696,"lng":-74.86448,"zip":"13468","miles_from_dt":29.83},{"city":"Slingerlands","state_name":"New York","lat":42.64328,"lng":-73.88503,"zip":"12159","miles_from_dt":29.92}],"targetCityZipCode":"12194","targetCityState":"New York"},"__N_SSG":true}