{"pageProps":{"stateName":"Nebraska","cityName":"abie","nearbyCities":[{"city":"Bruno","state_name":"Nebraska","lat":41.28219,"lng":-96.96458,"zip":"68014","miles_from_dt":3.59},{"city":"Linwood","state_name":"Nebraska","lat":41.39031,"lng":-96.95086,"zip":"68036","miles_from_dt":3.91},{"city":"Prague","state_name":"Nebraska","lat":41.30593,"lng":-96.84303,"zip":"68050","miles_from_dt":6.13},{"city":"Morse Bluff","state_name":"Nebraska","lat":41.40482,"lng":-96.78949,"zip":"68648","miles_from_dt":9.9},{"city":"David City","state_name":"Nebraska","lat":41.24266,"lng":-97.13288,"zip":"68632","miles_from_dt":11.19},{"city":"Brainard","state_name":"Nebraska","lat":41.16821,"lng":-96.9921,"zip":"68626","miles_from_dt":11.58},{"city":"Malmo","state_name":"Nebraska","lat":41.28555,"lng":-96.73815,"zip":"68040","miles_from_dt":11.76},{"city":"Weston","state_name":"Nebraska","lat":41.1924,"lng":-96.79973,"zip":"68070","miles_from_dt":12.66},{"city":"Schuyler","state_name":"Nebraska","lat":41.49559,"lng":-97.08347,"zip":"68661","miles_from_dt":13.02},{"city":"Bellwood","state_name":"Nebraska","lat":41.34974,"lng":-97.22858,"zip":"68624","miles_from_dt":14.28},{"city":"Rogers","state_name":"Nebraska","lat":41.54388,"lng":-96.94438,"zip":"68659","miles_from_dt":14.52},{"city":"North Bend","state_name":"Nebraska","lat":41.50784,"lng":-96.78896,"zip":"68649","miles_from_dt":14.79},{"city":"Cedar Bluffs","state_name":"Nebraska","lat":41.38351,"lng":-96.64737,"zip":"68015","miles_from_dt":16.35},{"city":"Dwight","state_name":"Nebraska","lat":41.08544,"lng":-97.02298,"zip":"68635","miles_from_dt":17.49},{"city":"Colon","state_name":"Nebraska","lat":41.30207,"lng":-96.61573,"zip":"68018","miles_from_dt":17.78},{"city":"Valparaiso","state_name":"Nebraska","lat":41.0766,"lng":-96.84854,"zip":"68065","miles_from_dt":18.59},{"city":"Ames","state_name":"Nebraska","lat":41.48963,"lng":-96.63911,"zip":"68621","miles_from_dt":19.62},{"city":"Rising City","state_name":"Nebraska","lat":41.19971,"lng":-97.2937,"zip":"68658","miles_from_dt":19.92},{"city":"Columbus","state_name":"Nebraska","lat":41.44629,"lng":-97.30773,"zip":"68602","miles_from_dt":19.92},{"city":"Wahoo","state_name":"Nebraska","lat":41.18451,"lng":-96.61996,"zip":"68066","miles_from_dt":20.25},{"city":"Bee","state_name":"Nebraska","lat":41.01643,"lng":-97.0248,"zip":"68314","miles_from_dt":22.19},{"city":"Ulysses","state_name":"Nebraska","lat":41.07789,"lng":-97.23612,"zip":"68669","miles_from_dt":22.94},{"city":"Surprise","state_name":"Nebraska","lat":41.11231,"lng":-97.30278,"zip":"68667","miles_from_dt":23.71},{"city":"Columbus","state_name":"Nebraska","lat":41.45205,"lng":-97.39477,"zip":"68601","miles_from_dt":24.27},{"city":"Ceresco","state_name":"Nebraska","lat":41.05938,"lng":-96.66179,"zip":"68017","miles_from_dt":24.33},{"city":"Fremont","state_name":"Nebraska","lat":41.43749,"lng":-96.49158,"zip":"68025","miles_from_dt":25.12},{"city":"Mead","state_name":"Nebraska","lat":41.23633,"lng":-96.48793,"zip":"68041","miles_from_dt":25.22},{"city":"Fremont","state_name":"Nebraska","lat":41.44032,"lng":-96.48975,"zip":"68026","miles_from_dt":25.27},{"city":"Shelby","state_name":"Nebraska","lat":41.20698,"lng":-97.41535,"zip":"68662","miles_from_dt":25.52},{"city":"Scribner","state_name":"Nebraska","lat":41.65888,"lng":-96.71893,"zip":"68057","miles_from_dt":25.56},{"city":"Dodge","state_name":"Nebraska","lat":41.70585,"lng":-96.89668,"zip":"68633","miles_from_dt":25.86},{"city":"Raymond","state_name":"Nebraska","lat":40.97244,"lng":-96.79624,"zip":"68428","miles_from_dt":26.27},{"city":"Ithaca","state_name":"Nebraska","lat":41.12933,"lng":-96.52425,"zip":"68033","miles_from_dt":26.5},{"city":"Staplehurst","state_name":"Nebraska","lat":40.99937,"lng":-97.21136,"zip":"68439","miles_from_dt":26.67},{"city":"Garland","state_name":"Nebraska","lat":40.94613,"lng":-96.95661,"zip":"68360","miles_from_dt":26.74},{"city":"Snyder","state_name":"Nebraska","lat":41.70453,"lng":-96.78694,"zip":"68664","miles_from_dt":27.03},{"city":"Clarkson","state_name":"Nebraska","lat":41.71336,"lng":-97.12936,"zip":"68629","miles_from_dt":27.72},{"city":"Howells","state_name":"Nebraska","lat":41.73452,"lng":-97.00829,"zip":"68641","miles_from_dt":27.8},{"city":"Duncan","state_name":"Nebraska","lat":41.39073,"lng":-97.50659,"zip":"68634","miles_from_dt":28.95},{"city":"Yutan","state_name":"Nebraska","lat":41.23931,"lng":-96.40931,"zip":"68073","miles_from_dt":29.14},{"city":"Davey","state_name":"Nebraska","lat":40.9615,"lng":-96.68405,"zip":"68336","miles_from_dt":29.31},{"city":"Malcolm","state_name":"Nebraska","lat":40.90829,"lng":-96.8571,"zip":"68402","miles_from_dt":29.8},{"city":"Leigh","state_name":"Nebraska","lat":41.70231,"lng":-97.25918,"zip":"68643","miles_from_dt":29.94}],"targetCityZipCode":"68001","targetCityState":"Nebraska"},"__N_SSG":true}