{"pageProps":{"stateName":"Nebraska","cityName":"amelia","nearbyCities":[{"city":"Chambers","state_name":"Nebraska","lat":42.20118,"lng":-98.77703,"zip":"68725","miles_from_dt":12.68},{"city":"Emmet","state_name":"Nebraska","lat":42.42528,"lng":-98.8044,"zip":"68734","miles_from_dt":19},{"city":"Burwell","state_name":"Nebraska","lat":41.93653,"lng":-99.13255,"zip":"68823","miles_from_dt":19.25},{"city":"Atkinson","state_name":"Nebraska","lat":42.54061,"lng":-98.9718,"zip":"68713","miles_from_dt":23.43},{"city":"Bassett","state_name":"Nebraska","lat":42.36957,"lng":-99.50258,"zip":"68714","miles_from_dt":27.07},{"city":"Inman","state_name":"Nebraska","lat":42.3572,"lng":-98.51459,"zip":"68742","miles_from_dt":28.19},{"city":"Ewing","state_name":"Nebraska","lat":42.14911,"lng":-98.45402,"zip":"68735","miles_from_dt":29.5}],"targetCityZipCode":"68711","targetCityState":"Nebraska"},"__N_SSG":true}