{"pageProps":{"stateName":"Nebraska","cityName":"arthur","nearbyCities":[{"city":"Lemoyne","state_name":"Nebraska","lat":41.34986,"lng":-101.82892,"zip":"69146","miles_from_dt":15.98},{"city":"Keystone","state_name":"Nebraska","lat":41.317,"lng":-101.60261,"zip":"69144","miles_from_dt":18.25},{"city":"Lewellen","state_name":"Nebraska","lat":41.51514,"lng":-102.08813,"zip":"69147","miles_from_dt":19.42},{"city":"Sutherland","state_name":"Nebraska","lat":41.35102,"lng":-101.27268,"zip":"69165","miles_from_dt":27.56},{"city":"Hyannis","state_name":"Nebraska","lat":41.98667,"lng":-101.73311,"zip":"69350","miles_from_dt":29.02}],"targetCityZipCode":"69121","targetCityState":"Nebraska"},"__N_SSG":true}