{"pageProps":{"stateName":"Nebraska","cityName":"hordville","nearbyCities":[{"city":"Polk","state_name":"Nebraska","lat":41.06791,"lng":-97.7772,"zip":"68654","miles_from_dt":5.65},{"city":"Marquette","state_name":"Nebraska","lat":41.00798,"lng":-98.00239,"zip":"68854","miles_from_dt":7.27},{"city":"Central City","state_name":"Nebraska","lat":41.16341,"lng":-98.0191,"zip":"68826","miles_from_dt":9.74},{"city":"Clarks","state_name":"Nebraska","lat":41.21694,"lng":-97.84355,"zip":"68628","miles_from_dt":10.71},{"city":"Bradshaw","state_name":"Nebraska","lat":40.93656,"lng":-97.75817,"zip":"68319","miles_from_dt":11.08},{"city":"Hampton","state_name":"Nebraska","lat":40.90334,"lng":-97.88018,"zip":"68843","miles_from_dt":11.16},{"city":"Benedict","state_name":"Nebraska","lat":41.01688,"lng":-97.61577,"zip":"68316","miles_from_dt":14.47},{"city":"Stromsburg","state_name":"Nebraska","lat":41.10775,"lng":-97.61369,"zip":"68666","miles_from_dt":14.49},{"city":"Archer","state_name":"Nebraska","lat":41.17484,"lng":-98.13373,"zip":"68816","miles_from_dt":15.02},{"city":"Chapman","state_name":"Nebraska","lat":41.04247,"lng":-98.1811,"zip":"68827","miles_from_dt":15.53},{"city":"Aurora","state_name":"Nebraska","lat":40.82211,"lng":-98.01036,"zip":"68818","miles_from_dt":17.99},{"city":"Osceola","state_name":"Nebraska","lat":41.22443,"lng":-97.57472,"zip":"68651","miles_from_dt":19.59},{"city":"Silver Creek","state_name":"Nebraska","lat":41.31193,"lng":-97.69927,"zip":"68663","miles_from_dt":19.61},{"city":"Phillips","state_name":"Nebraska","lat":40.89337,"lng":-98.187,"zip":"68865","miles_from_dt":19.73},{"city":"York","state_name":"Nebraska","lat":40.86528,"lng":-97.59778,"zip":"68467","miles_from_dt":20.4},{"city":"Henderson","state_name":"Nebraska","lat":40.77304,"lng":-97.78417,"zip":"68371","miles_from_dt":20.83},{"city":"Fullerton","state_name":"Nebraska","lat":41.36848,"lng":-97.98977,"zip":"68638","miles_from_dt":21.64},{"city":"Grand Island","state_name":"Nebraska","lat":40.94949,"lng":-98.29295,"zip":"68801","miles_from_dt":22.75},{"city":"Palmer","state_name":"Nebraska","lat":41.2608,"lng":-98.24046,"zip":"68864","miles_from_dt":22.93},{"city":"Saint Libory","state_name":"Nebraska","lat":41.09286,"lng":-98.33216,"zip":"68872","miles_from_dt":23.41},{"city":"Gresham","state_name":"Nebraska","lat":41.03807,"lng":-97.40128,"zip":"68367","miles_from_dt":25.35},{"city":"Giltner","state_name":"Nebraska","lat":40.76316,"lng":-98.16677,"zip":"68841","miles_from_dt":25.51},{"city":"Shelby","state_name":"Nebraska","lat":41.20698,"lng":-97.41535,"zip":"68662","miles_from_dt":26.4},{"city":"Waco","state_name":"Nebraska","lat":40.89596,"lng":-97.43169,"zip":"68460","miles_from_dt":26.44},{"city":"Grand Island","state_name":"Nebraska","lat":40.9104,"lng":-98.35067,"zip":"68802","miles_from_dt":26.57},{"city":"McCool Junction","state_name":"Nebraska","lat":40.74233,"lng":-97.58569,"zip":"68401","miles_from_dt":27.24},{"city":"Genoa","state_name":"Nebraska","lat":41.46111,"lng":-97.77237,"zip":"68640","miles_from_dt":27.96},{"city":"Belgrade","state_name":"Nebraska","lat":41.44327,"lng":-98.11602,"zip":"68623","miles_from_dt":28.74},{"city":"Grand Island","state_name":"Nebraska","lat":40.95357,"lng":-98.41593,"zip":"68803","miles_from_dt":28.78},{"city":"Duncan","state_name":"Nebraska","lat":41.39073,"lng":-97.50659,"zip":"68634","miles_from_dt":29.91}],"targetCityZipCode":"68846","targetCityState":"Nebraska"},"__N_SSG":true}