{"pageProps":{"stateName":"Nebraska","cityName":"martell","nearbyCities":[{"city":"Sprague","state_name":"Nebraska","lat":40.62656,"lng":-96.74463,"zip":"68438","miles_from_dt":0.78},{"city":"Hallam","state_name":"Nebraska","lat":40.55598,"lng":-96.81665,"zip":"68368","miles_from_dt":5.4},{"city":"Roca","state_name":"Nebraska","lat":40.66599,"lng":-96.66012,"zip":"68430","miles_from_dt":5.98},{"city":"Hickman","state_name":"Nebraska","lat":40.60498,"lng":-96.60539,"zip":"68372","miles_from_dt":7.96},{"city":"Lincoln","state_name":"Nebraska","lat":40.73555,"lng":-96.75708,"zip":"68523","miles_from_dt":8.04},{"city":"Lincoln","state_name":"Nebraska","lat":40.73746,"lng":-96.70567,"zip":"68512","miles_from_dt":8.59},{"city":"Firth","state_name":"Nebraska","lat":40.53321,"lng":-96.60973,"zip":"68358","miles_from_dt":9.69},{"city":"Denton","state_name":"Nebraska","lat":40.73214,"lng":-96.86696,"zip":"68339","miles_from_dt":9.75},{"city":"Lincoln","state_name":"Nebraska","lat":40.73493,"lng":-96.6428,"zip":"68516","miles_from_dt":9.96},{"city":"Crete","state_name":"Nebraska","lat":40.62126,"lng":-96.94901,"zip":"68333","miles_from_dt":10.17},{"city":"Cortland","state_name":"Nebraska","lat":40.4712,"lng":-96.70863,"zip":"68331","miles_from_dt":10.49},{"city":"Clatonia","state_name":"Nebraska","lat":40.47694,"lng":-96.8384,"zip":"68328","miles_from_dt":10.73},{"city":"Lincoln","state_name":"Nebraska","lat":40.78361,"lng":-96.70083,"zip":"68502","miles_from_dt":11.72},{"city":"Lincoln","state_name":"Nebraska","lat":40.78941,"lng":-96.76214,"zip":"68522","miles_from_dt":11.76},{"city":"Lincoln","state_name":"Nebraska","lat":40.7873,"lng":-96.70053,"zip":"68542","miles_from_dt":11.97},{"city":"Lincoln","state_name":"Nebraska","lat":40.7324,"lng":-96.58269,"zip":"68526","miles_from_dt":11.99},{"city":"Panama","state_name":"Nebraska","lat":40.60297,"lng":-96.51129,"zip":"68419","miles_from_dt":12.9},{"city":"Lincoln","state_name":"Nebraska","lat":40.78422,"lng":-96.63959,"zip":"68506","miles_from_dt":12.93},{"city":"Lincoln","state_name":"Nebraska","lat":40.79544,"lng":-96.84332,"zip":"68532","miles_from_dt":13.02},{"city":"Lincoln","state_name":"Nebraska","lat":40.8136,"lng":-96.70726,"zip":"68544","miles_from_dt":13.67},{"city":"Bennet","state_name":"Nebraska","lat":40.67325,"lng":-96.50451,"zip":"68317","miles_from_dt":13.72},{"city":"Lincoln","state_name":"Nebraska","lat":40.8167,"lng":-96.70917,"zip":"68509","miles_from_dt":13.86},{"city":"Lincoln","state_name":"Nebraska","lat":40.81831,"lng":-96.70621,"zip":"68508","miles_from_dt":14},{"city":"Lincoln","state_name":"Nebraska","lat":40.80654,"lng":-96.64835,"zip":"68510","miles_from_dt":14.11},{"city":"Lincoln","state_name":"Nebraska","lat":40.82379,"lng":-96.77509,"zip":"68501","miles_from_dt":14.17},{"city":"Lincoln","state_name":"Nebraska","lat":40.82244,"lng":-96.81762,"zip":"68528","miles_from_dt":14.41},{"city":"Lincoln","state_name":"Nebraska","lat":40.82482,"lng":-96.69644,"zip":"68588","miles_from_dt":14.54},{"city":"Lincoln","state_name":"Nebraska","lat":40.82447,"lng":-96.67387,"zip":"68503","miles_from_dt":14.81},{"city":"Lincoln","state_name":"Nebraska","lat":40.8284,"lng":-96.66302,"zip":"68583","miles_from_dt":15.25},{"city":"Lincoln","state_name":"Nebraska","lat":40.82446,"lng":-96.61562,"zip":"68505","miles_from_dt":15.97},{"city":"Adams","state_name":"Nebraska","lat":40.46847,"lng":-96.52244,"zip":"68301","miles_from_dt":16.08},{"city":"Pickrell","state_name":"Nebraska","lat":40.38863,"lng":-96.69755,"zip":"68422","miles_from_dt":16.19},{"city":"Pleasant Dale","state_name":"Nebraska","lat":40.80112,"lng":-96.95117,"zip":"68423","miles_from_dt":16.23},{"city":"Walton","state_name":"Nebraska","lat":40.76682,"lng":-96.51419,"zip":"68461","miles_from_dt":16.28},{"city":"Lincoln","state_name":"Nebraska","lat":40.79827,"lng":-96.55313,"zip":"68520","miles_from_dt":16.31},{"city":"Wilber","state_name":"Nebraska","lat":40.49248,"lng":-97.01987,"zip":"68465","miles_from_dt":16.42},{"city":"Lincoln","state_name":"Nebraska","lat":40.8618,"lng":-96.71519,"zip":"68521","miles_from_dt":16.89},{"city":"Lincoln","state_name":"Nebraska","lat":40.85451,"lng":-96.66104,"zip":"68504","miles_from_dt":16.99},{"city":"Lincoln","state_name":"Nebraska","lat":40.87145,"lng":-96.80264,"zip":"68524","miles_from_dt":17.59},{"city":"Lincoln","state_name":"Nebraska","lat":40.8529,"lng":-96.61311,"zip":"68529","miles_from_dt":17.79},{"city":"De Witt","state_name":"Nebraska","lat":40.3855,"lng":-96.91378,"zip":"68341","miles_from_dt":18.14},{"city":"Lincoln","state_name":"Nebraska","lat":40.85954,"lng":-96.61172,"zip":"68507","miles_from_dt":18.24},{"city":"Douglas","state_name":"Nebraska","lat":40.57159,"lng":-96.39544,"zip":"68344","miles_from_dt":19.23},{"city":"Milford","state_name":"Nebraska","lat":40.76522,"lng":-97.07315,"zip":"68405","miles_from_dt":19.49},{"city":"Lincoln","state_name":"Nebraska","lat":40.90211,"lng":-96.71415,"zip":"68531","miles_from_dt":19.66},{"city":"Dorchester","state_name":"Nebraska","lat":40.61989,"lng":-97.13194,"zip":"68343","miles_from_dt":19.78},{"city":"Lincoln","state_name":"Nebraska","lat":40.84573,"lng":-96.51753,"zip":"68527","miles_from_dt":20.02},{"city":"Palmyra","state_name":"Nebraska","lat":40.69568,"lng":-96.38435,"zip":"68418","miles_from_dt":20.22},{"city":"Malcolm","state_name":"Nebraska","lat":40.90829,"lng":-96.8571,"zip":"68402","miles_from_dt":20.66},{"city":"Eagle","state_name":"Nebraska","lat":40.80347,"lng":-96.42274,"zip":"68347","miles_from_dt":21.62},{"city":"Lincoln","state_name":"Nebraska","lat":40.93408,"lng":-96.65076,"zip":"68514","miles_from_dt":22.43},{"city":"Swanton","state_name":"Nebraska","lat":40.40146,"lng":-97.08662,"zip":"68445","miles_from_dt":23},{"city":"Lincoln","state_name":"Nebraska","lat":40.93341,"lng":-96.60487,"zip":"68517","miles_from_dt":23.09},{"city":"Sterling","state_name":"Nebraska","lat":40.45627,"lng":-96.36758,"zip":"68443","miles_from_dt":23.31},{"city":"Filley","state_name":"Nebraska","lat":40.31541,"lng":-96.54658,"zip":"68357","miles_from_dt":23.67},{"city":"Davey","state_name":"Nebraska","lat":40.9615,"lng":-96.68405,"zip":"68336","miles_from_dt":23.93},{"city":"Raymond","state_name":"Nebraska","lat":40.97244,"lng":-96.79624,"zip":"68428","miles_from_dt":24.48},{"city":"Burr","state_name":"Nebraska","lat":40.55407,"lng":-96.29014,"zip":"68324","miles_from_dt":24.89},{"city":"Garland","state_name":"Nebraska","lat":40.94613,"lng":-96.95661,"zip":"68360","miles_from_dt":24.91},{"city":"Unadilla","state_name":"Nebraska","lat":40.69275,"lng":-96.28686,"zip":"68454","miles_from_dt":25.16},{"city":"Beatrice","state_name":"Nebraska","lat":40.24957,"lng":-96.74943,"zip":"68310","miles_from_dt":25.49},{"city":"Waverly","state_name":"Nebraska","lat":40.94804,"lng":-96.52806,"zip":"68462","miles_from_dt":25.65},{"city":"Plymouth","state_name":"Nebraska","lat":40.30111,"lng":-97.01818,"zip":"68424","miles_from_dt":25.93},{"city":"Western","state_name":"Nebraska","lat":40.42232,"lng":-97.1955,"zip":"68464","miles_from_dt":26.84},{"city":"Alvo","state_name":"Nebraska","lat":40.88971,"lng":-96.38781,"zip":"68304","miles_from_dt":26.86},{"city":"Crab Orchard","state_name":"Nebraska","lat":40.32829,"lng":-96.41123,"zip":"68332","miles_from_dt":27.05},{"city":"Seward","state_name":"Nebraska","lat":40.90947,"lng":-97.11675,"zip":"68434","miles_from_dt":27.58},{"city":"Friend","state_name":"Nebraska","lat":40.63059,"lng":-97.28333,"zip":"68359","miles_from_dt":27.75},{"city":"Elmwood","state_name":"Nebraska","lat":40.82962,"lng":-96.30028,"zip":"68349","miles_from_dt":27.98},{"city":"Goehner","state_name":"Nebraska","lat":40.83656,"lng":-97.22563,"zip":"68364","miles_from_dt":28.88},{"city":"Beaver Crossing","state_name":"Nebraska","lat":40.78142,"lng":-97.27193,"zip":"68313","miles_from_dt":29.34},{"city":"Greenwood","state_name":"Nebraska","lat":40.98215,"lng":-96.44222,"zip":"68366","miles_from_dt":29.97}],"targetCityZipCode":"68404","targetCityState":"Nebraska"},"__N_SSG":true}