{"pageProps":{"stateName":"Nebraska","cityName":"rosalie","nearbyCities":[{"city":"Walthill","state_name":"Nebraska","lat":42.1519,"lng":-96.48603,"zip":"68067","miles_from_dt":6.56},{"city":"Lyons","state_name":"Nebraska","lat":41.95458,"lng":-96.4432,"zip":"68038","miles_from_dt":7.25},{"city":"Macy","state_name":"Nebraska","lat":42.112,"lng":-96.34397,"zip":"68039","miles_from_dt":7.58},{"city":"Bancroft","state_name":"Nebraska","lat":42.00888,"lng":-96.62978,"zip":"68004","miles_from_dt":8.79},{"city":"Winnebago","state_name":"Nebraska","lat":42.23605,"lng":-96.47446,"zip":"68071","miles_from_dt":12.33},{"city":"Decatur","state_name":"Nebraska","lat":41.9762,"lng":-96.25627,"zip":"68020","miles_from_dt":12.44},{"city":"Pender","state_name":"Nebraska","lat":42.10592,"lng":-96.7325,"zip":"68047","miles_from_dt":13.81},{"city":"Thurston","state_name":"Nebraska","lat":42.19538,"lng":-96.6743,"zip":"68062","miles_from_dt":14.1},{"city":"Sloan","state_name":"Iowa","lat":42.21162,"lng":-96.26069,"zip":"51055","miles_from_dt":15.2},{"city":"Whiting","state_name":"Iowa","lat":42.13103,"lng":-96.18611,"zip":"51063","miles_from_dt":15.54},{"city":"Oakland","state_name":"Nebraska","lat":41.8273,"lng":-96.49523,"zip":"68045","miles_from_dt":15.93},{"city":"Homer","state_name":"Nebraska","lat":42.3184,"lng":-96.45057,"zip":"68030","miles_from_dt":18.04},{"city":"Craig","state_name":"Nebraska","lat":41.77965,"lng":-96.37323,"zip":"68019","miles_from_dt":19.84},{"city":"West Point","state_name":"Nebraska","lat":41.8387,"lng":-96.72571,"zip":"68788","miles_from_dt":19.97},{"city":"Beemer","state_name":"Nebraska","lat":41.9314,"lng":-96.82337,"zip":"68716","miles_from_dt":20.08},{"city":"Emerson","state_name":"Nebraska","lat":42.28278,"lng":-96.72245,"zip":"68733","miles_from_dt":20.18},{"city":"Salix","state_name":"Iowa","lat":42.31063,"lng":-96.26343,"zip":"51052","miles_from_dt":20.49},{"city":"Onawa","state_name":"Iowa","lat":42.03073,"lng":-96.0706,"zip":"51040","miles_from_dt":20.73},{"city":"Hubbard","state_name":"Nebraska","lat":42.35711,"lng":-96.59375,"zip":"68741","miles_from_dt":21.61},{"city":"Tekamah","state_name":"Nebraska","lat":41.80078,"lng":-96.21165,"zip":"68061","miles_from_dt":22.22},{"city":"Blencoe","state_name":"Iowa","lat":41.9122,"lng":-96.07172,"zip":"51523","miles_from_dt":22.92},{"city":"Uehling","state_name":"Nebraska","lat":41.72124,"lng":-96.49345,"zip":"68063","miles_from_dt":23.23},{"city":"Sergeant Bluff","state_name":"Iowa","lat":42.37832,"lng":-96.33159,"zip":"51054","miles_from_dt":23.29},{"city":"Wisner","state_name":"Nebraska","lat":41.99103,"lng":-96.93245,"zip":"68791","miles_from_dt":24.14},{"city":"Hornick","state_name":"Iowa","lat":42.24857,"lng":-96.07592,"zip":"51026","miles_from_dt":24.24},{"city":"Dakota City","state_name":"Nebraska","lat":42.40993,"lng":-96.48341,"zip":"68731","miles_from_dt":24.33},{"city":"Sioux City","state_name":"Iowa","lat":42.41129,"lng":-96.38606,"zip":"51111","miles_from_dt":24.81},{"city":"Wakefield","state_name":"Nebraska","lat":42.25763,"lng":-96.88657,"zip":"68784","miles_from_dt":25.38},{"city":"Sioux City","state_name":"Iowa","lat":42.41773,"lng":-96.33961,"zip":"51102","miles_from_dt":25.77},{"city":"Little Sioux","state_name":"Iowa","lat":41.83897,"lng":-96.02072,"zip":"51545","miles_from_dt":27.71},{"city":"Rodney","state_name":"Iowa","lat":42.20443,"lng":-95.96988,"zip":"51051","miles_from_dt":27.72},{"city":"South Sioux City","state_name":"Nebraska","lat":42.4601,"lng":-96.44424,"zip":"68776","miles_from_dt":27.83},{"city":"Bronson","state_name":"Iowa","lat":42.40225,"lng":-96.18857,"zip":"51007","miles_from_dt":27.88},{"city":"Climbing Hill","state_name":"Iowa","lat":42.33936,"lng":-96.08107,"zip":"51015","miles_from_dt":27.94},{"city":"Castana","state_name":"Iowa","lat":42.09309,"lng":-95.92044,"zip":"51010","miles_from_dt":28.46},{"city":"Waterbury","state_name":"Nebraska","lat":42.42796,"lng":-96.7224,"zip":"68785","miles_from_dt":28.62},{"city":"Hooper","state_name":"Nebraska","lat":41.64041,"lng":-96.53046,"zip":"68031","miles_from_dt":28.94},{"city":"Sioux City","state_name":"Iowa","lat":42.46292,"lng":-96.32,"zip":"51106","miles_from_dt":29.05},{"city":"Snyder","state_name":"Nebraska","lat":41.70453,"lng":-96.78694,"zip":"68664","miles_from_dt":29.28},{"city":"Smithland","state_name":"Iowa","lat":42.23443,"lng":-95.95391,"zip":"51056","miles_from_dt":29.28},{"city":"Herman","state_name":"Nebraska","lat":41.65873,"lng":-96.27394,"zip":"68029","miles_from_dt":29.35},{"city":"Jackson","state_name":"Nebraska","lat":42.47271,"lng":-96.62586,"zip":"68743","miles_from_dt":29.73}],"targetCityZipCode":"68055","targetCityState":"Nebraska"},"__N_SSG":true}