{"pageProps":{"stateName":"Nebraska","cityName":"walthill","nearbyCities":[{"city":"Winnebago","state_name":"Nebraska","lat":42.23605,"lng":-96.47446,"zip":"68071","miles_from_dt":5.84},{"city":"Rosalie","state_name":"Nebraska","lat":42.05747,"lng":-96.47192,"zip":"68055","miles_from_dt":6.56},{"city":"Macy","state_name":"Nebraska","lat":42.112,"lng":-96.34397,"zip":"68039","miles_from_dt":7.8},{"city":"Thurston","state_name":"Nebraska","lat":42.19538,"lng":-96.6743,"zip":"68062","miles_from_dt":10.12},{"city":"Homer","state_name":"Nebraska","lat":42.3184,"lng":-96.45057,"zip":"68030","miles_from_dt":11.63},{"city":"Sloan","state_name":"Iowa","lat":42.21162,"lng":-96.26069,"zip":"51055","miles_from_dt":12.28},{"city":"Bancroft","state_name":"Nebraska","lat":42.00888,"lng":-96.62978,"zip":"68004","miles_from_dt":12.33},{"city":"Pender","state_name":"Nebraska","lat":42.10592,"lng":-96.7325,"zip":"68047","miles_from_dt":13.05},{"city":"Lyons","state_name":"Nebraska","lat":41.95458,"lng":-96.4432,"zip":"68038","miles_from_dt":13.8},{"city":"Emerson","state_name":"Nebraska","lat":42.28278,"lng":-96.72245,"zip":"68733","miles_from_dt":15.12},{"city":"Hubbard","state_name":"Nebraska","lat":42.35711,"lng":-96.59375,"zip":"68741","miles_from_dt":15.2},{"city":"Whiting","state_name":"Iowa","lat":42.13103,"lng":-96.18611,"zip":"51063","miles_from_dt":15.47},{"city":"Salix","state_name":"Iowa","lat":42.31063,"lng":-96.26343,"zip":"51052","miles_from_dt":15.82},{"city":"Decatur","state_name":"Nebraska","lat":41.9762,"lng":-96.25627,"zip":"68020","miles_from_dt":16.93},{"city":"Sergeant Bluff","state_name":"Iowa","lat":42.37832,"lng":-96.33159,"zip":"51054","miles_from_dt":17.52},{"city":"Dakota City","state_name":"Nebraska","lat":42.40993,"lng":-96.48341,"zip":"68731","miles_from_dt":17.81},{"city":"Sioux City","state_name":"Iowa","lat":42.41129,"lng":-96.38606,"zip":"51111","miles_from_dt":18.62},{"city":"Sioux City","state_name":"Iowa","lat":42.41773,"lng":-96.33961,"zip":"51102","miles_from_dt":19.82},{"city":"South Sioux City","state_name":"Nebraska","lat":42.4601,"lng":-96.44424,"zip":"68776","miles_from_dt":21.38},{"city":"Wakefield","state_name":"Nebraska","lat":42.25763,"lng":-96.88657,"zip":"68784","miles_from_dt":21.81},{"city":"Hornick","state_name":"Iowa","lat":42.24857,"lng":-96.07592,"zip":"51026","miles_from_dt":22.08},{"city":"Oakland","state_name":"Nebraska","lat":41.8273,"lng":-96.49523,"zip":"68045","miles_from_dt":22.41},{"city":"Waterbury","state_name":"Nebraska","lat":42.42796,"lng":-96.7224,"zip":"68785","miles_from_dt":22.58},{"city":"Onawa","state_name":"Iowa","lat":42.03073,"lng":-96.0706,"zip":"51040","miles_from_dt":22.94},{"city":"Bronson","state_name":"Iowa","lat":42.40225,"lng":-96.18857,"zip":"51007","miles_from_dt":23.04},{"city":"Beemer","state_name":"Nebraska","lat":41.9314,"lng":-96.82337,"zip":"68716","miles_from_dt":23.08},{"city":"Sioux City","state_name":"Iowa","lat":42.46292,"lng":-96.32,"zip":"51106","miles_from_dt":23.09},{"city":"Jackson","state_name":"Nebraska","lat":42.47271,"lng":-96.62586,"zip":"68743","miles_from_dt":23.27},{"city":"Sioux City","state_name":"Iowa","lat":42.49413,"lng":-96.39361,"zip":"51101","miles_from_dt":24.09},{"city":"Climbing Hill","state_name":"Iowa","lat":42.33936,"lng":-96.08107,"zip":"51015","miles_from_dt":24.47},{"city":"West Point","state_name":"Nebraska","lat":41.8387,"lng":-96.72571,"zip":"68788","miles_from_dt":24.89},{"city":"Sioux City","state_name":"Iowa","lat":42.50808,"lng":-96.3671,"zip":"51105","miles_from_dt":25.33},{"city":"Wisner","state_name":"Nebraska","lat":41.99103,"lng":-96.93245,"zip":"68791","miles_from_dt":25.5},{"city":"Sioux City","state_name":"Iowa","lat":42.52173,"lng":-96.44642,"zip":"51103","miles_from_dt":25.61},{"city":"North Sioux City","state_name":"South Dakota","lat":42.52486,"lng":-96.50732,"zip":"57049","miles_from_dt":25.77},{"city":"Craig","state_name":"Nebraska","lat":41.77965,"lng":-96.37323,"zip":"68019","miles_from_dt":26.34},{"city":"Rodney","state_name":"Iowa","lat":42.20443,"lng":-95.96988,"zip":"51051","miles_from_dt":26.74},{"city":"Sioux City","state_name":"Iowa","lat":42.53518,"lng":-96.40389,"zip":"51104","miles_from_dt":26.79},{"city":"Blencoe","state_name":"Iowa","lat":41.9122,"lng":-96.07172,"zip":"51523","miles_from_dt":26.98},{"city":"Allen","state_name":"Nebraska","lat":42.439,"lng":-96.84784,"zip":"68710","miles_from_dt":27.14},{"city":"Smithland","state_name":"Iowa","lat":42.23443,"lng":-95.95391,"zip":"51056","miles_from_dt":27.9},{"city":"Concord","state_name":"Nebraska","lat":42.38085,"lng":-96.93641,"zip":"68728","miles_from_dt":27.98},{"city":"Tekamah","state_name":"Nebraska","lat":41.80078,"lng":-96.21165,"zip":"68061","miles_from_dt":28.05},{"city":"Lawton","state_name":"Iowa","lat":42.49791,"lng":-96.19365,"zip":"51030","miles_from_dt":28.19},{"city":"Wayne","state_name":"Nebraska","lat":42.21372,"lng":-97.03351,"zip":"68787","miles_from_dt":28.43},{"city":"Castana","state_name":"Iowa","lat":42.09309,"lng":-95.92044,"zip":"51010","miles_from_dt":29.34},{"city":"Sioux City","state_name":"Iowa","lat":42.56625,"lng":-96.34858,"zip":"51108","miles_from_dt":29.45},{"city":"Uehling","state_name":"Nebraska","lat":41.72124,"lng":-96.49345,"zip":"68063","miles_from_dt":29.73},{"city":"Jefferson","state_name":"South Dakota","lat":42.57924,"lng":-96.57957,"zip":"57038","miles_from_dt":29.88}],"targetCityZipCode":"68067","targetCityState":"Nebraska"},"__N_SSG":true}