{"pageProps":{"stateName":"Nebraska","cityName":"wood-river","nearbyCities":[{"city":"Alda","state_name":"Nebraska","lat":40.86238,"lng":-98.4675,"zip":"68810","miles_from_dt":6.9},{"city":"Shelton","state_name":"Nebraska","lat":40.82492,"lng":-98.74663,"zip":"68876","miles_from_dt":8.45},{"city":"Doniphan","state_name":"Nebraska","lat":40.76963,"lng":-98.36608,"zip":"68832","miles_from_dt":11.99},{"city":"Grand Island","state_name":"Nebraska","lat":40.95357,"lng":-98.41593,"zip":"68803","miles_from_dt":12.89},{"city":"Cairo","state_name":"Nebraska","lat":41.00535,"lng":-98.61402,"zip":"68824","miles_from_dt":13},{"city":"Grand Island","state_name":"Nebraska","lat":40.9104,"lng":-98.35067,"zip":"68802","miles_from_dt":13.85},{"city":"Kenesaw","state_name":"Nebraska","lat":40.63088,"lng":-98.6891,"zip":"68956","miles_from_dt":14.02},{"city":"Juniata","state_name":"Nebraska","lat":40.59288,"lng":-98.53966,"zip":"68955","miles_from_dt":15.74},{"city":"Gibbon","state_name":"Nebraska","lat":40.75728,"lng":-98.88027,"zip":"68840","miles_from_dt":16.02},{"city":"Grand Island","state_name":"Nebraska","lat":40.94949,"lng":-98.29295,"zip":"68801","miles_from_dt":17.8},{"city":"Hastings","state_name":"Nebraska","lat":40.58543,"lng":-98.38512,"zip":"68902","miles_from_dt":19.21},{"city":"Hastings","state_name":"Nebraska","lat":40.59092,"lng":-98.36599,"zip":"68901","miles_from_dt":19.47},{"city":"Trumbull","state_name":"Nebraska","lat":40.68213,"lng":-98.25814,"zip":"68980","miles_from_dt":19.58},{"city":"Ravenna","state_name":"Nebraska","lat":40.99944,"lng":-98.88325,"zip":"68869","miles_from_dt":19.98},{"city":"Dannebrog","state_name":"Nebraska","lat":41.10937,"lng":-98.54661,"zip":"68831","miles_from_dt":20.19},{"city":"Heartwell","state_name":"Nebraska","lat":40.56098,"lng":-98.77327,"zip":"68945","miles_from_dt":20.3},{"city":"Boelus","state_name":"Nebraska","lat":41.1066,"lng":-98.70056,"zip":"68820","miles_from_dt":20.79},{"city":"Phillips","state_name":"Nebraska","lat":40.89337,"lng":-98.187,"zip":"68865","miles_from_dt":21.52},{"city":"Giltner","state_name":"Nebraska","lat":40.76316,"lng":-98.16677,"zip":"68841","miles_from_dt":22.29},{"city":"Saint Libory","state_name":"Nebraska","lat":41.09286,"lng":-98.33216,"zip":"68872","miles_from_dt":23.13},{"city":"Inland","state_name":"Nebraska","lat":40.61215,"lng":-98.23512,"zip":"68954","miles_from_dt":23.25},{"city":"Kearney","state_name":"Nebraska","lat":40.73465,"lng":-99.02272,"zip":"68847","miles_from_dt":23.64},{"city":"Holstein","state_name":"Nebraska","lat":40.45586,"lng":-98.66413,"zip":"68950","miles_from_dt":25.34},{"city":"Roseland","state_name":"Nebraska","lat":40.45014,"lng":-98.55962,"zip":"68973","miles_from_dt":25.44},{"city":"Rockville","state_name":"Nebraska","lat":41.14039,"lng":-98.84788,"zip":"68871","miles_from_dt":26.12},{"city":"Chapman","state_name":"Nebraska","lat":41.04247,"lng":-98.1811,"zip":"68827","miles_from_dt":26.22},{"city":"Kearney","state_name":"Nebraska","lat":40.69941,"lng":-99.08167,"zip":"68848","miles_from_dt":27.29},{"city":"Farwell","state_name":"Nebraska","lat":41.2156,"lng":-98.66755,"zip":"68838","miles_from_dt":27.75},{"city":"Kearney","state_name":"Nebraska","lat":40.70148,"lng":-99.10082,"zip":"68849","miles_from_dt":28.21},{"city":"Ayr","state_name":"Nebraska","lat":40.42366,"lng":-98.43821,"zip":"68925","miles_from_dt":28.31},{"city":"Minden","state_name":"Nebraska","lat":40.49009,"lng":-98.91487,"zip":"68959","miles_from_dt":28.5},{"city":"Harvard","state_name":"Nebraska","lat":40.63741,"lng":-98.0949,"zip":"68944","miles_from_dt":28.62},{"city":"Glenvil","state_name":"Nebraska","lat":40.46882,"lng":-98.26792,"zip":"68941","miles_from_dt":29.33},{"city":"Hazard","state_name":"Nebraska","lat":41.05659,"lng":-99.05938,"zip":"68844","miles_from_dt":29.75},{"city":"Pleasanton","state_name":"Nebraska","lat":40.96873,"lng":-99.12297,"zip":"68866","miles_from_dt":29.99}],"targetCityZipCode":"68883","targetCityState":"Nebraska"},"__N_SSG":true}