{"pageProps":{"stateName":"Mississippi","cityName":"prentiss","nearbyCities":[{"city":"Carson","state_name":"Mississippi","lat":31.48693,"lng":-89.82701,"zip":"39427","miles_from_dt":9.13},{"city":"Silver Creek","state_name":"Mississippi","lat":31.58615,"lng":-90.02955,"zip":"39663","miles_from_dt":10.54},{"city":"Oak Vale","state_name":"Mississippi","lat":31.45055,"lng":-89.92843,"zip":"39656","miles_from_dt":12.29},{"city":"Bassfield","state_name":"Mississippi","lat":31.48411,"lng":-89.71179,"zip":"39421","miles_from_dt":12.46},{"city":"Newhebron","state_name":"Mississippi","lat":31.75211,"lng":-90.00512,"zip":"39140","miles_from_dt":12.84},{"city":"Mount Olive","state_name":"Mississippi","lat":31.75236,"lng":-89.67509,"zip":"39119","miles_from_dt":14.08},{"city":"Collins","state_name":"Mississippi","lat":31.65017,"lng":-89.57215,"zip":"39428","miles_from_dt":16.8},{"city":"Pinola","state_name":"Mississippi","lat":31.83354,"lng":-90.00985,"zip":"39149","miles_from_dt":17.48},{"city":"Monticello","state_name":"Mississippi","lat":31.53716,"lng":-90.13831,"zip":"39654","miles_from_dt":17.62},{"city":"Magee","state_name":"Mississippi","lat":31.89536,"lng":-89.71816,"zip":"39111","miles_from_dt":20.77},{"city":"Sontag","state_name":"Mississippi","lat":31.64125,"lng":-90.21404,"zip":"39665","miles_from_dt":21.25},{"city":"Mendenhall","state_name":"Mississippi","lat":31.95331,"lng":-89.83257,"zip":"39114","miles_from_dt":23.18},{"city":"Sumrall","state_name":"Mississippi","lat":31.37271,"lng":-89.57966,"zip":"39482","miles_from_dt":23.4},{"city":"Seminary","state_name":"Mississippi","lat":31.53775,"lng":-89.46065,"zip":"39479","miles_from_dt":23.87},{"city":"D Lo","state_name":"Mississippi","lat":31.98479,"lng":-89.89815,"zip":"39062","miles_from_dt":25.44},{"city":"Columbia","state_name":"Mississippi","lat":31.25052,"lng":-89.76337,"zip":"39429","miles_from_dt":25.84},{"city":"Jayess","state_name":"Mississippi","lat":31.35717,"lng":-90.17042,"zip":"39641","miles_from_dt":25.87},{"city":"Mize","state_name":"Mississippi","lat":31.89165,"lng":-89.54925,"zip":"39116","miles_from_dt":26.08},{"city":"Foxworth","state_name":"Mississippi","lat":31.23515,"lng":-89.92674,"zip":"39483","miles_from_dt":26.68},{"city":"Georgetown","state_name":"Mississippi","lat":31.87901,"lng":-90.19596,"zip":"39078","miles_from_dt":27},{"city":"Kokomo","state_name":"Mississippi","lat":31.24575,"lng":-90.01368,"zip":"39643","miles_from_dt":27.27},{"city":"Harrisville","state_name":"Mississippi","lat":31.94663,"lng":-90.12369,"zip":"39082","miles_from_dt":27.67},{"city":"Braxton","state_name":"Mississippi","lat":32.02869,"lng":-89.97161,"zip":"39044","miles_from_dt":29.16}],"targetCityZipCode":"39474","targetCityState":"Mississippi"},"__N_SSG":true}