{"pageProps":{"stateName":"South-dakota","cityName":"frankfort","nearbyCities":[{"city":"Doland","state_name":"South Dakota","lat":44.84864,"lng":-98.09131,"zip":"57436","miles_from_dt":8.27},{"city":"Turton","state_name":"South Dakota","lat":45.03363,"lng":-98.15024,"zip":"57477","miles_from_dt":13.75},{"city":"Redfield","state_name":"South Dakota","lat":44.85858,"lng":-98.57535,"zip":"57469","miles_from_dt":15.52},{"city":"Raymond","state_name":"South Dakota","lat":44.88434,"lng":-97.9246,"zip":"57258","miles_from_dt":16.62},{"city":"Hitchcock","state_name":"South Dakota","lat":44.62147,"lng":-98.36483,"zip":"57348","miles_from_dt":16.62},{"city":"Ashton","state_name":"South Dakota","lat":45.02012,"lng":-98.53101,"zip":"57424","miles_from_dt":17.75},{"city":"Tulare","state_name":"South Dakota","lat":44.71277,"lng":-98.62127,"zip":"57476","miles_from_dt":20.16},{"city":"Carpenter","state_name":"South Dakota","lat":44.63498,"lng":-97.96129,"zip":"57322","miles_from_dt":20.89},{"city":"Brentford","state_name":"South Dakota","lat":45.16116,"lng":-98.3005,"zip":"57429","miles_from_dt":21.57},{"city":"Mellette","state_name":"South Dakota","lat":45.16085,"lng":-98.43327,"zip":"57461","miles_from_dt":23.08},{"city":"Conde","state_name":"South Dakota","lat":45.16669,"lng":-98.07049,"zip":"57434","miles_from_dt":23.74},{"city":"Clark","state_name":"South Dakota","lat":44.88359,"lng":-97.72676,"zip":"57225","miles_from_dt":26.27},{"city":"Yale","state_name":"South Dakota","lat":44.50908,"lng":-97.99845,"zip":"57386","miles_from_dt":26.84},{"city":"Northville","state_name":"South Dakota","lat":45.14443,"lng":-98.68573,"zip":"57465","miles_from_dt":29.13},{"city":"Rockham","state_name":"South Dakota","lat":44.87726,"lng":-98.86709,"zip":"57470","miles_from_dt":29.89}],"targetCityZipCode":"57440","targetCityState":"South Dakota"},"__N_SSG":true}