{"pageProps":{"stateName":"South-dakota","cityName":"harrold","nearbyCities":[{"city":"Holabird","state_name":"South Dakota","lat":44.46477,"lng":-99.60377,"zip":"57540","miles_from_dt":8.77},{"city":"Blunt","state_name":"South Dakota","lat":44.51014,"lng":-99.96352,"zip":"57522","miles_from_dt":11.73},{"city":"Highmore","state_name":"South Dakota","lat":44.5687,"lng":-99.45009,"zip":"57345","miles_from_dt":18.92},{"city":"Stephan","state_name":"South Dakota","lat":44.24818,"lng":-99.45756,"zip":"57346","miles_from_dt":19.18},{"city":"Lower Brule","state_name":"South Dakota","lat":44.08429,"lng":-99.62373,"zip":"57548","miles_from_dt":23.92},{"city":"Onida","state_name":"South Dakota","lat":44.72401,"lng":-100.0121,"zip":"57564","miles_from_dt":24.53},{"city":"Fort Thompson","state_name":"South Dakota","lat":44.11233,"lng":-99.47862,"zip":"57339","miles_from_dt":25.33},{"city":"Ree Heights","state_name":"South Dakota","lat":44.43146,"lng":-99.23104,"zip":"57371","miles_from_dt":26.54},{"city":"Pierre","state_name":"South Dakota","lat":44.53525,"lng":-100.31906,"zip":"57501","miles_from_dt":28.53}],"targetCityZipCode":"57536","targetCityState":"South Dakota"},"__N_SSG":true}