{"pageProps":{"stateName":"South-dakota","cityName":"nemo","nearbyCities":[{"city":"Deadwood","state_name":"South Dakota","lat":44.23782,"lng":-103.64335,"zip":"57732","miles_from_dt":4.61},{"city":"Rapid City","state_name":"South Dakota","lat":44.2321,"lng":-103.38932,"zip":"57709","miles_from_dt":8.2},{"city":"Black Hawk","state_name":"South Dakota","lat":44.17925,"lng":-103.36801,"zip":"57718","miles_from_dt":9.65},{"city":"Piedmont","state_name":"South Dakota","lat":44.24326,"lng":-103.29704,"zip":"57769","miles_from_dt":12.84},{"city":"Fort Meade","state_name":"South Dakota","lat":44.41044,"lng":-103.47273,"zip":"57741","miles_from_dt":13.74},{"city":"Rapid City","state_name":"South Dakota","lat":44.03085,"lng":-103.38433,"zip":"57702","miles_from_dt":15.55},{"city":"Lead","state_name":"South Dakota","lat":44.26193,"lng":-103.87478,"zip":"57754","miles_from_dt":16.19},{"city":"Hill City","state_name":"South Dakota","lat":44.01304,"lng":-103.78616,"zip":"57745","miles_from_dt":18.39},{"city":"Rapid City","state_name":"South Dakota","lat":44.1209,"lng":-103.20562,"zip":"57701","miles_from_dt":18.61},{"city":"Whitewood","state_name":"South Dakota","lat":44.51824,"lng":-103.581,"zip":"57793","miles_from_dt":20.62},{"city":"Sturgis","state_name":"South Dakota","lat":44.41905,"lng":-103.21534,"zip":"57785","miles_from_dt":21.68},{"city":"Ellsworth Afb","state_name":"South Dakota","lat":44.1564,"lng":-103.09561,"zip":"57706","miles_from_dt":23.18},{"city":"Spearfish","state_name":"South Dakota","lat":44.49817,"lng":-103.87256,"zip":"57799","miles_from_dt":24.86},{"city":"Spearfish","state_name":"South Dakota","lat":44.47106,"lng":-103.9219,"zip":"57783","miles_from_dt":25.16},{"city":"Keystone","state_name":"South Dakota","lat":43.86767,"lng":-103.42346,"zip":"57751","miles_from_dt":25.19},{"city":"Saint Onge","state_name":"South Dakota","lat":44.56449,"lng":-103.75969,"zip":"57779","miles_from_dt":25.87},{"city":"Box Elder","state_name":"South Dakota","lat":44.23059,"lng":-102.98312,"zip":"57719","miles_from_dt":28.34},{"city":"Four Corners","state_name":"Wyoming","lat":44.1238,"lng":-104.1184,"zip":"82715","miles_from_dt":28.84},{"city":"Rapid City","state_name":"South Dakota","lat":44.00331,"lng":-103.04528,"zip":"57703","miles_from_dt":29.39}],"targetCityZipCode":"57759","targetCityState":"South Dakota"},"__N_SSG":true}