{"pageProps":{"stateName":"South-carolina","cityName":"bluffton","nearbyCities":[{"city":"Daufuskie Island","state_name":"South Carolina","lat":32.11464,"lng":-80.86892,"zip":"29915","miles_from_dt":7.33},{"city":"Hilton Head Island","state_name":"South Carolina","lat":32.22936,"lng":-80.74931,"zip":"29926","miles_from_dt":7.84},{"city":"Hilton Head Island","state_name":"South Carolina","lat":32.16214,"lng":-80.76274,"zip":"29928","miles_from_dt":8.1},{"city":"Okatie","state_name":"South Carolina","lat":32.34042,"lng":-80.85465,"zip":"29909","miles_from_dt":8.43},{"city":"Hilton Head Island","state_name":"South Carolina","lat":32.16477,"lng":-80.75441,"zip":"29925","miles_from_dt":8.44},{"city":"Hilton Head Island","state_name":"South Carolina","lat":32.16153,"lng":-80.75212,"zip":"29938","miles_from_dt":8.66},{"city":"Hardeeville","state_name":"South Carolina","lat":32.24343,"lng":-81.04971,"zip":"29927","miles_from_dt":9.91},{"city":"Parris Island","state_name":"South Carolina","lat":32.35383,"lng":-80.69537,"zip":"29905","miles_from_dt":14.31},{"city":"Tybee Island","state_name":"Georgia","lat":32.01046,"lng":-80.89009,"zip":"31328","miles_from_dt":14.47},{"city":"Savannah","state_name":"Georgia","lat":32.08712,"lng":-81.08016,"zip":"31421","miles_from_dt":14.77},{"city":"Beaufort","state_name":"South Carolina","lat":32.37426,"lng":-80.69438,"zip":"29902","miles_from_dt":15.3},{"city":"Savannah","state_name":"Georgia","lat":32.04945,"lng":-81.05039,"zip":"31414","miles_from_dt":15.34},{"city":"Savannah","state_name":"Georgia","lat":32.01821,"lng":-80.99215,"zip":"31410","miles_from_dt":15.34},{"city":"Savannah","state_name":"Georgia","lat":32.05064,"lng":-81.05367,"zip":"31404","miles_from_dt":15.4},{"city":"Port Royal","state_name":"South Carolina","lat":32.38277,"lng":-80.6963,"zip":"29935","miles_from_dt":15.63},{"city":"Savannah","state_name":"Georgia","lat":32.07654,"lng":-81.09172,"zip":"31412","miles_from_dt":15.76},{"city":"Savannah","state_name":"Georgia","lat":32.06831,"lng":-81.09252,"zip":"31401","miles_from_dt":16.16},{"city":"Beaufort","state_name":"South Carolina","lat":32.42463,"lng":-80.72515,"zip":"29903","miles_from_dt":16.83},{"city":"Savannah","state_name":"Georgia","lat":32.0802,"lng":-81.126,"zip":"31415","miles_from_dt":17.22},{"city":"Beaufort","state_name":"South Carolina","lat":32.44521,"lng":-80.75159,"zip":"29906","miles_from_dt":17.29},{"city":"Savannah","state_name":"Georgia","lat":32.04378,"lng":-81.11192,"zip":"31403","miles_from_dt":18.13},{"city":"Port Wentworth","state_name":"Georgia","lat":32.18232,"lng":-81.19942,"zip":"31407","miles_from_dt":18.74},{"city":"Ridgeland","state_name":"South Carolina","lat":32.48475,"lng":-80.96766,"zip":"29936","miles_from_dt":18.88},{"city":"Savannah","state_name":"Georgia","lat":32.15064,"lng":-81.19456,"zip":"31418","miles_from_dt":18.89},{"city":"Beaufort","state_name":"South Carolina","lat":32.41754,"lng":-80.6575,"zip":"29901","miles_from_dt":18.93},{"city":"Savannah","state_name":"Georgia","lat":32.11164,"lng":-81.18158,"zip":"31408","miles_from_dt":19.05},{"city":"Savannah","state_name":"Georgia","lat":32.0044,"lng":-81.09504,"zip":"31416","miles_from_dt":19.4},{"city":"Beaufort","state_name":"South Carolina","lat":32.47899,"lng":-80.72198,"zip":"29904","miles_from_dt":20.15},{"city":"Savannah","state_name":"Georgia","lat":31.97783,"lng":-81.08517,"zip":"31406","miles_from_dt":20.5},{"city":"Rincon","state_name":"Georgia","lat":32.29653,"lng":-81.22824,"zip":"31326","miles_from_dt":20.9},{"city":"Savannah","state_name":"Georgia","lat":32.0392,"lng":-81.17352,"zip":"31405","miles_from_dt":21.13},{"city":"Savannah","state_name":"Georgia","lat":31.94002,"lng":-81.03511,"zip":"31411","miles_from_dt":21.29},{"city":"Savannah","state_name":"Georgia","lat":32.0106,"lng":-81.15539,"zip":"31409","miles_from_dt":21.55},{"city":"Saint Helena Island","state_name":"South Carolina","lat":32.36441,"lng":-80.54946,"zip":"29920","miles_from_dt":21.89},{"city":"Sheldon","state_name":"South Carolina","lat":32.54357,"lng":-80.81509,"zip":"29941","miles_from_dt":22.62},{"city":"Beaufort","state_name":"South Carolina","lat":32.45326,"lng":-80.60926,"zip":"29907","miles_from_dt":22.66},{"city":"Savannah","state_name":"Georgia","lat":31.97938,"lng":-81.14582,"zip":"31420","miles_from_dt":22.67},{"city":"Pooler","state_name":"Georgia","lat":32.10265,"lng":-81.25626,"zip":"31322","miles_from_dt":23.35},{"city":"Tillman","state_name":"South Carolina","lat":32.4821,"lng":-81.14952,"zip":"29943","miles_from_dt":23.85},{"city":"Lobeco","state_name":"South Carolina","lat":32.55392,"lng":-80.74539,"zip":"29931","miles_from_dt":24.34},{"city":"Coosawhatchie","state_name":"South Carolina","lat":32.58262,"lng":-80.93102,"zip":"29912","miles_from_dt":25.12},{"city":"Dale","state_name":"South Carolina","lat":32.55448,"lng":-80.6925,"zip":"29914","miles_from_dt":25.57},{"city":"Seabrook","state_name":"South Carolina","lat":32.5524,"lng":-80.67511,"zip":"29940","miles_from_dt":25.9},{"city":"Savannah","state_name":"Georgia","lat":31.98479,"lng":-81.23867,"zip":"31419","miles_from_dt":26.44},{"city":"Bloomingdale","state_name":"Georgia","lat":32.12567,"lng":-81.34134,"zip":"31302","miles_from_dt":27.66},{"city":"Savannah","state_name":"Georgia","lat":32.0954,"lng":-81.3345,"zip":"31402","miles_from_dt":27.84},{"city":"Pineland","state_name":"South Carolina","lat":32.59651,"lng":-81.11245,"zip":"29934","miles_from_dt":29.19},{"city":"Meldrim","state_name":"Georgia","lat":32.13575,"lng":-81.37566,"zip":"31318","miles_from_dt":29.47}],"targetCityZipCode":"29910","targetCityState":"South Carolina"},"__N_SSG":true}