{"pageProps":{"stateName":"South-carolina","cityName":"bradley","nearbyCities":[{"city":"Troy","state_name":"South Carolina","lat":33.99616,"lng":-82.18304,"zip":"29848","miles_from_dt":4.33},{"city":"Greenwood","state_name":"South Carolina","lat":34.13995,"lng":-82.15032,"zip":"29646","miles_from_dt":7.71},{"city":"McCormick","state_name":"South Carolina","lat":33.92801,"lng":-82.25064,"zip":"29899","miles_from_dt":8.36},{"city":"McCormick","state_name":"South Carolina","lat":33.91779,"lng":-82.29559,"zip":"29835","miles_from_dt":9.79},{"city":"Greenwood","state_name":"South Carolina","lat":34.18915,"lng":-82.15613,"zip":"29648","miles_from_dt":10.55},{"city":"Greenwood","state_name":"South Carolina","lat":34.18975,"lng":-82.15384,"zip":"29647","miles_from_dt":10.64},{"city":"Greenwood","state_name":"South Carolina","lat":34.24354,"lng":-82.13825,"zip":"29649","miles_from_dt":14.41},{"city":"Ninety Six","state_name":"South Carolina","lat":34.12345,"lng":-81.99121,"zip":"29666","miles_from_dt":14.46},{"city":"Abbeville","state_name":"South Carolina","lat":34.1813,"lng":-82.42804,"zip":"29620","miles_from_dt":14.79},{"city":"Plum Branch","state_name":"South Carolina","lat":33.8231,"lng":-82.20788,"zip":"29845","miles_from_dt":15.51},{"city":"Hodges","state_name":"South Carolina","lat":34.28745,"lng":-82.24521,"zip":"29695","miles_from_dt":16.56},{"city":"Hodges","state_name":"South Carolina","lat":34.30028,"lng":-82.23173,"zip":"29653","miles_from_dt":17.42},{"city":"Mount Carmel","state_name":"South Carolina","lat":33.99797,"lng":-82.52749,"zip":"29840","miles_from_dt":17.62},{"city":"Parksville","state_name":"South Carolina","lat":33.78528,"lng":-82.2142,"zip":"29844","miles_from_dt":18.1},{"city":"Calhoun Falls","state_name":"South Carolina","lat":34.09253,"lng":-82.55821,"zip":"29628","miles_from_dt":19.29},{"city":"Edgefield","state_name":"South Carolina","lat":33.81647,"lng":-81.99666,"zip":"29824","miles_from_dt":20.69},{"city":"Due West","state_name":"South Carolina","lat":34.31402,"lng":-82.4205,"zip":"29639","miles_from_dt":21.47},{"city":"Waterloo","state_name":"South Carolina","lat":34.33976,"lng":-82.0904,"zip":"29384","miles_from_dt":21.59},{"city":"Cross Hill","state_name":"South Carolina","lat":34.28329,"lng":-81.97292,"zip":"29332","miles_from_dt":21.79},{"city":"Modoc","state_name":"South Carolina","lat":33.73452,"lng":-82.1667,"zip":"29838","miles_from_dt":21.85},{"city":"Lincolnton","state_name":"Georgia","lat":33.7746,"lng":-82.43469,"zip":"30817","miles_from_dt":22.31},{"city":"Donalds","state_name":"South Carolina","lat":34.36087,"lng":-82.3346,"zip":"29638","miles_from_dt":22.46},{"city":"Chappells","state_name":"South Carolina","lat":34.18961,"lng":-81.86868,"zip":"29037","miles_from_dt":22.72},{"city":"Ware Shoals","state_name":"South Carolina","lat":34.42142,"lng":-82.22208,"zip":"29692","miles_from_dt":25.76},{"city":"Saluda","state_name":"South Carolina","lat":34.04491,"lng":-81.77152,"zip":"29138","miles_from_dt":26.09},{"city":"Lowndesville","state_name":"South Carolina","lat":34.21167,"lng":-82.64535,"zip":"29659","miles_from_dt":26.55},{"city":"Mountville","state_name":"South Carolina","lat":34.37315,"lng":-81.96816,"zip":"29370","miles_from_dt":26.87},{"city":"Johnston","state_name":"South Carolina","lat":33.83922,"lng":-81.80656,"zip":"29832","miles_from_dt":28.07},{"city":"Iva","state_name":"South Carolina","lat":34.267,"lng":-82.64032,"zip":"29655","miles_from_dt":28.13},{"city":"Silverstreet","state_name":"South Carolina","lat":34.21905,"lng":-81.77453,"zip":"29145","miles_from_dt":28.46},{"city":"Tignall","state_name":"Georgia","lat":33.90835,"lng":-82.69486,"zip":"30668","miles_from_dt":28.57},{"city":"Clarks Hill","state_name":"South Carolina","lat":33.64242,"lng":-82.11667,"zip":"29821","miles_from_dt":28.63},{"city":"Honea Path","state_name":"South Carolina","lat":34.46621,"lng":-82.36354,"zip":"29654","miles_from_dt":29.9}],"targetCityZipCode":"29819","targetCityState":"South Carolina"},"__N_SSG":true}