{"pageProps":{"stateName":"South-carolina","cityName":"grover","nearbyCities":[{"city":"Canadys","state_name":"South Carolina","lat":33.05468,"lng":-80.62073,"zip":"29433","miles_from_dt":3.99},{"city":"Saint George","state_name":"South Carolina","lat":33.16626,"lng":-80.57176,"zip":"29477","miles_from_dt":4.22},{"city":"Reevesville","state_name":"South Carolina","lat":33.18714,"lng":-80.66955,"zip":"29471","miles_from_dt":7.05},{"city":"Dorchester","state_name":"South Carolina","lat":33.13673,"lng":-80.42319,"zip":"29437","miles_from_dt":10.04},{"city":"Smoaks","state_name":"South Carolina","lat":33.11382,"lng":-80.80301,"zip":"29481","miles_from_dt":12.19},{"city":"Harleyville","state_name":"South Carolina","lat":33.24062,"lng":-80.44639,"zip":"29448","miles_from_dt":12.49},{"city":"Cottageville","state_name":"South Carolina","lat":32.9526,"lng":-80.4672,"zip":"29435","miles_from_dt":12.94},{"city":"Round O","state_name":"South Carolina","lat":32.90833,"lng":-80.52448,"zip":"29474","miles_from_dt":14.3},{"city":"Walterboro","state_name":"South Carolina","lat":32.90664,"lng":-80.67458,"zip":"29488","miles_from_dt":14.65},{"city":"Williams","state_name":"South Carolina","lat":33.04536,"lng":-80.84276,"zip":"29493","miles_from_dt":15.12},{"city":"Branchville","state_name":"South Carolina","lat":33.2294,"lng":-80.81428,"zip":"29432","miles_from_dt":15.33},{"city":"Ridgeville","state_name":"South Carolina","lat":33.05379,"lng":-80.31928,"zip":"29472","miles_from_dt":16.3},{"city":"Ruffin","state_name":"South Carolina","lat":32.96687,"lng":-80.8189,"zip":"29475","miles_from_dt":16.32},{"city":"Bowman","state_name":"South Carolina","lat":33.34619,"lng":-80.64373,"zip":"29018","miles_from_dt":16.7},{"city":"Holly Hill","state_name":"South Carolina","lat":33.32853,"lng":-80.41891,"zip":"29059","miles_from_dt":18.25},{"city":"Lodge","state_name":"South Carolina","lat":33.04012,"lng":-80.93868,"zip":"29082","miles_from_dt":20.59},{"city":"Rowesville","state_name":"South Carolina","lat":33.35726,"lng":-80.80698,"zip":"29133","miles_from_dt":21.2},{"city":"Summerville","state_name":"South Carolina","lat":33.03126,"lng":-80.23205,"zip":"29483","miles_from_dt":21.59},{"city":"Vance","state_name":"South Carolina","lat":33.42019,"lng":-80.43918,"zip":"29163","miles_from_dt":23.3},{"city":"Summerville","state_name":"South Carolina","lat":33.01644,"lng":-80.20376,"zip":"29484","miles_from_dt":23.44},{"city":"Islandton","state_name":"South Carolina","lat":32.93805,"lng":-80.9434,"zip":"29929","miles_from_dt":23.47},{"city":"Santee","state_name":"South Carolina","lat":33.46491,"lng":-80.52329,"zip":"29142","miles_from_dt":24.94},{"city":"Adams Run","state_name":"South Carolina","lat":32.79275,"lng":-80.37023,"zip":"29426","miles_from_dt":25.27},{"city":"Summerville","state_name":"South Carolina","lat":32.94398,"lng":-80.19362,"zip":"29485","miles_from_dt":25.78},{"city":"Summerville","state_name":"South Carolina","lat":33.10744,"lng":-80.1458,"zip":"29486","miles_from_dt":25.93},{"city":"Eutawville","state_name":"South Carolina","lat":33.39057,"lng":-80.29702,"zip":"29048","miles_from_dt":25.95},{"city":"Ehrhardt","state_name":"South Carolina","lat":33.09161,"lng":-81.0426,"zip":"29081","miles_from_dt":26.11},{"city":"Bamberg","state_name":"South Carolina","lat":33.24135,"lng":-81.01838,"zip":"29003","miles_from_dt":26.32},{"city":"Cross","state_name":"South Carolina","lat":33.31658,"lng":-80.18457,"zip":"29436","miles_from_dt":27.69},{"city":"Miley","state_name":"South Carolina","lat":32.94857,"lng":-81.03106,"zip":"29933","miles_from_dt":27.7},{"city":"Cordova","state_name":"South Carolina","lat":33.41855,"lng":-80.90556,"zip":"29039","miles_from_dt":28.05},{"city":"Pinopolis","state_name":"South Carolina","lat":33.24366,"lng":-80.13106,"zip":"29469","miles_from_dt":28.36},{"city":"Ravenel","state_name":"South Carolina","lat":32.81904,"lng":-80.23855,"zip":"29470","miles_from_dt":28.63},{"city":"Orangeburg","state_name":"South Carolina","lat":33.48145,"lng":-80.81091,"zip":"29116","miles_from_dt":28.68},{"city":"Jacksonboro","state_name":"South Carolina","lat":32.6997,"lng":-80.46998,"zip":"29452","miles_from_dt":29.01},{"city":"Cope","state_name":"South Carolina","lat":33.37494,"lng":-80.98095,"zip":"29038","miles_from_dt":29.05},{"city":"Ladson","state_name":"South Carolina","lat":32.98433,"lng":-80.11206,"zip":"29456","miles_from_dt":29.18},{"city":"Elloree","state_name":"South Carolina","lat":33.53218,"lng":-80.57956,"zip":"29047","miles_from_dt":29.26},{"city":"Orangeburg","state_name":"South Carolina","lat":33.47673,"lng":-80.84758,"zip":"29115","miles_from_dt":29.39}],"targetCityZipCode":"29447","targetCityState":"South Carolina"},"__N_SSG":true}