{"pageProps":{"stateName":"South-carolina","cityName":"salem","nearbyCities":[{"city":"Tamassee","state_name":"South Carolina","lat":34.92858,"lng":-83.04541,"zip":"29686","miles_from_dt":4.86},{"city":"Sunset","state_name":"South Carolina","lat":34.98297,"lng":-82.84727,"zip":"29685","miles_from_dt":7.26},{"city":"Six Mile","state_name":"South Carolina","lat":34.83295,"lng":-82.84701,"zip":"29682","miles_from_dt":9.44},{"city":"Sapphire","state_name":"North Carolina","lat":35.08976,"lng":-82.99791,"zip":"28774","miles_from_dt":11},{"city":"West Union","state_name":"South Carolina","lat":34.77458,"lng":-83.00771,"zip":"29696","miles_from_dt":11.27},{"city":"Walhalla","state_name":"South Carolina","lat":34.78547,"lng":-83.07669,"zip":"29691","miles_from_dt":12.15},{"city":"Cashiers","state_name":"North Carolina","lat":35.07131,"lng":-83.09458,"zip":"28717","miles_from_dt":12.2},{"city":"Mountain Rest","state_name":"South Carolina","lat":34.86393,"lng":-83.15991,"zip":"29664","miles_from_dt":12.32},{"city":"Seneca","state_name":"South Carolina","lat":34.75036,"lng":-82.94257,"zip":"29672","miles_from_dt":12.65},{"city":"Pickens","state_name":"South Carolina","lat":34.94071,"lng":-82.72057,"zip":"29671","miles_from_dt":13.6},{"city":"Newry","state_name":"South Carolina","lat":34.72399,"lng":-82.91413,"zip":"29665","miles_from_dt":14.66},{"city":"Lake Toxaway","state_name":"North Carolina","lat":35.15185,"lng":-82.9249,"zip":"28747","miles_from_dt":15.2},{"city":"Rosman","state_name":"North Carolina","lat":35.13927,"lng":-82.83709,"zip":"28772","miles_from_dt":15.82},{"city":"Richland","state_name":"South Carolina","lat":34.70479,"lng":-83.02001,"zip":"29675","miles_from_dt":16.11},{"city":"Central","state_name":"South Carolina","lat":34.73882,"lng":-82.79646,"zip":"29630","miles_from_dt":16.31},{"city":"Norris","state_name":"South Carolina","lat":34.76446,"lng":-82.75655,"zip":"29667","miles_from_dt":16.41},{"city":"Clemson","state_name":"South Carolina","lat":34.69888,"lng":-82.89315,"zip":"29633","miles_from_dt":16.6},{"city":"Highlands","state_name":"North Carolina","lat":35.06614,"lng":-83.21053,"zip":"28741","miles_from_dt":16.9},{"city":"Seneca","state_name":"South Carolina","lat":34.68597,"lng":-82.94482,"zip":"29679","miles_from_dt":17.07},{"city":"Glenville","state_name":"North Carolina","lat":35.18039,"lng":-83.0838,"zip":"28736","miles_from_dt":18.42},{"city":"Clemson","state_name":"South Carolina","lat":34.67517,"lng":-82.83978,"zip":"29634","miles_from_dt":19.06},{"city":"Clemson","state_name":"South Carolina","lat":34.68501,"lng":-82.8112,"zip":"29632","miles_from_dt":19.09},{"city":"Clemson","state_name":"South Carolina","lat":34.68133,"lng":-82.81716,"zip":"29631","miles_from_dt":19.17},{"city":"Liberty","state_name":"South Carolina","lat":34.76713,"lng":-82.68941,"zip":"29657","miles_from_dt":19.18},{"city":"Brevard","state_name":"North Carolina","lat":35.17324,"lng":-82.76711,"zip":"28712","miles_from_dt":19.83},{"city":"Seneca","state_name":"South Carolina","lat":34.63365,"lng":-82.93991,"zip":"29678","miles_from_dt":20.68},{"city":"Cleveland","state_name":"South Carolina","lat":35.07754,"lng":-82.63152,"zip":"29635","miles_from_dt":21.12},{"city":"Dillard","state_name":"Georgia","lat":34.97855,"lng":-83.32975,"zip":"30537","miles_from_dt":21.21},{"city":"Scaly Mountain","state_name":"North Carolina","lat":35.01916,"lng":-83.32186,"zip":"28775","miles_from_dt":21.37},{"city":"Easley","state_name":"South Carolina","lat":34.84368,"lng":-82.59507,"zip":"29641","miles_from_dt":21.63},{"city":"Easley","state_name":"South Carolina","lat":34.88706,"lng":-82.57725,"zip":"29640","miles_from_dt":21.97},{"city":"Westminster","state_name":"South Carolina","lat":34.65641,"lng":-83.15284,"zip":"29693","miles_from_dt":22.01},{"city":"Tuckasegee","state_name":"North Carolina","lat":35.24906,"lng":-83.02,"zip":"28783","miles_from_dt":22.03},{"city":"Long Creek","state_name":"South Carolina","lat":34.76191,"lng":-83.29858,"zip":"29658","miles_from_dt":22.57},{"city":"Clayton","state_name":"Georgia","lat":34.91289,"lng":-83.35853,"zip":"30525","miles_from_dt":22.67},{"city":"Mountain City","state_name":"Georgia","lat":34.91937,"lng":-83.38177,"zip":"30562","miles_from_dt":23.96},{"city":"Balsam Grove","state_name":"North Carolina","lat":35.27105,"lng":-82.85979,"zip":"28708","miles_from_dt":23.97},{"city":"Pendleton","state_name":"South Carolina","lat":34.64191,"lng":-82.72455,"zip":"29670","miles_from_dt":24.14},{"city":"Cedar Mountain","state_name":"North Carolina","lat":35.16614,"lng":-82.63108,"zip":"28718","miles_from_dt":24.61},{"city":"La France","state_name":"South Carolina","lat":34.61207,"lng":-82.76134,"zip":"29656","miles_from_dt":24.86},{"city":"Easley","state_name":"South Carolina","lat":34.77487,"lng":-82.56538,"zip":"29642","miles_from_dt":24.94},{"city":"Cullowhee","state_name":"North Carolina","lat":35.27776,"lng":-83.12195,"zip":"28723","miles_from_dt":25.46},{"city":"Marietta","state_name":"South Carolina","lat":35.06706,"lng":-82.53852,"zip":"29661","miles_from_dt":25.63},{"city":"Rabun Gap","state_name":"Georgia","lat":34.95348,"lng":-83.41218,"zip":"30568","miles_from_dt":25.7},{"city":"Sandy Springs","state_name":"South Carolina","lat":34.59519,"lng":-82.73756,"zip":"29677","miles_from_dt":26.52},{"city":"Slater","state_name":"South Carolina","lat":35.03032,"lng":-82.49306,"zip":"29683","miles_from_dt":27.33},{"city":"Greenville","state_name":"South Carolina","lat":34.93178,"lng":-82.47194,"zip":"29610","miles_from_dt":27.71},{"city":"Otto","state_name":"North Carolina","lat":35.03796,"lng":-83.43215,"zip":"28763","miles_from_dt":27.74},{"city":"Townville","state_name":"South Carolina","lat":34.53624,"lng":-82.87658,"zip":"29689","miles_from_dt":27.78},{"city":"Wiley","state_name":"Georgia","lat":34.80195,"lng":-83.42405,"zip":"30581","miles_from_dt":27.87},{"city":"Greenville","state_name":"South Carolina","lat":34.91262,"lng":-82.4666,"zip":"29617","miles_from_dt":28.05},{"city":"Tallulah Falls","state_name":"Georgia","lat":34.74242,"lng":-83.39986,"zip":"30573","miles_from_dt":28.25},{"city":"Anderson","state_name":"South Carolina","lat":34.55577,"lng":-82.76294,"zip":"29625","miles_from_dt":28.34},{"city":"Tiger","state_name":"Georgia","lat":34.82682,"lng":-83.44539,"zip":"30576","miles_from_dt":28.53},{"city":"Penrose","state_name":"North Carolina","lat":35.24945,"lng":-82.61923,"zip":"28766","miles_from_dt":29.12},{"city":"Pisgah Forest","state_name":"North Carolina","lat":35.30437,"lng":-82.70925,"zip":"28768","miles_from_dt":29.26},{"city":"Greenville","state_name":"South Carolina","lat":34.83137,"lng":-82.45965,"zip":"29611","miles_from_dt":29.28},{"city":"Franklin","state_name":"North Carolina","lat":35.18074,"lng":-83.38166,"zip":"28744","miles_from_dt":29.36},{"city":"Fair Play","state_name":"South Carolina","lat":34.50506,"lng":-82.97441,"zip":"29643","miles_from_dt":29.53},{"city":"Greenville","state_name":"South Carolina","lat":34.9257,"lng":-82.4384,"zip":"29613","miles_from_dt":29.62},{"city":"Lakemont","state_name":"Georgia","lat":34.76965,"lng":-83.44575,"zip":"30552","miles_from_dt":29.82}],"targetCityZipCode":"29676","targetCityState":"South Carolina"},"__N_SSG":true}