{"pageProps":{"stateName":"Washington","cityName":"greenbank","nearbyCities":[{"city":"Freeland","state_name":"Washington","lat":48.01888,"lng":-122.53947,"zip":"98249","miles_from_dt":4.48},{"city":"Nordland","state_name":"Washington","lat":48.05796,"lng":-122.70008,"zip":"98358","miles_from_dt":5.94},{"city":"Langley","state_name":"Washington","lat":48.03074,"lng":-122.45106,"zip":"98260","miles_from_dt":6.67},{"city":"Port Hadlock","state_name":"Washington","lat":48.02991,"lng":-122.74364,"zip":"98339","miles_from_dt":8.49},{"city":"Coupeville","state_name":"Washington","lat":48.18926,"lng":-122.65756,"zip":"98239","miles_from_dt":8.51},{"city":"Camano Island","state_name":"Washington","lat":48.18719,"lng":-122.46966,"zip":"98282","miles_from_dt":8.94},{"city":"Clinton","state_name":"Washington","lat":47.95804,"lng":-122.40468,"zip":"98236","miles_from_dt":11.52},{"city":"Hansville","state_name":"Washington","lat":47.90622,"lng":-122.56406,"zip":"98340","miles_from_dt":11.95},{"city":"Chimacum","state_name":"Washington","lat":47.96093,"lng":-122.77911,"zip":"98325","miles_from_dt":12.47},{"city":"Everett","state_name":"Washington","lat":48.01447,"lng":-122.32201,"zip":"98206","miles_from_dt":12.57},{"city":"Port Townsend","state_name":"Washington","lat":48.03879,"lng":-122.84406,"zip":"98368","miles_from_dt":12.74},{"city":"Port Ludlow","state_name":"Washington","lat":47.89545,"lng":-122.70271,"zip":"98365","miles_from_dt":13.98},{"city":"North Lakewood","state_name":"Washington","lat":48.16499,"lng":-122.2992,"zip":"98259","miles_from_dt":14.1},{"city":"Port Gamble","state_name":"Washington","lat":47.85455,"lng":-122.58638,"zip":"98364","miles_from_dt":15.52},{"city":"Marysville","state_name":"Washington","lat":48.09373,"lng":-122.23559,"zip":"98271","miles_from_dt":15.78},{"city":"Stanwood","state_name":"Washington","lat":48.22455,"lng":-122.3032,"zip":"98292","miles_from_dt":16.12},{"city":"Oak Harbor","state_name":"Washington","lat":48.31688,"lng":-122.63152,"zip":"98277","miles_from_dt":16.64},{"city":"Silvana","state_name":"Washington","lat":48.19051,"lng":-122.25032,"zip":"98287","miles_from_dt":16.91},{"city":"Mukilteo","state_name":"Washington","lat":47.90994,"lng":-122.30113,"zip":"98275","miles_from_dt":17.28},{"city":"Everett","state_name":"Washington","lat":47.98793,"lng":-122.2229,"zip":"98207","miles_from_dt":17.52},{"city":"Kingston","state_name":"Washington","lat":47.82005,"lng":-122.53399,"zip":"98346","miles_from_dt":18},{"city":"Everett","state_name":"Washington","lat":47.94236,"lng":-122.23651,"zip":"98203","miles_from_dt":18.34},{"city":"Everett","state_name":"Washington","lat":47.976,"lng":-122.21,"zip":"98213","miles_from_dt":18.38},{"city":"Oak Harbor","state_name":"Washington","lat":48.34388,"lng":-122.66491,"zip":"98278","miles_from_dt":18.76},{"city":"Everett","state_name":"Washington","lat":47.99373,"lng":-122.18563,"zip":"98201","miles_from_dt":19.01},{"city":"Everett","state_name":"Washington","lat":47.90105,"lng":-122.2586,"zip":"98204","miles_from_dt":19.17},{"city":"Marysville","state_name":"Washington","lat":48.05952,"lng":-122.1443,"zip":"98270","miles_from_dt":20.02},{"city":"Edmonds","state_name":"Washington","lat":47.83555,"lng":-122.3316,"zip":"98026","miles_from_dt":20.28},{"city":"Conway","state_name":"Washington","lat":48.33563,"lng":-122.34444,"zip":"98238","miles_from_dt":20.7},{"city":"Lynnwood","state_name":"Washington","lat":47.8624,"lng":-122.2664,"zip":"98087","miles_from_dt":20.73},{"city":"Quilcene","state_name":"Washington","lat":47.8455,"lng":-122.85916,"zip":"98376","miles_from_dt":20.82},{"city":"Lynnwood","state_name":"Washington","lat":47.83017,"lng":-122.30401,"zip":"98046","miles_from_dt":21.32},{"city":"Lynnwood","state_name":"Washington","lat":47.83873,"lng":-122.28463,"zip":"98037","miles_from_dt":21.4},{"city":"Edmonds","state_name":"Washington","lat":47.80015,"lng":-122.37267,"zip":"98020","miles_from_dt":21.45},{"city":"Everett","state_name":"Washington","lat":47.90072,"lng":-122.18852,"zip":"98208","miles_from_dt":21.77},{"city":"Indianola","state_name":"Washington","lat":47.75475,"lng":-122.51952,"zip":"98342","miles_from_dt":22.55},{"city":"Mill Creek","state_name":"Washington","lat":47.85524,"lng":-122.22102,"zip":"98082","miles_from_dt":22.58},{"city":"Poulsbo","state_name":"Washington","lat":47.75114,"lng":-122.62373,"zip":"98370","miles_from_dt":22.76},{"city":"Lynnwood","state_name":"Washington","lat":47.81094,"lng":-122.28155,"zip":"98036","miles_from_dt":23.01},{"city":"Seattle","state_name":"Washington","lat":47.77112,"lng":-122.38237,"zip":"98160","miles_from_dt":23.09},{"city":"Lake Stevens","state_name":"Washington","lat":48.03252,"lng":-122.07762,"zip":"98258","miles_from_dt":23.29},{"city":"Mountlake Terrace","state_name":"Washington","lat":47.7921,"lng":-122.30758,"zip":"98043","miles_from_dt":23.41},{"city":"La Conner","state_name":"Washington","lat":48.415,"lng":-122.50879,"zip":"98257","miles_from_dt":23.42},{"city":"Sequim","state_name":"Washington","lat":48.0131,"lng":-123.07437,"zip":"98382","miles_from_dt":23.55},{"city":"Suquamish","state_name":"Washington","lat":47.73425,"lng":-122.5631,"zip":"98392","miles_from_dt":23.83},{"city":"Bothell","state_name":"Washington","lat":47.84205,"lng":-122.19813,"zip":"98012","miles_from_dt":23.98},{"city":"Snohomish","state_name":"Washington","lat":47.92897,"lng":-122.09989,"zip":"98291","miles_from_dt":24.37},{"city":"Mount Vernon","state_name":"Washington","lat":48.40522,"lng":-122.36841,"zip":"98273","miles_from_dt":24.49},{"city":"Seattle","state_name":"Washington","lat":47.74237,"lng":-122.37085,"zip":"98177","miles_from_dt":25.13},{"city":"Silverdale","state_name":"Washington","lat":47.72263,"lng":-122.71444,"zip":"98315","miles_from_dt":25.45},{"city":"Seattle","state_name":"Washington","lat":47.75609,"lng":-122.30039,"zip":"98155","miles_from_dt":25.71},{"city":"Seattle","state_name":"Washington","lat":47.7399,"lng":-122.34432,"zip":"98133","miles_from_dt":25.78},{"city":"Bothell","state_name":"Washington","lat":47.79257,"lng":-122.20846,"zip":"98021","miles_from_dt":26.12},{"city":"Keyport","state_name":"Washington","lat":47.69972,"lng":-122.62366,"zip":"98345","miles_from_dt":26.3},{"city":"Kenmore","state_name":"Washington","lat":47.75162,"lng":-122.24892,"zip":"98028","miles_from_dt":27.24},{"city":"Snohomish","state_name":"Washington","lat":47.84266,"lng":-122.10199,"zip":"98296","miles_from_dt":27.38},{"city":"Carlsborg","state_name":"Washington","lat":48.10692,"lng":-123.17546,"zip":"98324","miles_from_dt":27.83},{"city":"Mount Vernon","state_name":"Washington","lat":48.36013,"lng":-122.14346,"zip":"98274","miles_from_dt":27.85},{"city":"Bothell","state_name":"Washington","lat":47.75402,"lng":-122.21613,"zip":"98041","miles_from_dt":27.98},{"city":"Seattle","state_name":"Washington","lat":47.71706,"lng":-122.29969,"zip":"98125","miles_from_dt":28.1},{"city":"Bothell","state_name":"Washington","lat":47.75736,"lng":-122.19871,"zip":"98011","miles_from_dt":28.29},{"city":"Seattle","state_name":"Washington","lat":47.6882,"lng":-122.38157,"zip":"98117","miles_from_dt":28.47},{"city":"Snohomish","state_name":"Washington","lat":47.95141,"lng":-121.98421,"zip":"98290","miles_from_dt":28.8},{"city":"Rollingbay","state_name":"Washington","lat":47.65218,"lng":-122.54899,"zip":"98061","miles_from_dt":29.51},{"city":"Silverdale","state_name":"Washington","lat":47.66212,"lng":-122.71652,"zip":"98383","miles_from_dt":29.54},{"city":"Anacortes","state_name":"Washington","lat":48.50401,"lng":-122.65435,"zip":"98221","miles_from_dt":29.59},{"city":"Seattle","state_name":"Washington","lat":47.66757,"lng":-122.37789,"zip":"98107","miles_from_dt":29.88},{"city":"Seattle","state_name":"Washington","lat":47.67513,"lng":-122.34416,"zip":"98113","miles_from_dt":29.91}],"targetCityZipCode":"98253","targetCityState":"Washington"},"__N_SSG":true}