{"pageProps":{"stateName":"Washington","cityName":"springdale","nearbyCities":[{"city":"Valley","state_name":"Washington","lat":48.1456,"lng":-117.76526,"zip":"99181","miles_from_dt":8.62},{"city":"Ford","state_name":"Washington","lat":47.88498,"lng":-117.83495,"zip":"99013","miles_from_dt":10.55},{"city":"Tumtum","state_name":"Washington","lat":47.8862,"lng":-117.76245,"zip":"99034","miles_from_dt":11.31},{"city":"Wellpinit","state_name":"Washington","lat":47.90355,"lng":-117.99885,"zip":"99040","miles_from_dt":11.33},{"city":"Clayton","state_name":"Washington","lat":48.0083,"lng":-117.58112,"zip":"99110","miles_from_dt":12.94},{"city":"Loon Lake","state_name":"Washington","lat":48.10874,"lng":-117.57514,"zip":"99148","miles_from_dt":13.96},{"city":"Hunters","state_name":"Washington","lat":48.1659,"lng":-118.09992,"zip":"99137","miles_from_dt":14.34},{"city":"Fruitland","state_name":"Washington","lat":48.00281,"lng":-118.18342,"zip":"99129","miles_from_dt":15.31},{"city":"Deer Park","state_name":"Washington","lat":47.95208,"lng":-117.51016,"zip":"99006","miles_from_dt":17.13},{"city":"Nine Mile Falls","state_name":"Washington","lat":47.80375,"lng":-117.625,"zip":"99026","miles_from_dt":19.39},{"city":"Chewelah","state_name":"Washington","lat":48.29787,"lng":-117.69852,"zip":"99109","miles_from_dt":19.46},{"city":"Addy","state_name":"Washington","lat":48.31889,"lng":-117.9483,"zip":"99101","miles_from_dt":19.93},{"city":"Gifford","state_name":"Washington","lat":48.29511,"lng":-118.11731,"zip":"99131","miles_from_dt":21.51},{"city":"Reardan","state_name":"Washington","lat":47.70639,"lng":-117.82406,"zip":"99029","miles_from_dt":22.89},{"city":"Spokane","state_name":"Washington","lat":47.78071,"lng":-117.46135,"zip":"99208","miles_from_dt":25.52},{"city":"Colbert","state_name":"Washington","lat":47.84405,"lng":-117.36346,"zip":"99005","miles_from_dt":26.51},{"city":"Spokane","state_name":"Washington","lat":47.79976,"lng":-117.38468,"zip":"99228","miles_from_dt":27.39},{"city":"Inchelium","state_name":"Washington","lat":48.23093,"lng":-118.38876,"zip":"99138","miles_from_dt":28},{"city":"Chattaroy","state_name":"Washington","lat":47.91997,"lng":-117.27608,"zip":"99003","miles_from_dt":28.14},{"city":"Elk","state_name":"Washington","lat":48.0253,"lng":-117.24993,"zip":"99009","miles_from_dt":28.15},{"city":"Spokane","state_name":"Washington","lat":47.75385,"lng":-117.41797,"zip":"99251","miles_from_dt":28.27},{"city":"Spokane","state_name":"Washington","lat":47.75894,"lng":-117.4087,"zip":"99218","miles_from_dt":28.34},{"city":"Rice","state_name":"Washington","lat":48.41307,"lng":-118.11733,"zip":"99167","miles_from_dt":28.63}],"targetCityZipCode":"99173","targetCityState":"Washington"},"__N_SSG":true}