{"pageProps":{"stateName":"New-jersey","cityName":"raritan","nearbyCities":[{"city":"Bridgewater","state_name":"New Jersey","lat":40.59241,"lng":-74.6202,"zip":"08807","miles_from_dt":1.79},{"city":"Somerville","state_name":"New Jersey","lat":40.58925,"lng":-74.68871,"zip":"08876","miles_from_dt":2.65},{"city":"Manville","state_name":"New Jersey","lat":40.54147,"lng":-74.58876,"zip":"08835","miles_from_dt":3.6},{"city":"Zarephath","state_name":"New Jersey","lat":40.53877,"lng":-74.57531,"zip":"08890","miles_from_dt":4.28},{"city":"Flagtown","state_name":"New Jersey","lat":40.52074,"lng":-74.68835,"zip":"08821","miles_from_dt":4.33},{"city":"Pluckemin","state_name":"New Jersey","lat":40.64409,"lng":-74.63553,"zip":"07978","miles_from_dt":4.91},{"city":"Martinsville","state_name":"New Jersey","lat":40.59705,"lng":-74.55446,"zip":"08836","miles_from_dt":4.94},{"city":"Readington","state_name":"New Jersey","lat":40.56649,"lng":-74.73994,"zip":"08870","miles_from_dt":5.12},{"city":"Hillsborough","state_name":"New Jersey","lat":40.49858,"lng":-74.67274,"zip":"08844","miles_from_dt":5.38},{"city":"Bound Brook","state_name":"New Jersey","lat":40.57165,"lng":-74.53783,"zip":"08805","miles_from_dt":5.54},{"city":"Bedminster","state_name":"New Jersey","lat":40.65599,"lng":-74.6771,"zip":"07921","miles_from_dt":5.99},{"city":"Neshanic Station","state_name":"New Jersey","lat":40.52879,"lng":-74.74246,"zip":"08853","miles_from_dt":6.06},{"city":"South Bound Brook","state_name":"New Jersey","lat":40.55354,"lng":-74.52771,"zip":"08880","miles_from_dt":6.22},{"city":"Whitehouse","state_name":"New Jersey","lat":40.625,"lng":-74.74164,"zip":"08888","miles_from_dt":6.3},{"city":"Whitehouse Station","state_name":"New Jersey","lat":40.60744,"lng":-74.75936,"zip":"08889","miles_from_dt":6.56},{"city":"Liberty Corner","state_name":"New Jersey","lat":40.6647,"lng":-74.57772,"zip":"07938","miles_from_dt":7.19},{"city":"Middlesex","state_name":"New Jersey","lat":40.57439,"lng":-74.5011,"zip":"08846","miles_from_dt":7.47},{"city":"Somerset","state_name":"New Jersey","lat":40.49865,"lng":-74.53284,"zip":"08873","miles_from_dt":7.75},{"city":"Warren","state_name":"New Jersey","lat":40.63199,"lng":-74.51463,"zip":"07059","miles_from_dt":7.88},{"city":"Lyons","state_name":"New Jersey","lat":40.66723,"lng":-74.55215,"zip":"07939","miles_from_dt":8.06},{"city":"Belle Mead","state_name":"New Jersey","lat":40.44815,"lng":-74.65763,"zip":"08502","miles_from_dt":8.66},{"city":"Three Bridges","state_name":"New Jersey","lat":40.52219,"lng":-74.79428,"zip":"08887","miles_from_dt":8.7},{"city":"Dunellen","state_name":"New Jersey","lat":40.5999,"lng":-74.47979,"zip":"08812","miles_from_dt":8.78},{"city":"Oldwick","state_name":"New Jersey","lat":40.67903,"lng":-74.73748,"zip":"08858","miles_from_dt":8.83},{"city":"Basking Ridge","state_name":"New Jersey","lat":40.68374,"lng":-74.55444,"zip":"07920","miles_from_dt":8.94},{"city":"Far Hills","state_name":"New Jersey","lat":40.70791,"lng":-74.65732,"zip":"07931","miles_from_dt":9.33},{"city":"Peapack","state_name":"New Jersey","lat":40.70969,"lng":-74.64786,"zip":"07977","miles_from_dt":9.42},{"city":"Piscataway","state_name":"New Jersey","lat":40.54648,"lng":-74.46342,"zip":"08854","miles_from_dt":9.63},{"city":"Millington","state_name":"New Jersey","lat":40.67698,"lng":-74.51143,"zip":"07946","miles_from_dt":9.96},{"city":"Franklin Park","state_name":"New Jersey","lat":40.44218,"lng":-74.56318,"zip":"08823","miles_from_dt":9.97},{"city":"Stanton","state_name":"New Jersey","lat":40.57427,"lng":-74.83818,"zip":"08885","miles_from_dt":10.27},{"city":"Gladstone","state_name":"New Jersey","lat":40.72044,"lng":-74.68159,"zip":"07934","miles_from_dt":10.36},{"city":"Lebanon","state_name":"New Jersey","lat":40.645,"lng":-74.81989,"zip":"08833","miles_from_dt":10.54},{"city":"Pottersville","state_name":"New Jersey","lat":40.71225,"lng":-74.72581,"zip":"07979","miles_from_dt":10.54},{"city":"Stirling","state_name":"New Jersey","lat":40.6765,"lng":-74.49465,"zip":"07980","miles_from_dt":10.57},{"city":"Plainfield","state_name":"New Jersey","lat":40.60524,"lng":-74.44615,"zip":"07063","miles_from_dt":10.59},{"city":"Bernardsville","state_name":"New Jersey","lat":40.727,"lng":-74.58941,"zip":"07924","miles_from_dt":10.98},{"city":"Somerset","state_name":"New Jersey","lat":40.486,"lng":-74.465,"zip":"08875","miles_from_dt":11.14},{"city":"New Brunswick","state_name":"New Jersey","lat":40.50987,"lng":-74.44546,"zip":"08903","miles_from_dt":11.28},{"city":"Skillman","state_name":"New Jersey","lat":40.41382,"lng":-74.70236,"zip":"08558","miles_from_dt":11.43},{"city":"Kendall Park","state_name":"New Jersey","lat":40.42058,"lng":-74.5538,"zip":"08824","miles_from_dt":11.53},{"city":"Watchung","state_name":"New Jersey","lat":40.64249,"lng":-74.4396,"zip":"07069","miles_from_dt":11.72},{"city":"Rocky Hill","state_name":"New Jersey","lat":40.40011,"lng":-74.64051,"zip":"08553","miles_from_dt":11.94},{"city":"South Plainfield","state_name":"New Jersey","lat":40.57483,"lng":-74.41542,"zip":"07080","miles_from_dt":11.98},{"city":"New Brunswick","state_name":"New Jersey","lat":40.48638,"lng":-74.44521,"zip":"08933","miles_from_dt":12.01},{"city":"Plainfield","state_name":"New Jersey","lat":40.61606,"lng":-74.42164,"zip":"07060","miles_from_dt":12.02},{"city":"New Brunswick","state_name":"New Jersey","lat":40.4843,"lng":-74.44468,"zip":"08906","miles_from_dt":12.11},{"city":"New Brunswick","state_name":"New Jersey","lat":40.48426,"lng":-74.44275,"zip":"08901","miles_from_dt":12.2},{"city":"Flemington","state_name":"New Jersey","lat":40.52281,"lng":-74.86576,"zip":"08822","miles_from_dt":12.23},{"city":"North Brunswick","state_name":"New Jersey","lat":40.44236,"lng":-74.48579,"zip":"08902","miles_from_dt":12.25},{"city":"Blawenburg","state_name":"New Jersey","lat":40.40104,"lng":-74.70474,"zip":"08504","miles_from_dt":12.31},{"city":"Plainfield","state_name":"New Jersey","lat":40.61505,"lng":-74.41449,"zip":"07061","miles_from_dt":12.36},{"city":"Highland Park","state_name":"New Jersey","lat":40.50057,"lng":-74.42832,"zip":"08904","miles_from_dt":12.36},{"city":"Gillette","state_name":"New Jersey","lat":40.69198,"lng":-74.46658,"zip":"07933","miles_from_dt":12.38},{"city":"New Brunswick","state_name":"New Jersey","lat":40.51942,"lng":-74.41458,"zip":"08989","miles_from_dt":12.58},{"city":"Kingston","state_name":"New Jersey","lat":40.38791,"lng":-74.61744,"zip":"08528","miles_from_dt":12.85},{"city":"Califon","state_name":"New Jersey","lat":40.72099,"lng":-74.80033,"zip":"07830","miles_from_dt":13.13},{"city":"Plainfield","state_name":"New Jersey","lat":40.63174,"lng":-74.40391,"zip":"07062","miles_from_dt":13.21},{"city":"Berkeley Heights","state_name":"New Jersey","lat":40.67525,"lng":-74.42806,"zip":"07922","miles_from_dt":13.32},{"city":"Annandale","state_name":"New Jersey","lat":40.62774,"lng":-74.88655,"zip":"08801","miles_from_dt":13.35},{"city":"Edison","state_name":"New Jersey","lat":40.51879,"lng":-74.39861,"zip":"08899","miles_from_dt":13.4},{"city":"Edison","state_name":"New Jersey","lat":40.51366,"lng":-74.39799,"zip":"08818","miles_from_dt":13.54},{"city":"Ringoes","state_name":"New Jersey","lat":40.44425,"lng":-74.83907,"zip":"08551","miles_from_dt":13.63},{"city":"Monmouth Junction","state_name":"New Jersey","lat":40.38978,"lng":-74.54461,"zip":"08852","miles_from_dt":13.67},{"city":"Edison","state_name":"New Jersey","lat":40.51559,"lng":-74.3939,"zip":"08817","miles_from_dt":13.7},{"city":"Milltown","state_name":"New Jersey","lat":40.44826,"lng":-74.43994,"zip":"08850","miles_from_dt":13.74},{"city":"Piscataway","state_name":"New Jersey","lat":40.50025,"lng":-74.39998,"zip":"08855","miles_from_dt":13.75},{"city":"New Vernon","state_name":"New Jersey","lat":40.72747,"lng":-74.47704,"zip":"07976","miles_from_dt":13.77},{"city":"Hopewell","state_name":"New Jersey","lat":40.39641,"lng":-74.78185,"zip":"08525","miles_from_dt":14.22},{"city":"Fanwood","state_name":"New Jersey","lat":40.64171,"lng":-74.38575,"zip":"07023","miles_from_dt":14.33},{"city":"Princeton","state_name":"New Jersey","lat":40.36423,"lng":-74.65661,"zip":"08540","miles_from_dt":14.43},{"city":"Mendham","state_name":"New Jersey","lat":40.78065,"lng":-74.59928,"zip":"07945","miles_from_dt":14.5},{"city":"Edison","state_name":"New Jersey","lat":40.57725,"lng":-74.36599,"zip":"08820","miles_from_dt":14.58},{"city":"Chester","state_name":"New Jersey","lat":40.78222,"lng":-74.68642,"zip":"07930","miles_from_dt":14.6},{"city":"High Bridge","state_name":"New Jersey","lat":40.66828,"lng":-74.89414,"zip":"08829","miles_from_dt":14.74},{"city":"Scotch Plains","state_name":"New Jersey","lat":40.63308,"lng":-74.37387,"zip":"07076","miles_from_dt":14.75},{"city":"Green Village","state_name":"New Jersey","lat":40.7371,"lng":-74.45296,"zip":"07935","miles_from_dt":15.09},{"city":"Metuchen","state_name":"New Jersey","lat":40.54361,"lng":-74.35856,"zip":"08840","miles_from_dt":15.11},{"city":"Princeton","state_name":"New Jersey","lat":40.35452,"lng":-74.66064,"zip":"08542","miles_from_dt":15.11},{"city":"New Providence","state_name":"New Jersey","lat":40.69732,"lng":-74.40321,"zip":"07974","miles_from_dt":15.24},{"city":"Princeton","state_name":"New Jersey","lat":40.34838,"lng":-74.65902,"zip":"08541","miles_from_dt":15.53},{"city":"East Brunswick","state_name":"New Jersey","lat":40.42943,"lng":-74.41602,"zip":"08816","miles_from_dt":15.54},{"city":"Princeton","state_name":"New Jersey","lat":40.34641,"lng":-74.65787,"zip":"08544","miles_from_dt":15.67},{"city":"Clinton","state_name":"New Jersey","lat":40.64973,"lng":-74.92503,"zip":"08809","miles_from_dt":15.74},{"city":"Quakertown","state_name":"New Jersey","lat":40.56607,"lng":-74.94355,"zip":"08868","miles_from_dt":15.82},{"city":"Dayton","state_name":"New Jersey","lat":40.37073,"lng":-74.49641,"zip":"08810","miles_from_dt":15.96},{"city":"Chatham","state_name":"New Jersey","lat":40.7262,"lng":-74.41381,"zip":"07928","miles_from_dt":16.02},{"city":"Westfield","state_name":"New Jersey","lat":40.6938,"lng":-74.38262,"zip":"07091","miles_from_dt":16.02},{"city":"Brookside","state_name":"New Jersey","lat":40.80029,"lng":-74.56879,"zip":"07926","miles_from_dt":16.15},{"city":"Edison","state_name":"New Jersey","lat":40.51432,"lng":-74.34477,"zip":"08837","miles_from_dt":16.22},{"city":"Morristown","state_name":"New Jersey","lat":40.78452,"lng":-74.49813,"zip":"07960","miles_from_dt":16.45},{"city":"South River","state_name":"New Jersey","lat":40.44556,"lng":-74.37842,"zip":"08882","miles_from_dt":16.48},{"city":"Long Valley","state_name":"New Jersey","lat":40.78785,"lng":-74.78315,"zip":"07853","miles_from_dt":16.54},{"city":"Mountainside","state_name":"New Jersey","lat":40.68106,"lng":-74.36038,"zip":"07092","miles_from_dt":16.62},{"city":"Mount Freedom","state_name":"New Jersey","lat":40.80831,"lng":-74.5727,"zip":"07970","miles_from_dt":16.64},{"city":"Westfield","state_name":"New Jersey","lat":40.65172,"lng":-74.34328,"zip":"07090","miles_from_dt":16.67},{"city":"Plainsboro","state_name":"New Jersey","lat":40.33392,"lng":-74.58488,"zip":"08536","miles_from_dt":16.79},{"city":"Glen Gardner","state_name":"New Jersey","lat":40.71912,"lng":-74.90527,"zip":"08826","miles_from_dt":17.07},{"city":"Pittstown","state_name":"New Jersey","lat":40.57513,"lng":-74.96777,"zip":"08867","miles_from_dt":17.09},{"city":"Iselin","state_name":"New Jersey","lat":40.56964,"lng":-74.31719,"zip":"08830","miles_from_dt":17.15},{"city":"Colonia","state_name":"New Jersey","lat":40.59255,"lng":-74.31479,"zip":"07067","miles_from_dt":17.32},{"city":"Madison","state_name":"New Jersey","lat":40.76006,"lng":-74.41889,"zip":"07940","miles_from_dt":17.47},{"city":"Summit","state_name":"New Jersey","lat":40.71414,"lng":-74.36589,"zip":"07902","miles_from_dt":17.52},{"city":"Summit","state_name":"New Jersey","lat":40.71462,"lng":-74.36604,"zip":"07901","miles_from_dt":17.53},{"city":"Fords","state_name":"New Jersey","lat":40.53733,"lng":-74.31216,"zip":"08863","miles_from_dt":17.59},{"city":"Sayreville","state_name":"New Jersey","lat":40.46482,"lng":-74.34002,"zip":"08872","miles_from_dt":17.62},{"city":"Morristown","state_name":"New Jersey","lat":40.79547,"lng":-74.47775,"zip":"07963","miles_from_dt":17.63},{"city":"Clark","state_name":"New Jersey","lat":40.62061,"lng":-74.31335,"zip":"07066","miles_from_dt":17.65},{"city":"Garwood","state_name":"New Jersey","lat":40.65132,"lng":-74.32313,"zip":"07027","miles_from_dt":17.67},{"city":"Ironia","state_name":"New Jersey","lat":40.83013,"lng":-74.62683,"zip":"07845","miles_from_dt":17.75},{"city":"Morristown","state_name":"New Jersey","lat":40.8064,"lng":-74.50061,"zip":"07962","miles_from_dt":17.75},{"city":"Helmetta","state_name":"New Jersey","lat":40.37767,"lng":-74.42383,"zip":"08828","miles_from_dt":17.76},{"city":"Keasbey","state_name":"New Jersey","lat":40.51138,"lng":-74.31387,"zip":"08832","miles_from_dt":17.84},{"city":"Convent Station","state_name":"New Jersey","lat":40.78105,"lng":-74.43517,"zip":"07961","miles_from_dt":18.03},{"city":"Spotswood","state_name":"New Jersey","lat":40.39493,"lng":-74.39196,"zip":"08884","miles_from_dt":18.06},{"city":"Princeton","state_name":"New Jersey","lat":40.31117,"lng":-74.65163,"zip":"08543","miles_from_dt":18.08},{"city":"Sergeantsville","state_name":"New Jersey","lat":40.44541,"lng":-74.94305,"zip":"08557","miles_from_dt":18.09},{"city":"Sayreville","state_name":"New Jersey","lat":40.46587,"lng":-74.3236,"zip":"08871","miles_from_dt":18.38},{"city":"Cranbury","state_name":"New Jersey","lat":40.32166,"lng":-74.52586,"zip":"08512","miles_from_dt":18.42},{"city":"Pennington","state_name":"New Jersey","lat":40.33026,"lng":-74.79422,"zip":"08534","miles_from_dt":18.56},{"city":"Hampton","state_name":"New Jersey","lat":40.66775,"lng":-74.97351,"zip":"08827","miles_from_dt":18.56},{"city":"Schooleys Mountain","state_name":"New Jersey","lat":40.80535,"lng":-74.82303,"zip":"07870","miles_from_dt":18.6},{"city":"Woodbridge","state_name":"New Jersey","lat":40.55358,"lng":-74.28743,"zip":"07095","miles_from_dt":18.76},{"city":"Cranford","state_name":"New Jersey","lat":40.65678,"lng":-74.30354,"zip":"07016","miles_from_dt":18.76},{"city":"Springfield","state_name":"New Jersey","lat":40.69949,"lng":-74.32542,"zip":"07081","miles_from_dt":18.83},{"city":"Randolph","state_name":"New Jersey","lat":40.84528,"lng":-74.5807,"zip":"07869","miles_from_dt":19.06},{"city":"Flanders","state_name":"New Jersey","lat":40.84767,"lng":-74.70163,"zip":"07836","miles_from_dt":19.19},{"city":"Rahway","state_name":"New Jersey","lat":40.60765,"lng":-74.28066,"zip":"07065","miles_from_dt":19.21},{"city":"Lambertville","state_name":"New Jersey","lat":40.37288,"lng":-74.89747,"zip":"08530","miles_from_dt":19.25},{"city":"Florham Park","state_name":"New Jersey","lat":40.77717,"lng":-74.39246,"zip":"07932","miles_from_dt":19.27},{"city":"Succasunna","state_name":"New Jersey","lat":40.85302,"lng":-74.65627,"zip":"07876","miles_from_dt":19.32},{"city":"Parlin","state_name":"New Jersey","lat":40.45897,"lng":-74.30401,"zip":"08859","miles_from_dt":19.52},{"city":"Stockton","state_name":"New Jersey","lat":40.4387,"lng":-74.9716,"zip":"08559","miles_from_dt":19.63},{"city":"Changewater","state_name":"New Jersey","lat":40.73909,"lng":-74.94678,"zip":"07831","miles_from_dt":19.64},{"city":"Avenel","state_name":"New Jersey","lat":40.58342,"lng":-74.26992,"zip":"07001","miles_from_dt":19.64},{"city":"Dover","state_name":"New Jersey","lat":40.85424,"lng":-74.57469,"zip":"07802","miles_from_dt":19.72},{"city":"Cedar Knolls","state_name":"New Jersey","lat":40.82085,"lng":-74.45479,"zip":"07927","miles_from_dt":19.74},{"city":"Perth Amboy","state_name":"New Jersey","lat":40.52087,"lng":-74.27397,"zip":"08861","miles_from_dt":19.76},{"city":"Port Murray","state_name":"New Jersey","lat":40.78722,"lng":-74.89845,"zip":"07865","miles_from_dt":19.95},{"city":"Kenilworth","state_name":"New Jersey","lat":40.67812,"lng":-74.28898,"zip":"07033","miles_from_dt":19.97},{"city":"Perth Amboy","state_name":"New Jersey","lat":40.52075,"lng":-74.26943,"zip":"08862","miles_from_dt":20},{"city":"Princeton Junction","state_name":"New Jersey","lat":40.28125,"lng":-74.61926,"zip":"08550","miles_from_dt":20.18},{"city":"Whippany","state_name":"New Jersey","lat":40.8214,"lng":-74.43954,"zip":"07999","miles_from_dt":20.19},{"city":"Monroe Township","state_name":"New Jersey","lat":40.32908,"lng":-74.43066,"zip":"08831","miles_from_dt":20.22},{"city":"Short Hills","state_name":"New Jersey","lat":40.74196,"lng":-74.3277,"zip":"07078","miles_from_dt":20.26},{"city":"Lawrence Township","state_name":"New Jersey","lat":40.28488,"lng":-74.72201,"zip":"08648","miles_from_dt":20.32},{"city":"Frenchtown","state_name":"New Jersey","lat":40.51353,"lng":-75.02341,"zip":"08825","miles_from_dt":20.44},{"city":"Sewaren","state_name":"New Jersey","lat":40.55415,"lng":-74.25489,"zip":"07077","miles_from_dt":20.47},{"city":"Morris Plains","state_name":"New Jersey","lat":40.84569,"lng":-74.48271,"zip":"07950","miles_from_dt":20.6},{"city":"South Amboy","state_name":"New Jersey","lat":40.46532,"lng":-74.27691,"zip":"08879","miles_from_dt":20.67},{"city":"Old Bridge","state_name":"New Jersey","lat":40.39188,"lng":-74.33059,"zip":"08857","miles_from_dt":20.68},{"city":"Millburn","state_name":"New Jersey","lat":40.72301,"lng":-74.30065,"zip":"07041","miles_from_dt":20.75},{"city":"Roselle Park","state_name":"New Jersey","lat":40.66532,"lng":-74.2666,"zip":"07204","miles_from_dt":20.79},{"city":"Port Reading","state_name":"New Jersey","lat":40.56865,"lng":-74.2464,"zip":"07064","miles_from_dt":20.87},{"city":"Whippany","state_name":"New Jersey","lat":40.82375,"lng":-74.42029,"zip":"07981","miles_from_dt":20.88},{"city":"Roselle","state_name":"New Jersey","lat":40.65269,"lng":-74.2599,"zip":"07203","miles_from_dt":20.88},{"city":"Mine Hill","state_name":"New Jersey","lat":40.87819,"lng":-74.60003,"zip":"07803","miles_from_dt":21.17},{"city":"Titusville","state_name":"New Jersey","lat":40.31453,"lng":-74.85946,"zip":"08560","miles_from_dt":21.18},{"city":"Rosemont","state_name":"New Jersey","lat":40.42097,"lng":-74.9951,"zip":"08556","miles_from_dt":21.31},{"city":"Asbury","state_name":"New Jersey","lat":40.6783,"lng":-75.02515,"zip":"08802","miles_from_dt":21.36},{"city":"Union","state_name":"New Jersey","lat":40.69443,"lng":-74.2692,"zip":"07083","miles_from_dt":21.36},{"city":"Vauxhall","state_name":"New Jersey","lat":40.71832,"lng":-74.28375,"zip":"07088","miles_from_dt":21.38},{"city":"Ledgewood","state_name":"New Jersey","lat":40.88374,"lng":-74.66531,"zip":"07852","miles_from_dt":21.46},{"city":"Linden","state_name":"New Jersey","lat":40.62526,"lng":-74.23917,"zip":"07036","miles_from_dt":21.54},{"city":"Staten Island","state_name":"New York","lat":40.50817,"lng":-74.24254,"zip":"10307","miles_from_dt":21.55},{"city":"Kenvil","state_name":"New Jersey","lat":40.8856,"lng":-74.6237,"zip":"07847","miles_from_dt":21.58},{"city":"Carteret","state_name":"New Jersey","lat":40.58489,"lng":-74.2284,"zip":"07008","miles_from_dt":21.83},{"city":"Little York","state_name":"New Jersey","lat":40.60764,"lng":-75.05804,"zip":"08834","miles_from_dt":21.96},{"city":"Livingston","state_name":"New Jersey","lat":40.78554,"lng":-74.32909,"zip":"07039","miles_from_dt":22.06},{"city":"Hackettstown","state_name":"New Jersey","lat":40.86034,"lng":-74.83192,"zip":"07840","miles_from_dt":22.16},{"city":"Budd Lake","state_name":"New Jersey","lat":40.88559,"lng":-74.75237,"zip":"07828","miles_from_dt":22.31},{"city":"Mount Tabor","state_name":"New Jersey","lat":40.87152,"lng":-74.47826,"zip":"07878","miles_from_dt":22.33},{"city":"East Hanover","state_name":"New Jersey","lat":40.81918,"lng":-74.36382,"zip":"07936","miles_from_dt":22.43},{"city":"Maplewood","state_name":"New Jersey","lat":40.73302,"lng":-74.27117,"zip":"07040","miles_from_dt":22.44},{"city":"Staten Island","state_name":"New York","lat":40.53001,"lng":-74.21912,"zip":"10309","miles_from_dt":22.51},{"city":"Netcong","state_name":"New Jersey","lat":40.89733,"lng":-74.69998,"zip":"07857","miles_from_dt":22.57},{"city":"Hightstown","state_name":"New Jersey","lat":40.25555,"lng":-74.53269,"zip":"08520","miles_from_dt":22.67},{"city":"Windsor","state_name":"New Jersey","lat":40.24659,"lng":-74.58138,"zip":"08561","miles_from_dt":22.77},{"city":"Trenton","state_name":"New Jersey","lat":40.25531,"lng":-74.76222,"zip":"08638","miles_from_dt":22.81},{"city":"Washington","state_name":"New Jersey","lat":40.75327,"lng":-75.00748,"zip":"07882","miles_from_dt":22.83},{"city":"Elizabeth","state_name":"New Jersey","lat":40.67434,"lng":-74.22498,"zip":"07208","miles_from_dt":23.06},{"city":"Trenton","state_name":"New Jersey","lat":40.2414,"lng":-74.69669,"zip":"08619","miles_from_dt":23.07},{"city":"Landing","state_name":"New Jersey","lat":40.90716,"lng":-74.66158,"zip":"07850","miles_from_dt":23.07},{"city":"Elizabeth","state_name":"New Jersey","lat":40.6531,"lng":-74.21677,"zip":"07202","miles_from_dt":23.08},{"city":"Trenton","state_name":"New Jersey","lat":40.26705,"lng":-74.82235,"zip":"08628","miles_from_dt":23.14},{"city":"Denville","state_name":"New Jersey","lat":40.88752,"lng":-74.48689,"zip":"07834","miles_from_dt":23.19},{"city":"Parsippany","state_name":"New Jersey","lat":40.85527,"lng":-74.40239,"zip":"07054","miles_from_dt":23.21},{"city":"Elizabeth","state_name":"New Jersey","lat":40.66966,"lng":-74.21793,"zip":"07207","miles_from_dt":23.32},{"city":"Washington Crossing","state_name":"Pennsylvania","lat":40.28655,"lng":-74.87865,"zip":"18977","miles_from_dt":23.35},{"city":"Matawan","state_name":"New Jersey","lat":40.41312,"lng":-74.2521,"zip":"07747","miles_from_dt":23.37},{"city":"Hillside","state_name":"New Jersey","lat":40.69612,"lng":-74.22857,"zip":"07205","miles_from_dt":23.38},{"city":"Solebury","state_name":"Pennsylvania","lat":40.38068,"lng":-75.00825,"zip":"18963","miles_from_dt":23.38},{"city":"Cliffwood","state_name":"New Jersey","lat":40.43556,"lng":-74.23555,"zip":"07721","miles_from_dt":23.47},{"city":"South Orange","state_name":"New Jersey","lat":40.74908,"lng":-74.26022,"zip":"07079","miles_from_dt":23.49},{"city":"Trenton","state_name":"New Jersey","lat":40.24878,"lng":-74.78734,"zip":"08618","miles_from_dt":23.64},{"city":"Broadway","state_name":"New Jersey","lat":40.72559,"lng":-75.04837,"zip":"08808","miles_from_dt":23.76},{"city":"Oxford","state_name":"New Jersey","lat":40.81515,"lng":-74.96562,"zip":"07863","miles_from_dt":23.79},{"city":"Milford","state_name":"New Jersey","lat":40.59386,"lng":-75.09569,"zip":"08848","miles_from_dt":23.85},{"city":"Mount Arlington","state_name":"New Jersey","lat":40.9189,"lng":-74.6336,"zip":"07856","miles_from_dt":23.86},{"city":"Point Pleasant","state_name":"Pennsylvania","lat":40.44709,"lng":-75.06544,"zip":"18950","miles_from_dt":23.89},{"city":"Irvington","state_name":"New Jersey","lat":40.72426,"lng":-74.23173,"zip":"07111","miles_from_dt":24},{"city":"Trenton","state_name":"New Jersey","lat":40.22512,"lng":-74.66081,"zip":"08690","miles_from_dt":24.03},{"city":"Lumberville","state_name":"Pennsylvania","lat":40.40265,"lng":-75.042,"zip":"18933","miles_from_dt":24.09},{"city":"New Hope","state_name":"Pennsylvania","lat":40.35126,"lng":-74.99779,"zip":"18938","miles_from_dt":24.16},{"city":"Erwinna","state_name":"Pennsylvania","lat":40.49264,"lng":-75.09067,"zip":"18920","miles_from_dt":24.21},{"city":"Vienna","state_name":"New Jersey","lat":40.874,"lng":-74.88503,"zip":"07880","miles_from_dt":24.34},{"city":"Mountain Lakes","state_name":"New Jersey","lat":40.89067,"lng":-74.44072,"zip":"07046","miles_from_dt":24.35},{"city":"Staten Island","state_name":"New York","lat":40.54489,"lng":-74.18084,"zip":"10312","miles_from_dt":24.4},{"city":"Staten Island","state_name":"New York","lat":40.60523,"lng":-74.17956,"zip":"10311","miles_from_dt":24.48},{"city":"Bloomsbury","state_name":"New Jersey","lat":40.64412,"lng":-75.09936,"zip":"08804","miles_from_dt":24.49},{"city":"Roseland","state_name":"New Jersey","lat":40.82077,"lng":-74.30862,"zip":"07068","miles_from_dt":24.5},{"city":"Trenton","state_name":"New Jersey","lat":40.22594,"lng":-74.74109,"zip":"08609","miles_from_dt":24.51},{"city":"Newark","state_name":"New Jersey","lat":40.74177,"lng":-74.23047,"zip":"07106","miles_from_dt":24.6},{"city":"Newark","state_name":"New Jersey","lat":40.71137,"lng":-74.21164,"zip":"07112","miles_from_dt":24.6},{"city":"Trenton","state_name":"New Jersey","lat":40.22019,"lng":-74.57602,"zip":"08606","miles_from_dt":24.61},{"city":"Newark","state_name":"New Jersey","lat":40.72559,"lng":-74.21849,"zip":"07184","miles_from_dt":24.67},{"city":"Trenton","state_name":"New Jersey","lat":40.21804,"lng":-74.57625,"zip":"08602","miles_from_dt":24.75},{"city":"Elizabethport","state_name":"New Jersey","lat":40.65238,"lng":-74.18385,"zip":"07206","miles_from_dt":24.76},{"city":"Trenton","state_name":"New Jersey","lat":40.22066,"lng":-74.73127,"zip":"08629","miles_from_dt":24.76},{"city":"Stanhope","state_name":"New Jersey","lat":40.9285,"lng":-74.70994,"zip":"07874","miles_from_dt":24.77},{"city":"Keyport","state_name":"New Jersey","lat":40.44108,"lng":-74.2028,"zip":"07735","miles_from_dt":24.91},{"city":"West Orange","state_name":"New Jersey","lat":40.78928,"lng":-74.26281,"zip":"07052","miles_from_dt":24.93},{"city":"Morganville","state_name":"New Jersey","lat":40.36191,"lng":-74.25821,"zip":"07751","miles_from_dt":24.97},{"city":"Wharton","state_name":"New Jersey","lat":40.93172,"lng":-74.57688,"zip":"07885","miles_from_dt":24.98},{"city":"Trenton","state_name":"New Jersey","lat":40.22185,"lng":-74.76973,"zip":"08607","miles_from_dt":25.14},{"city":"Trenton","state_name":"New Jersey","lat":40.22086,"lng":-74.76486,"zip":"08695","miles_from_dt":25.14},{"city":"Trenton","state_name":"New Jersey","lat":40.22051,"lng":-74.76526,"zip":"08603","miles_from_dt":25.17},{"city":"Trenton","state_name":"New Jersey","lat":40.2199,"lng":-74.76374,"zip":"08601","miles_from_dt":25.19},{"city":"Robbinsville","state_name":"New Jersey","lat":40.20953,"lng":-74.59919,"zip":"08691","miles_from_dt":25.2},{"city":"Orange","state_name":"New Jersey","lat":40.77059,"lng":-74.23915,"zip":"07051","miles_from_dt":25.22},{"city":"Trenton","state_name":"New Jersey","lat":40.2196,"lng":-74.76437,"zip":"08604","miles_from_dt":25.22},{"city":"Upper Black Eddy","state_name":"Pennsylvania","lat":40.53395,"lng":-75.11997,"zip":"18972","miles_from_dt":25.25},{"city":"Dover","state_name":"New Jersey","lat":40.93167,"lng":-74.54643,"zip":"07801","miles_from_dt":25.25},{"city":"Trenton","state_name":"New Jersey","lat":40.21927,"lng":-74.76518,"zip":"08605","miles_from_dt":25.25},{"city":"Trenton","state_name":"New Jersey","lat":40.21947,"lng":-74.76693,"zip":"08608","miles_from_dt":25.26},{"city":"Lake Hiawatha","state_name":"New Jersey","lat":40.87953,"lng":-74.37965,"zip":"07034","miles_from_dt":25.26},{"city":"Staten Island","state_name":"New York","lat":40.63223,"lng":-74.16903,"zip":"10303","miles_from_dt":25.26},{"city":"Trenton","state_name":"New Jersey","lat":40.21954,"lng":-74.76969,"zip":"08666","miles_from_dt":25.3},{"city":"Trenton","state_name":"New Jersey","lat":40.21789,"lng":-74.76342,"zip":"08646","miles_from_dt":25.32},{"city":"Staten Island","state_name":"New York","lat":40.60086,"lng":-74.16306,"zip":"10314","miles_from_dt":25.32},{"city":"Hopatcong","state_name":"New Jersey","lat":40.93989,"lng":-74.65928,"zip":"07843","miles_from_dt":25.32},{"city":"Orange","state_name":"New Jersey","lat":40.76817,"lng":-74.2348,"zip":"07050","miles_from_dt":25.32},{"city":"Trenton","state_name":"New Jersey","lat":40.21857,"lng":-74.76894,"zip":"08647","miles_from_dt":25.35},{"city":"Trenton","state_name":"New Jersey","lat":40.21719,"lng":-74.76963,"zip":"08645","miles_from_dt":25.45},{"city":"Newark","state_name":"New Jersey","lat":40.72306,"lng":-74.20039,"zip":"07108","miles_from_dt":25.46},{"city":"Elizabeth","state_name":"New Jersey","lat":40.67237,"lng":-74.17643,"zip":"07201","miles_from_dt":25.47},{"city":"Englishtown","state_name":"New Jersey","lat":40.28318,"lng":-74.34232,"zip":"07726","miles_from_dt":25.53},{"city":"Carversville","state_name":"Pennsylvania","lat":40.37727,"lng":-75.0545,"zip":"18913","miles_from_dt":25.55},{"city":"East Orange","state_name":"New Jersey","lat":40.75572,"lng":-74.21793,"zip":"07018","miles_from_dt":25.64},{"city":"Picatinny Arsenal","state_name":"New Jersey","lat":40.93939,"lng":-74.55845,"zip":"07806","miles_from_dt":25.66},{"city":"Pine Brook","state_name":"New Jersey","lat":40.86701,"lng":-74.34283,"zip":"07058","miles_from_dt":25.68},{"city":"Stewartsville","state_name":"New Jersey","lat":40.69302,"lng":-75.10565,"zip":"08886","miles_from_dt":25.69},{"city":"Lahaska","state_name":"Pennsylvania","lat":40.34779,"lng":-75.0315,"zip":"18931","miles_from_dt":25.71},{"city":"Caldwell","state_name":"New Jersey","lat":40.84083,"lng":-74.30222,"zip":"07007","miles_from_dt":25.72},{"city":"Millstone Township","state_name":"New Jersey","lat":40.23506,"lng":-74.437,"zip":"08535","miles_from_dt":25.74},{"city":"Wickatunk","state_name":"New Jersey","lat":40.35028,"lng":-74.24803,"zip":"07765","miles_from_dt":25.88},{"city":"Roosevelt","state_name":"New Jersey","lat":40.22116,"lng":-74.473,"zip":"08555","miles_from_dt":25.89},{"city":"Essex Fells","state_name":"New Jersey","lat":40.82708,"lng":-74.27981,"zip":"07021","miles_from_dt":25.9},{"city":"Great Meadows","state_name":"New Jersey","lat":40.88925,"lng":-74.91042,"zip":"07838","miles_from_dt":25.94},{"city":"Staten Island","state_name":"New York","lat":40.55213,"lng":-74.15029,"zip":"10308","miles_from_dt":25.97},{"city":"Trenton","state_name":"New Jersey","lat":40.2059,"lng":-74.75706,"zip":"08625","miles_from_dt":26.04},{"city":"Allamuchy","state_name":"New Jersey","lat":40.93104,"lng":-74.80424,"zip":"07820","miles_from_dt":26.1},{"city":"Tennent","state_name":"New Jersey","lat":40.27534,"lng":-74.33709,"zip":"07763","miles_from_dt":26.13},{"city":"Newark","state_name":"New Jersey","lat":40.73886,"lng":-74.19529,"zip":"07103","miles_from_dt":26.16},{"city":"East Orange","state_name":"New Jersey","lat":40.75994,"lng":-74.20793,"zip":"07019","miles_from_dt":26.24},{"city":"Trenton","state_name":"New Jersey","lat":40.19377,"lng":-74.71565,"zip":"08610","miles_from_dt":26.46},{"city":"Newark","state_name":"New Jersey","lat":40.70298,"lng":-74.16875,"zip":"07191","miles_from_dt":26.49},{"city":"Newark","state_name":"New Jersey","lat":40.70018,"lng":-74.16618,"zip":"07114","miles_from_dt":26.55},{"city":"East Orange","state_name":"New Jersey","lat":40.77192,"lng":-74.20712,"zip":"07017","miles_from_dt":26.69},{"city":"Hazlet","state_name":"New Jersey","lat":40.42611,"lng":-74.17422,"zip":"07730","miles_from_dt":26.7},{"city":"Hibernia","state_name":"New Jersey","lat":40.94477,"lng":-74.50065,"zip":"07842","miles_from_dt":26.71},{"city":"Newtown","state_name":"Pennsylvania","lat":40.26349,"lng":-74.9483,"zip":"18940","miles_from_dt":26.75},{"city":"Newark","state_name":"New Jersey","lat":40.72934,"lng":-74.17695,"zip":"07193","miles_from_dt":26.76},{"city":"Pipersville","state_name":"Pennsylvania","lat":40.42677,"lng":-75.1138,"zip":"18947","miles_from_dt":26.77},{"city":"Newark","state_name":"New Jersey","lat":40.73005,"lng":-74.17657,"zip":"07192","miles_from_dt":26.8},{"city":"Newark","state_name":"New Jersey","lat":40.72982,"lng":-74.17537,"zip":"07195","miles_from_dt":26.85},{"city":"Staten Island","state_name":"New York","lat":40.63055,"lng":-74.13776,"zip":"10302","miles_from_dt":26.87},{"city":"Newark","state_name":"New Jersey","lat":40.73095,"lng":-74.17544,"zip":"07188","miles_from_dt":26.88},{"city":"Trenton","state_name":"New Jersey","lat":40.19107,"lng":-74.74299,"zip":"08611","miles_from_dt":26.89},{"city":"Newark","state_name":"New Jersey","lat":40.72576,"lng":-74.17222,"zip":"07101","miles_from_dt":26.89},{"city":"Holicong","state_name":"Pennsylvania","lat":40.33594,"lng":-75.04855,"zip":"18928","miles_from_dt":26.92},{"city":"Newark","state_name":"New Jersey","lat":40.72707,"lng":-74.17207,"zip":"07199","miles_from_dt":26.93},{"city":"Caldwell","state_name":"New Jersey","lat":40.85221,"lng":-74.2817,"zip":"07006","miles_from_dt":27.03},{"city":"Belvidere","state_name":"New Jersey","lat":40.82589,"lng":-75.03781,"zip":"07823","miles_from_dt":27.09},{"city":"Newark","state_name":"New Jersey","lat":40.73576,"lng":-74.17343,"zip":"07102","miles_from_dt":27.11},{"city":"Boonton","state_name":"New Jersey","lat":40.92738,"lng":-74.41706,"zip":"07005","miles_from_dt":27.17},{"city":"Newark","state_name":"New Jersey","lat":40.73566,"lng":-74.1714,"zip":"07175","miles_from_dt":27.2},{"city":"Montville","state_name":"New Jersey","lat":40.90736,"lng":-74.3671,"zip":"07045","miles_from_dt":27.23},{"city":"Marlboro","state_name":"New Jersey","lat":40.31675,"lng":-74.25029,"zip":"07746","miles_from_dt":27.23},{"city":"Staten Island","state_name":"New York","lat":40.57149,"lng":-74.1243,"zip":"10306","miles_from_dt":27.29},{"city":"Newark","state_name":"New Jersey","lat":40.76181,"lng":-74.18653,"zip":"07107","miles_from_dt":27.29},{"city":"Penns Park","state_name":"Pennsylvania","lat":40.28283,"lng":-74.9954,"zip":"18943","miles_from_dt":27.32},{"city":"Lake Hopatcong","state_name":"New Jersey","lat":40.96861,"lng":-74.61066,"zip":"07849","miles_from_dt":27.34},{"city":"Staten Island","state_name":"New York","lat":40.61483,"lng":-74.12436,"zip":"10313","miles_from_dt":27.43},{"city":"Morrisville","state_name":"Pennsylvania","lat":40.19595,"lng":-74.80976,"zip":"19067","miles_from_dt":27.47},{"city":"Rockaway","state_name":"New Jersey","lat":40.9531,"lng":-74.48639,"zip":"07866","miles_from_dt":27.48},{"city":"Mechanicsville","state_name":"Pennsylvania","lat":40.34663,"lng":-75.07211,"zip":"18934","miles_from_dt":27.49},{"city":"Pineville","state_name":"Pennsylvania","lat":40.28923,"lng":-75.01009,"zip":"18946","miles_from_dt":27.54},{"city":"Glasser","state_name":"New Jersey","lat":40.97232,"lng":-74.63688,"zip":"07837","miles_from_dt":27.55},{"city":"Revere","state_name":"Pennsylvania","lat":40.52487,"lng":-75.16262,"zip":"18953","miles_from_dt":27.55},{"city":"Andover","state_name":"New Jersey","lat":40.96461,"lng":-74.74807,"zip":"07821","miles_from_dt":27.57},{"city":"Verona","state_name":"New Jersey","lat":40.83228,"lng":-74.24308,"zip":"07044","miles_from_dt":27.58},{"city":"Fairfield","state_name":"New Jersey","lat":40.88282,"lng":-74.30413,"zip":"07004","miles_from_dt":27.8},{"city":"Montclair","state_name":"New Jersey","lat":40.81382,"lng":-74.21775,"zip":"07042","miles_from_dt":27.83},{"city":"Tranquility","state_name":"New Jersey","lat":40.95713,"lng":-74.8072,"zip":"07879","miles_from_dt":27.86},{"city":"Trenton","state_name":"New Jersey","lat":40.16825,"lng":-74.64956,"zip":"08620","miles_from_dt":27.94},{"city":"Buckingham","state_name":"Pennsylvania","lat":40.32134,"lng":-75.05852,"zip":"18912","miles_from_dt":27.96},{"city":"Staten Island","state_name":"New York","lat":40.63243,"lng":-74.11653,"zip":"10310","miles_from_dt":27.99},{"city":"Glen Ridge","state_name":"New Jersey","lat":40.80421,"lng":-74.20428,"zip":"07028","miles_from_dt":28.02},{"city":"Ferndale","state_name":"Pennsylvania","lat":40.52946,"lng":-75.1738,"zip":"18921","miles_from_dt":28.1},{"city":"Keansburg","state_name":"New Jersey","lat":40.44309,"lng":-74.13517,"zip":"07734","miles_from_dt":28.21},{"city":"Ottsville","state_name":"Pennsylvania","lat":40.47167,"lng":-75.16261,"zip":"18942","miles_from_dt":28.24},{"city":"Holmdel","state_name":"New Jersey","lat":40.37683,"lng":-74.17259,"zip":"07733","miles_from_dt":28.25},{"city":"Harrison","state_name":"New Jersey","lat":40.74377,"lng":-74.15389,"zip":"07029","miles_from_dt":28.27},{"city":"Newark","state_name":"New Jersey","lat":40.76735,"lng":-74.16831,"zip":"07104","miles_from_dt":28.31},{"city":"Phillipsburg","state_name":"New Jersey","lat":40.7094,"lng":-75.15109,"zip":"08865","miles_from_dt":28.31},{"city":"Doylestown","state_name":"Pennsylvania","lat":40.35474,"lng":-75.09855,"zip":"18902","miles_from_dt":28.34},{"city":"Wycombe","state_name":"Pennsylvania","lat":40.27276,"lng":-75.01105,"zip":"18980","miles_from_dt":28.39},{"city":"Newark","state_name":"New Jersey","lat":40.72266,"lng":-74.13874,"zip":"07105","miles_from_dt":28.44},{"city":"Bayonne","state_name":"New Jersey","lat":40.66681,"lng":-74.11582,"zip":"07002","miles_from_dt":28.46},{"city":"Newark","state_name":"New Jersey","lat":40.73588,"lng":-74.14386,"zip":"07198","miles_from_dt":28.53},{"city":"Hope","state_name":"New Jersey","lat":40.90861,"lng":-74.96961,"zip":"07844","miles_from_dt":28.8},{"city":"Fairless Hills","state_name":"Pennsylvania","lat":40.1812,"lng":-74.83269,"zip":"19030","miles_from_dt":28.84},{"city":"Allentown","state_name":"New Jersey","lat":40.16022,"lng":-74.55237,"zip":"08501","miles_from_dt":28.89},{"city":"Forest Grove","state_name":"Pennsylvania","lat":40.29883,"lng":-75.05717,"zip":"18922","miles_from_dt":28.9},{"city":"Towaco","state_name":"New Jersey","lat":40.92643,"lng":-74.34524,"zip":"07082","miles_from_dt":28.96},{"city":"Millstone Township","state_name":"New Jersey","lat":40.18798,"lng":-74.42351,"zip":"08510","miles_from_dt":28.99},{"city":"Bloomfield","state_name":"New Jersey","lat":40.80976,"lng":-74.18683,"zip":"07003","miles_from_dt":28.99},{"city":"Staten Island","state_name":"New York","lat":40.60671,"lng":-74.0931,"zip":"10304","miles_from_dt":29.02},{"city":"Staten Island","state_name":"New York","lat":40.62803,"lng":-74.09564,"zip":"10301","miles_from_dt":29.04},{"city":"Imlaystown","state_name":"New Jersey","lat":40.1649,"lng":-74.49606,"zip":"08526","miles_from_dt":29.22},{"city":"Greendell","state_name":"New Jersey","lat":40.97469,"lng":-74.82071,"zip":"07839","miles_from_dt":29.23},{"city":"Cedar Grove","state_name":"New Jersey","lat":40.85651,"lng":-74.22871,"zip":"07009","miles_from_dt":29.25},{"city":"Levittown","state_name":"Pennsylvania","lat":40.17055,"lng":-74.82016,"zip":"19054","miles_from_dt":29.31},{"city":"Plumsteadville","state_name":"Pennsylvania","lat":40.38488,"lng":-75.14631,"zip":"18949","miles_from_dt":29.53},{"city":"Rushland","state_name":"Pennsylvania","lat":40.26162,"lng":-75.02725,"zip":"18956","miles_from_dt":29.54},{"city":"Belleville","state_name":"New Jersey","lat":40.79502,"lng":-74.16161,"zip":"07109","miles_from_dt":29.56},{"city":"Furlong","state_name":"Pennsylvania","lat":40.2851,"lng":-75.05934,"zip":"18925","miles_from_dt":29.61},{"city":"Newark","state_name":"New Jersey","lat":40.79751,"lng":-74.16181,"zip":"07189","miles_from_dt":29.64},{"city":"Johnsonburg","state_name":"New Jersey","lat":40.96694,"lng":-74.87671,"zip":"07846","miles_from_dt":29.81},{"city":"Montclair","state_name":"New Jersey","lat":40.84411,"lng":-74.20041,"zip":"07043","miles_from_dt":29.83},{"city":"Danboro","state_name":"Pennsylvania","lat":40.355,"lng":-75.13268,"zip":"18916","miles_from_dt":29.87},{"city":"Staten Island","state_name":"New York","lat":40.59592,"lng":-74.07539,"zip":"10305","miles_from_dt":29.9}],"targetCityZipCode":"08869","targetCityState":"New Jersey"},"__N_SSG":true}