{"pageProps":{"stateName":"Oklahoma","cityName":"atwood","nearbyCities":[{"city":"Calvin","state_name":"Oklahoma","lat":34.8777,"lng":-96.24035,"zip":"74531","miles_from_dt":7.24},{"city":"Holdenville","state_name":"Oklahoma","lat":35.08197,"lng":-96.34804,"zip":"74848","miles_from_dt":9.72},{"city":"Allen","state_name":"Oklahoma","lat":34.80591,"lng":-96.4028,"zip":"74825","miles_from_dt":9.93},{"city":"Sasakwa","state_name":"Oklahoma","lat":34.96335,"lng":-96.54663,"zip":"74867","miles_from_dt":11.71},{"city":"Stuart","state_name":"Oklahoma","lat":34.86574,"lng":-96.10432,"zip":"74570","miles_from_dt":14.47},{"city":"Francis","state_name":"Oklahoma","lat":34.87421,"lng":-96.58869,"zip":"74844","miles_from_dt":14.74},{"city":"Lamar","state_name":"Oklahoma","lat":35.11169,"lng":-96.09045,"zip":"74850","miles_from_dt":18.49},{"city":"Wewoka","state_name":"Oklahoma","lat":35.18635,"lng":-96.51882,"zip":"74884","miles_from_dt":19.66},{"city":"Wetumka","state_name":"Oklahoma","lat":35.22766,"lng":-96.24346,"zip":"74883","miles_from_dt":20.54},{"city":"Tupelo","state_name":"Oklahoma","lat":34.63831,"lng":-96.42594,"zip":"74572","miles_from_dt":21.4},{"city":"Centrahoma","state_name":"Oklahoma","lat":34.61965,"lng":-96.36634,"zip":"74534","miles_from_dt":22.2},{"city":"Ada","state_name":"Oklahoma","lat":34.77708,"lng":-96.67943,"zip":"74821","miles_from_dt":22.25},{"city":"Konawa","state_name":"Oklahoma","lat":34.9846,"lng":-96.73597,"zip":"74849","miles_from_dt":22.55},{"city":"Ada","state_name":"Oklahoma","lat":34.80691,"lng":-96.71348,"zip":"74820","miles_from_dt":23.04},{"city":"Bowlegs","state_name":"Oklahoma","lat":35.14452,"lng":-96.66464,"zip":"74830","miles_from_dt":23.05},{"city":"Wardville","state_name":"Oklahoma","lat":34.67046,"lng":-96.04259,"zip":"74576","miles_from_dt":25.25},{"city":"Coalgate","state_name":"Oklahoma","lat":34.57453,"lng":-96.25575,"zip":"74538","miles_from_dt":25.74},{"city":"Stonewall","state_name":"Oklahoma","lat":34.59942,"lng":-96.5528,"zip":"74871","miles_from_dt":26.42},{"city":"Dustin","state_name":"Oklahoma","lat":35.2413,"lng":-96.04642,"zip":"74839","miles_from_dt":26.63},{"city":"Maud","state_name":"Oklahoma","lat":35.11527,"lng":-96.762,"zip":"74854","miles_from_dt":26.67},{"city":"Seminole","state_name":"Oklahoma","lat":35.22504,"lng":-96.67054,"zip":"74818","miles_from_dt":27.01},{"city":"Fittstown","state_name":"Oklahoma","lat":34.6166,"lng":-96.61456,"zip":"74842","miles_from_dt":27.21},{"city":"Seminole","state_name":"Oklahoma","lat":35.26699,"lng":-96.64193,"zip":"74868","miles_from_dt":28.17},{"city":"Cromwell","state_name":"Oklahoma","lat":35.34321,"lng":-96.4561,"zip":"74837","miles_from_dt":28.47},{"city":"Fitzhugh","state_name":"Oklahoma","lat":34.65763,"lng":-96.7125,"zip":"74843","miles_from_dt":28.73},{"city":"Kiowa","state_name":"Oklahoma","lat":34.70808,"lng":-95.91859,"zip":"74553","miles_from_dt":28.94},{"city":"Saint Louis","state_name":"Oklahoma","lat":35.06647,"lng":-96.84691,"zip":"74866","miles_from_dt":29.91}],"targetCityZipCode":"74827","targetCityState":"Oklahoma"},"__N_SSG":true}