{"pageProps":{"stateName":"Oklahoma","cityName":"goodwell","nearbyCities":[{"city":"Guymon","state_name":"Oklahoma","lat":36.74452,"lng":-101.49555,"zip":"73942","miles_from_dt":16.06},{"city":"Texhoma","state_name":"Oklahoma","lat":36.5929,"lng":-101.98559,"zip":"73949","miles_from_dt":16.5},{"city":"Texhoma","state_name":"Texas","lat":36.49167,"lng":-101.79265,"zip":"73960","miles_from_dt":19.08},{"city":"Elkhart","state_name":"Kansas","lat":37.06277,"lng":-101.86765,"zip":"67950","miles_from_dt":20.84},{"city":"Keyes","state_name":"Oklahoma","lat":36.84672,"lng":-102.17316,"zip":"73947","miles_from_dt":22.28},{"city":"Rolla","state_name":"Kansas","lat":37.17999,"lng":-101.61179,"zip":"67954","miles_from_dt":29.94}],"targetCityZipCode":"73939","targetCityState":"Oklahoma"},"__N_SSG":true}