{"pageProps":{"stateName":"Oklahoma","cityName":"overbrook","nearbyCities":[{"city":"Lone Grove","state_name":"Oklahoma","lat":34.16258,"lng":-97.29081,"zip":"73443","miles_from_dt":8.89},{"city":"Burneyville","state_name":"Oklahoma","lat":33.91,"lng":-97.36106,"zip":"73430","miles_from_dt":10.05},{"city":"Wilson","state_name":"Oklahoma","lat":34.11584,"lng":-97.42905,"zip":"73463","miles_from_dt":10.68},{"city":"Marietta","state_name":"Oklahoma","lat":33.94813,"lng":-97.10581,"zip":"73448","miles_from_dt":11.18},{"city":"Ardmore","state_name":"Oklahoma","lat":34.17286,"lng":-97.14441,"zip":"73403","miles_from_dt":11.95},{"city":"Ardmore","state_name":"Oklahoma","lat":34.16695,"lng":-97.10557,"zip":"73402","miles_from_dt":13.13},{"city":"Ardmore","state_name":"Oklahoma","lat":34.21045,"lng":-97.11434,"zip":"73401","miles_from_dt":15.06},{"city":"Leon","state_name":"Oklahoma","lat":33.8674,"lng":-97.44021,"zip":"73441","miles_from_dt":15.1},{"city":"Thackerville","state_name":"Oklahoma","lat":33.77534,"lng":-97.14213,"zip":"73459","miles_from_dt":19.34},{"city":"Ringling","state_name":"Oklahoma","lat":34.12211,"lng":-97.62412,"zip":"73456","miles_from_dt":21.16},{"city":"Healdton","state_name":"Oklahoma","lat":34.27967,"lng":-97.49808,"zip":"73438","miles_from_dt":21.33},{"city":"Gene Autry","state_name":"Oklahoma","lat":34.28406,"lng":-97.03856,"zip":"73436","miles_from_dt":21.72},{"city":"Lebanon","state_name":"Oklahoma","lat":33.95163,"lng":-96.89635,"zip":"73440","miles_from_dt":22.23},{"city":"Springer","state_name":"Oklahoma","lat":34.35818,"lng":-97.29782,"zip":"73458","miles_from_dt":22.35},{"city":"Graham","state_name":"Oklahoma","lat":34.36193,"lng":-97.41558,"zip":"73437","miles_from_dt":24.04},{"city":"Saint Jo","state_name":"Texas","lat":33.74079,"lng":-97.53922,"zip":"76265","miles_from_dt":25.48},{"city":"Muenster","state_name":"Texas","lat":33.67788,"lng":-97.38695,"zip":"76252","miles_from_dt":25.49},{"city":"Fox","state_name":"Oklahoma","lat":34.36008,"lng":-97.49281,"zip":"73435","miles_from_dt":25.79},{"city":"Gainesville","state_name":"Texas","lat":33.65654,"lng":-97.17766,"zip":"76240","miles_from_dt":26.61},{"city":"Gainesville","state_name":"Texas","lat":33.64542,"lng":-97.17628,"zip":"76241","miles_from_dt":27.37},{"city":"Whitesboro","state_name":"Texas","lat":33.74794,"lng":-96.93935,"zip":"76273","miles_from_dt":27.44},{"city":"Mannsville","state_name":"Oklahoma","lat":34.22463,"lng":-96.84616,"zip":"73447","miles_from_dt":27.62},{"city":"Gordonville","state_name":"Texas","lat":33.82885,"lng":-96.85422,"zip":"76245","miles_from_dt":27.81},{"city":"Lindsay","state_name":"Texas","lat":33.63006,"lng":-97.24237,"zip":"76250","miles_from_dt":27.94},{"city":"Dougherty","state_name":"Oklahoma","lat":34.40051,"lng":-97.05137,"zip":"73032","miles_from_dt":28.16},{"city":"Myra","state_name":"Texas","lat":33.62516,"lng":-97.31327,"zip":"76253","miles_from_dt":28.34},{"city":"Madill","state_name":"Oklahoma","lat":34.0891,"lng":-96.77806,"zip":"73446","miles_from_dt":28.49},{"city":"Oscar","state_name":"Oklahoma","lat":33.95997,"lng":-97.76134,"zip":"73561","miles_from_dt":28.65},{"city":"Nocona","state_name":"Texas","lat":33.8179,"lng":-97.71625,"zip":"76255","miles_from_dt":29.65}],"targetCityZipCode":"73453","targetCityState":"Oklahoma"},"__N_SSG":true}