{"pageProps":{"stateName":"Virginia","cityName":"callaway","nearbyCities":[{"city":"Copper Hill","state_name":"Virginia","lat":37.0539,"lng":-80.15418,"zip":"24079","miles_from_dt":4.85},{"city":"Boones Mill","state_name":"Virginia","lat":37.11814,"lng":-79.96453,"zip":"24065","miles_from_dt":8.01},{"city":"Bent Mountain","state_name":"Virginia","lat":37.15577,"lng":-80.13159,"zip":"24059","miles_from_dt":8.87},{"city":"Check","state_name":"Virginia","lat":37.03809,"lng":-80.23113,"zip":"24072","miles_from_dt":8.97},{"city":"Ferrum","state_name":"Virginia","lat":36.89492,"lng":-80.0798,"zip":"24088","miles_from_dt":9.84},{"city":"Roanoke","state_name":"Virginia","lat":37.21238,"lng":-80.04261,"zip":"24018","miles_from_dt":12.16},{"city":"Shawsville","state_name":"Virginia","lat":37.13735,"lng":-80.25828,"zip":"24162","miles_from_dt":12.53},{"city":"Rocky Mount","state_name":"Virginia","lat":36.95827,"lng":-79.86457,"zip":"24151","miles_from_dt":12.55},{"city":"Pilot","state_name":"Virginia","lat":37.05052,"lng":-80.31684,"zip":"24138","miles_from_dt":13.74},{"city":"Henry","state_name":"Virginia","lat":36.83994,"lng":-79.99891,"zip":"24102","miles_from_dt":14.15},{"city":"Roanoke","state_name":"Virginia","lat":37.22427,"lng":-79.91282,"zip":"24014","miles_from_dt":15.5},{"city":"Roanoke","state_name":"Virginia","lat":37.25588,"lng":-79.97979,"zip":"24015","miles_from_dt":15.85},{"city":"Floyd","state_name":"Virginia","lat":36.92131,"lng":-80.32264,"zip":"24091","miles_from_dt":16.16},{"city":"Elliston","state_name":"Virginia","lat":37.22594,"lng":-80.24748,"zip":"24087","miles_from_dt":16.32},{"city":"Wirtz","state_name":"Virginia","lat":37.0881,"lng":-79.77642,"zip":"24184","miles_from_dt":16.53},{"city":"Redwood","state_name":"Virginia","lat":37.00792,"lng":-79.77025,"zip":"24146","miles_from_dt":16.63},{"city":"Glade Hill","state_name":"Virginia","lat":37.00158,"lng":-79.76306,"zip":"24092","miles_from_dt":17.09},{"city":"Roanoke","state_name":"Virginia","lat":37.26997,"lng":-79.9517,"zip":"24023","miles_from_dt":17.29},{"city":"Roanoke","state_name":"Virginia","lat":37.27096,"lng":-79.95433,"zip":"24030","miles_from_dt":17.3},{"city":"Roanoke","state_name":"Virginia","lat":37.27169,"lng":-79.95629,"zip":"24038","miles_from_dt":17.31},{"city":"Roanoke","state_name":"Virginia","lat":37.27219,"lng":-79.95606,"zip":"24031","miles_from_dt":17.35},{"city":"Roanoke","state_name":"Virginia","lat":37.27208,"lng":-79.95468,"zip":"24016","miles_from_dt":17.37},{"city":"Roanoke","state_name":"Virginia","lat":37.27159,"lng":-79.9527,"zip":"24029","miles_from_dt":17.38},{"city":"Roanoke","state_name":"Virginia","lat":37.27342,"lng":-79.95596,"zip":"24033","miles_from_dt":17.43},{"city":"Roanoke","state_name":"Virginia","lat":37.29,"lng":-80.06219,"zip":"24155","miles_from_dt":17.43},{"city":"Roanoke","state_name":"Virginia","lat":37.27224,"lng":-79.95112,"zip":"24026","miles_from_dt":17.45},{"city":"Roanoke","state_name":"Virginia","lat":37.27292,"lng":-79.95282,"zip":"24025","miles_from_dt":17.46},{"city":"Roanoke","state_name":"Virginia","lat":37.27019,"lng":-79.94467,"zip":"24004","miles_from_dt":17.46},{"city":"Roanoke","state_name":"Virginia","lat":37.27362,"lng":-79.95503,"zip":"24027","miles_from_dt":17.46},{"city":"Roanoke","state_name":"Virginia","lat":37.27134,"lng":-79.94435,"zip":"24008","miles_from_dt":17.54},{"city":"Roanoke","state_name":"Virginia","lat":37.2706,"lng":-79.9415,"zip":"24007","miles_from_dt":17.55},{"city":"Roanoke","state_name":"Virginia","lat":37.27048,"lng":-79.94128,"zip":"24011","miles_from_dt":17.55},{"city":"Roanoke","state_name":"Virginia","lat":37.2715,"lng":-79.94234,"zip":"24010","miles_from_dt":17.59},{"city":"Roanoke","state_name":"Virginia","lat":37.29241,"lng":-80.06396,"zip":"24157","miles_from_dt":17.59},{"city":"Roanoke","state_name":"Virginia","lat":37.27119,"lng":-79.94097,"zip":"24005","miles_from_dt":17.6},{"city":"Roanoke","state_name":"Virginia","lat":37.27076,"lng":-79.93933,"zip":"24001","miles_from_dt":17.61},{"city":"Roanoke","state_name":"Virginia","lat":37.27066,"lng":-79.93851,"zip":"24009","miles_from_dt":17.62},{"city":"Hardy","state_name":"Virginia","lat":37.17702,"lng":-79.80111,"zip":"24101","miles_from_dt":17.65},{"city":"Roanoke","state_name":"Virginia","lat":37.27307,"lng":-79.94332,"zip":"24006","miles_from_dt":17.67},{"city":"Roanoke","state_name":"Virginia","lat":37.27791,"lng":-79.95694,"zip":"24002","miles_from_dt":17.7},{"city":"Roanoke","state_name":"Virginia","lat":37.27347,"lng":-79.9421,"zip":"24003","miles_from_dt":17.72},{"city":"Roanoke","state_name":"Virginia","lat":37.26691,"lng":-79.92219,"zip":"24013","miles_from_dt":17.78},{"city":"Roanoke","state_name":"Virginia","lat":37.27587,"lng":-79.94159,"zip":"24042","miles_from_dt":17.88},{"city":"Roanoke","state_name":"Virginia","lat":37.27017,"lng":-79.92206,"zip":"24043","miles_from_dt":17.98},{"city":"Roanoke","state_name":"Virginia","lat":37.27579,"lng":-79.93424,"zip":"24024","miles_from_dt":18.04},{"city":"Salem","state_name":"Virginia","lat":37.29674,"lng":-80.11609,"zip":"24153","miles_from_dt":18.08},{"city":"Roanoke","state_name":"Virginia","lat":37.27689,"lng":-79.93429,"zip":"24022","miles_from_dt":18.11},{"city":"Roanoke","state_name":"Virginia","lat":37.2771,"lng":-79.93464,"zip":"24040","miles_from_dt":18.12},{"city":"Roanoke","state_name":"Virginia","lat":37.27828,"lng":-79.9353,"zip":"24032","miles_from_dt":18.17},{"city":"Roanoke","state_name":"Virginia","lat":37.28178,"lng":-79.94288,"zip":"24028","miles_from_dt":18.23},{"city":"Roanoke","state_name":"Virginia","lat":37.28012,"lng":-79.93826,"zip":"24034","miles_from_dt":18.23},{"city":"Roanoke","state_name":"Virginia","lat":37.29472,"lng":-79.99183,"zip":"24017","miles_from_dt":18.25},{"city":"Roanoke","state_name":"Virginia","lat":37.27891,"lng":-79.93298,"zip":"24036","miles_from_dt":18.27},{"city":"Roanoke","state_name":"Virginia","lat":37.28023,"lng":-79.9357,"zip":"24037","miles_from_dt":18.29},{"city":"Roanoke","state_name":"Virginia","lat":37.2824,"lng":-79.92859,"zip":"24035","miles_from_dt":18.59},{"city":"Bassett","state_name":"Virginia","lat":36.76333,"lng":-79.99741,"zip":"24055","miles_from_dt":19.31},{"city":"Woolwine","state_name":"Virginia","lat":36.80868,"lng":-80.27557,"zip":"24185","miles_from_dt":19.49},{"city":"Christiansburg","state_name":"Virginia","lat":37.14246,"lng":-80.40079,"zip":"24068","miles_from_dt":19.72},{"city":"Riner","state_name":"Virginia","lat":37.02277,"lng":-80.43424,"zip":"24149","miles_from_dt":20.23},{"city":"Christiansburg","state_name":"Virginia","lat":37.13053,"lng":-80.4225,"zip":"24073","miles_from_dt":20.57},{"city":"Union Hall","state_name":"Virginia","lat":37.00937,"lng":-79.69193,"zip":"24176","miles_from_dt":20.93},{"city":"Roanoke","state_name":"Virginia","lat":37.31585,"lng":-79.89833,"zip":"24012","miles_from_dt":21.39},{"city":"Stanleytown","state_name":"Virginia","lat":36.73613,"lng":-79.94876,"zip":"24168","miles_from_dt":21.81},{"city":"Roanoke","state_name":"Virginia","lat":37.3446,"lng":-79.95564,"zip":"24019","miles_from_dt":22.09},{"city":"Roanoke","state_name":"Virginia","lat":37.34622,"lng":-79.95718,"zip":"24050","miles_from_dt":22.17},{"city":"Goodview","state_name":"Virginia","lat":37.22304,"lng":-79.73787,"zip":"24095","miles_from_dt":22.31},{"city":"Vinton","state_name":"Virginia","lat":37.2855,"lng":-79.79963,"zip":"24179","miles_from_dt":22.66},{"city":"Roanoke","state_name":"Virginia","lat":37.35739,"lng":-79.94279,"zip":"24020","miles_from_dt":23.14},{"city":"Blacksburg","state_name":"Virginia","lat":37.22844,"lng":-80.41562,"zip":"24062","miles_from_dt":23.24},{"city":"Blacksburg","state_name":"Virginia","lat":37.22884,"lng":-80.41576,"zip":"24063","miles_from_dt":23.26},{"city":"Collinsville","state_name":"Virginia","lat":36.72376,"lng":-79.91303,"zip":"24078","miles_from_dt":23.28},{"city":"Blacksburg","state_name":"Virginia","lat":37.22539,"lng":-80.42658,"zip":"24061","miles_from_dt":23.63},{"city":"Fieldale","state_name":"Virginia","lat":36.70392,"lng":-79.96078,"zip":"24089","miles_from_dt":23.76},{"city":"Penhook","state_name":"Virginia","lat":36.92587,"lng":-79.65456,"zip":"24137","miles_from_dt":24.17},{"city":"Cloverdale","state_name":"Virginia","lat":37.36337,"lng":-79.90278,"zip":"24077","miles_from_dt":24.28},{"city":"Catawba","state_name":"Virginia","lat":37.37316,"lng":-80.21238,"zip":"24070","miles_from_dt":24.47},{"city":"Blacksburg","state_name":"Virginia","lat":37.25772,"lng":-80.41961,"zip":"24060","miles_from_dt":24.61},{"city":"Martinsville","state_name":"Virginia","lat":36.72378,"lng":-79.84921,"zip":"24112","miles_from_dt":24.81},{"city":"McCoy","state_name":"Virginia","lat":37.25889,"lng":-80.42978,"zip":"24111","miles_from_dt":25.11},{"city":"Patrick Springs","state_name":"Virginia","lat":36.67563,"lng":-80.12794,"zip":"24133","miles_from_dt":25.16},{"city":"Moneta","state_name":"Virginia","lat":37.1709,"lng":-79.64141,"zip":"24121","miles_from_dt":25.34},{"city":"Daleville","state_name":"Virginia","lat":37.40614,"lng":-79.92031,"zip":"24083","miles_from_dt":26.72},{"city":"Martinsville","state_name":"Virginia","lat":36.68797,"lng":-79.85866,"zip":"24115","miles_from_dt":26.76},{"city":"Martinsville","state_name":"Virginia","lat":36.68389,"lng":-79.86412,"zip":"24114","miles_from_dt":26.89},{"city":"Stuart","state_name":"Virginia","lat":36.67095,"lng":-80.23835,"zip":"24171","miles_from_dt":26.96},{"city":"Willis","state_name":"Virginia","lat":36.85672,"lng":-80.50183,"zip":"24380","miles_from_dt":27.01},{"city":"Martinsville","state_name":"Virginia","lat":36.68267,"lng":-79.85038,"zip":"24113","miles_from_dt":27.29},{"city":"Radford","state_name":"Virginia","lat":37.13833,"lng":-80.55084,"zip":"24142","miles_from_dt":27.52},{"city":"Troutville","state_name":"Virginia","lat":37.42589,"lng":-79.93788,"zip":"24175","miles_from_dt":27.75},{"city":"Radford","state_name":"Virginia","lat":37.10105,"lng":-80.56677,"zip":"24141","miles_from_dt":27.86},{"city":"Blue Ridge","state_name":"Virginia","lat":37.37237,"lng":-79.7759,"zip":"24064","miles_from_dt":28.19},{"city":"Critz","state_name":"Virginia","lat":36.62923,"lng":-80.13204,"zip":"24082","miles_from_dt":28.36},{"city":"Vesta","state_name":"Virginia","lat":36.72266,"lng":-80.40026,"zip":"24177","miles_from_dt":28.43},{"city":"Radford","state_name":"Virginia","lat":37.12589,"lng":-80.57524,"zip":"24143","miles_from_dt":28.64},{"city":"Meadows Of Dan","state_name":"Virginia","lat":36.71891,"lng":-80.41277,"zip":"24120","miles_from_dt":29.07},{"city":"Sandy Level","state_name":"Virginia","lat":36.98132,"lng":-79.54391,"zip":"24161","miles_from_dt":29.29},{"city":"New River","state_name":"Virginia","lat":37.13947,"lng":-80.5918,"zip":"24129","miles_from_dt":29.74},{"city":"Callands","state_name":"Virginia","lat":36.80785,"lng":-79.61044,"zip":"24530","miles_from_dt":29.91}],"targetCityZipCode":"24067","targetCityState":"Virginia"},"__N_SSG":true}