{"pageProps":{"stateName":"Oregon","cityName":"adrian","nearbyCities":[{"city":"Homedale","state_name":"Idaho","lat":43.57934,"lng":-116.96975,"zip":"83628","miles_from_dt":6.49},{"city":"Nyssa","state_name":"Oregon","lat":43.64688,"lng":-117.28131,"zip":"97913","miles_from_dt":9.85},{"city":"Wilder","state_name":"Idaho","lat":43.65743,"lng":-116.91156,"zip":"83676","miles_from_dt":10.08},{"city":"Greenleaf","state_name":"Idaho","lat":43.66876,"lng":-116.82815,"zip":"83626","miles_from_dt":14.26},{"city":"Huston","state_name":"Idaho","lat":43.59485,"lng":-116.78142,"zip":"83630","miles_from_dt":15.79},{"city":"Parma","state_name":"Idaho","lat":43.80016,"lng":-116.9301,"zip":"83660","miles_from_dt":16.15},{"city":"Notus","state_name":"Idaho","lat":43.7255,"lng":-116.79852,"zip":"83656","miles_from_dt":17.26},{"city":"Marsing","state_name":"Idaho","lat":43.36878,"lng":-116.92472,"zip":"83639","miles_from_dt":18.11},{"city":"Caldwell","state_name":"Idaho","lat":43.7116,"lng":-116.74362,"zip":"83607","miles_from_dt":19.28},{"city":"Caldwell","state_name":"Idaho","lat":43.71764,"lng":-116.74241,"zip":"83606","miles_from_dt":19.51},{"city":"Caldwell","state_name":"Idaho","lat":43.66442,"lng":-116.65171,"zip":"83605","miles_from_dt":22.72},{"city":"Nampa","state_name":"Idaho","lat":43.58438,"lng":-116.62884,"zip":"83651","miles_from_dt":23.47},{"city":"Nampa","state_name":"Idaho","lat":43.70733,"lng":-116.6213,"zip":"83652","miles_from_dt":24.93},{"city":"Nampa","state_name":"Idaho","lat":43.49643,"lng":-116.61207,"zip":"83686","miles_from_dt":25.32},{"city":"Fruitland","state_name":"Idaho","lat":43.96982,"lng":-116.91204,"zip":"83619","miles_from_dt":27.17},{"city":"Middleton","state_name":"Idaho","lat":43.74823,"lng":-116.58455,"zip":"83644","miles_from_dt":27.61},{"city":"Nampa","state_name":"Idaho","lat":43.60998,"lng":-116.52997,"zip":"83687","miles_from_dt":28.41},{"city":"New Plymouth","state_name":"Idaho","lat":43.95135,"lng":-116.79171,"zip":"83655","miles_from_dt":28.66},{"city":"Melba","state_name":"Idaho","lat":43.35079,"lng":-116.6357,"zip":"83641","miles_from_dt":28.82},{"city":"Vale","state_name":"Oregon","lat":43.96255,"lng":-117.38073,"zip":"97918","miles_from_dt":28.82}],"targetCityZipCode":"97901","targetCityState":"Oregon"},"__N_SSG":true}