{"pageProps":{"stateName":"Oregon","cityName":"brogan","nearbyCities":[{"city":"Jamieson","state_name":"Oregon","lat":44.21096,"lng":-117.37909,"zip":"97909","miles_from_dt":11.79},{"city":"Huntington","state_name":"Oregon","lat":44.41893,"lng":-117.35568,"zip":"97907","miles_from_dt":15.46},{"city":"Bridgeport","state_name":"Oregon","lat":44.48603,"lng":-117.76317,"zip":"97819","miles_from_dt":16.55},{"city":"Westfall","state_name":"Oregon","lat":44.06595,"lng":-117.75997,"zip":"97920","miles_from_dt":16.7},{"city":"Ironside","state_name":"Oregon","lat":44.25679,"lng":-117.94828,"zip":"97908","miles_from_dt":17.45},{"city":"Durkee","state_name":"Oregon","lat":44.58183,"lng":-117.4654,"zip":"97905","miles_from_dt":22},{"city":"Vale","state_name":"Oregon","lat":43.96255,"lng":-117.38073,"zip":"97918","miles_from_dt":24.29},{"city":"Hereford","state_name":"Oregon","lat":44.51127,"lng":-118.0483,"zip":"97837","miles_from_dt":27.52},{"city":"Ontario","state_name":"Oregon","lat":44.11085,"lng":-117.07383,"zip":"97914","miles_from_dt":28.46}],"targetCityZipCode":"97903","targetCityState":"Oregon"},"__N_SSG":true}