{"pageProps":{"stateName":"Oregon","cityName":"westlake","nearbyCities":[{"city":"Mapleton","state_name":"Oregon","lat":43.99422,"lng":-123.86344,"zip":"97453","miles_from_dt":9.9},{"city":"Gardiner","state_name":"Oregon","lat":43.77659,"lng":-124.14414,"zip":"97441","miles_from_dt":10.8},{"city":"Florence","state_name":"Oregon","lat":44.06573,"lng":-124.03705,"zip":"97439","miles_from_dt":11.31},{"city":"Reedsport","state_name":"Oregon","lat":43.73557,"lng":-123.90442,"zip":"97467","miles_from_dt":12.81},{"city":"Scottsburg","state_name":"Oregon","lat":43.6773,"lng":-123.8726,"zip":"97473","miles_from_dt":17.13},{"city":"Swisshome","state_name":"Oregon","lat":44.1303,"lng":-123.83213,"zip":"97480","miles_from_dt":18.2},{"city":"Walton","state_name":"Oregon","lat":44.00795,"lng":-123.60522,"zip":"97490","miles_from_dt":21.74},{"city":"Lakeside","state_name":"Oregon","lat":43.57571,"lng":-124.08581,"zip":"97449","miles_from_dt":22.83},{"city":"Deadwood","state_name":"Oregon","lat":44.15507,"lng":-123.71175,"zip":"97430","miles_from_dt":23.1},{"city":"Yachats","state_name":"Oregon","lat":44.27728,"lng":-124.01901,"zip":"97498","miles_from_dt":25.87},{"city":"Elkton","state_name":"Oregon","lat":43.63958,"lng":-123.58256,"zip":"97436","miles_from_dt":28.28},{"city":"Noti","state_name":"Oregon","lat":44.09789,"lng":-123.48993,"zip":"97461","miles_from_dt":29.48}],"targetCityZipCode":"97493","targetCityState":"Oregon"},"__N_SSG":true}