{"pageProps":{"stateName":"Oregon","cityName":"coos-bay","nearbyCities":[{"city":"Allegany","state_name":"Oregon","lat":43.42519,"lng":-124.03361,"zip":"97407","miles_from_dt":6.5},{"city":"North Bend","state_name":"Oregon","lat":43.47444,"lng":-124.18216,"zip":"97459","miles_from_dt":9.46},{"city":"Coquille","state_name":"Oregon","lat":43.19137,"lng":-124.17177,"zip":"97423","miles_from_dt":11.3},{"city":"Lakeside","state_name":"Oregon","lat":43.57571,"lng":-124.08581,"zip":"97449","miles_from_dt":15.73},{"city":"Myrtle Point","state_name":"Oregon","lat":43.06372,"lng":-124.01287,"zip":"97458","miles_from_dt":20.23},{"city":"Bandon","state_name":"Oregon","lat":43.07557,"lng":-124.3624,"zip":"97411","miles_from_dt":22.79},{"city":"Scottsburg","state_name":"Oregon","lat":43.6773,"lng":-123.8726,"zip":"97473","miles_from_dt":25.61},{"city":"Broadbent","state_name":"Oregon","lat":42.96653,"lng":-124.15026,"zip":"97414","miles_from_dt":26.45},{"city":"Reedsport","state_name":"Oregon","lat":43.73557,"lng":-123.90442,"zip":"97467","miles_from_dt":28.62},{"city":"Umpqua","state_name":"Oregon","lat":43.37778,"lng":-123.5351,"zip":"97486","miles_from_dt":28.94},{"city":"Gardiner","state_name":"Oregon","lat":43.77659,"lng":-124.14414,"zip":"97441","miles_from_dt":29.62}],"targetCityZipCode":"97420","targetCityState":"Oregon"},"__N_SSG":true}