{"pageProps":{"stateName":"Oregon","cityName":"independence","nearbyCities":[{"city":"Salem","state_name":"Oregon","lat":44.84585,"lng":-123.07972,"zip":"97306","miles_from_dt":4.68},{"city":"Salem","state_name":"Oregon","lat":44.89316,"lng":-123.06007,"zip":"97312","miles_from_dt":6.77},{"city":"Salem","state_name":"Oregon","lat":44.90191,"lng":-123.06719,"zip":"97302","miles_from_dt":6.85},{"city":"Monmouth","state_name":"Oregon","lat":44.77251,"lng":-123.32999,"zip":"97361","miles_from_dt":8.9},{"city":"Jefferson","state_name":"Oregon","lat":44.75009,"lng":-123.02419,"zip":"97352","miles_from_dt":9.59},{"city":"Salem","state_name":"Oregon","lat":44.9253,"lng":-123.01334,"zip":"97309","miles_from_dt":9.92},{"city":"Salem","state_name":"Oregon","lat":44.94375,"lng":-123.02807,"zip":"97311","miles_from_dt":10.22},{"city":"Dallas","state_name":"Oregon","lat":44.93654,"lng":-123.33868,"zip":"97338","miles_from_dt":10.52},{"city":"Rickreall","state_name":"Oregon","lat":44.98985,"lng":-123.1994,"zip":"97371","miles_from_dt":10.52},{"city":"Salem","state_name":"Oregon","lat":44.90048,"lng":-122.97436,"zip":"97310","miles_from_dt":10.72},{"city":"Salem","state_name":"Oregon","lat":44.94948,"lng":-123.00439,"zip":"97301","miles_from_dt":11.33},{"city":"Turner","state_name":"Oregon","lat":44.79096,"lng":-122.9413,"zip":"97392","miles_from_dt":11.92},{"city":"Salem","state_name":"Oregon","lat":45.0078,"lng":-123.1078,"zip":"97304","miles_from_dt":12.14},{"city":"Salem","state_name":"Oregon","lat":44.96696,"lng":-123.00459,"zip":"97314","miles_from_dt":12.17},{"city":"Salem","state_name":"Oregon","lat":44.89919,"lng":-122.92825,"zip":"97308","miles_from_dt":12.8},{"city":"Albany","state_name":"Oregon","lat":44.64994,"lng":-123.13474,"zip":"97321","miles_from_dt":13.17},{"city":"Keizer","state_name":"Oregon","lat":45.00694,"lng":-123.0198,"zip":"97307","miles_from_dt":13.88},{"city":"Salem","state_name":"Oregon","lat":44.90242,"lng":-122.90628,"zip":"97317","miles_from_dt":13.89},{"city":"Falls City","state_name":"Oregon","lat":44.86887,"lng":-123.46596,"zip":"97344","miles_from_dt":14.47},{"city":"Corvallis","state_name":"Oregon","lat":44.63796,"lng":-123.27814,"zip":"97330","miles_from_dt":14.76},{"city":"Salem","state_name":"Oregon","lat":45.03036,"lng":-123.02449,"zip":"97303","miles_from_dt":15.15},{"city":"Aumsville","state_name":"Oregon","lat":44.83141,"lng":-122.85195,"zip":"97325","miles_from_dt":15.86},{"city":"Albany","state_name":"Oregon","lat":44.62524,"lng":-123.01975,"zip":"97322","miles_from_dt":16.58},{"city":"Salem","state_name":"Oregon","lat":45.01573,"lng":-122.92909,"zip":"97305","miles_from_dt":17.16},{"city":"Amity","state_name":"Oregon","lat":45.09225,"lng":-123.21557,"zip":"97101","miles_from_dt":17.63},{"city":"Corvallis","state_name":"Oregon","lat":44.5616,"lng":-123.26863,"zip":"97339","miles_from_dt":19.68},{"city":"Corvallis","state_name":"Oregon","lat":44.56343,"lng":-123.28113,"zip":"97331","miles_from_dt":19.71},{"city":"Crabtree","state_name":"Oregon","lat":44.63776,"lng":-122.88045,"zip":"97335","miles_from_dt":20.04},{"city":"Sheridan","state_name":"Oregon","lat":45.08058,"lng":-123.43127,"zip":"97378","miles_from_dt":20.92},{"city":"Tangent","state_name":"Oregon","lat":44.53269,"lng":-123.09028,"zip":"97389","miles_from_dt":21.52},{"city":"Gervais","state_name":"Oregon","lat":45.10409,"lng":-122.94251,"zip":"97026","miles_from_dt":21.57},{"city":"Sublimity","state_name":"Oregon","lat":44.86633,"lng":-122.72924,"zip":"97385","miles_from_dt":21.95},{"city":"Scio","state_name":"Oregon","lat":44.69285,"lng":-122.77379,"zip":"97374","miles_from_dt":22.13},{"city":"Stayton","state_name":"Oregon","lat":44.80014,"lng":-122.71836,"zip":"97383","miles_from_dt":22.57},{"city":"Silverton","state_name":"Oregon","lat":44.97014,"lng":-122.74749,"zip":"97381","miles_from_dt":22.84},{"city":"Philomath","state_name":"Oregon","lat":44.57901,"lng":-123.46907,"zip":"97370","miles_from_dt":23.06},{"city":"Dayton","state_name":"Oregon","lat":45.18381,"lng":-123.07172,"zip":"97114","miles_from_dt":24.37},{"city":"Saint Benedict","state_name":"Oregon","lat":45.05819,"lng":-122.77677,"zip":"97373","miles_from_dt":24.71},{"city":"Mcminnville","state_name":"Oregon","lat":45.19814,"lng":-123.25812,"zip":"97128","miles_from_dt":25.17},{"city":"Mount Angel","state_name":"Oregon","lat":45.06903,"lng":-122.7692,"zip":"97362","miles_from_dt":25.46},{"city":"Willamina","state_name":"Oregon","lat":45.11528,"lng":-123.5275,"zip":"97396","miles_from_dt":25.78},{"city":"Corvallis","state_name":"Oregon","lat":44.4735,"lng":-123.3067,"zip":"97333","miles_from_dt":26.04},{"city":"Shedd","state_name":"Oregon","lat":44.46403,"lng":-123.10156,"zip":"97377","miles_from_dt":26.11},{"city":"Blodgett","state_name":"Oregon","lat":44.62794,"lng":-123.61573,"zip":"97326","miles_from_dt":26.14},{"city":"Woodburn","state_name":"Oregon","lat":45.13588,"lng":-122.82344,"zip":"97071","miles_from_dt":26.78},{"city":"Mehama","state_name":"Oregon","lat":44.79109,"lng":-122.62007,"zip":"97384","miles_from_dt":27.45},{"city":"Lebanon","state_name":"Oregon","lat":44.5315,"lng":-122.81701,"zip":"97355","miles_from_dt":27.56},{"city":"Saint Paul","state_name":"Oregon","lat":45.21028,"lng":-122.9635,"zip":"97137","miles_from_dt":27.67},{"city":"Lafayette","state_name":"Oregon","lat":45.24629,"lng":-123.11159,"zip":"97127","miles_from_dt":28.32},{"city":"Grand Ronde","state_name":"Oregon","lat":45.07836,"lng":-123.65943,"zip":"97347","miles_from_dt":28.97},{"city":"Scotts Mills","state_name":"Oregon","lat":44.97922,"lng":-122.6021,"zip":"97375","miles_from_dt":29.72}],"targetCityZipCode":"97351","targetCityState":"Oregon"},"__N_SSG":true}