{"pageProps":{"stateName":"Oregon","cityName":"lyons","nearbyCities":[{"city":"Gates","state_name":"Oregon","lat":44.76948,"lng":-122.37857,"zip":"97346","miles_from_dt":2.93},{"city":"Mill City","state_name":"Oregon","lat":44.7515,"lng":-122.48529,"zip":"97360","miles_from_dt":5.42},{"city":"Mehama","state_name":"Oregon","lat":44.79109,"lng":-122.62007,"zip":"97384","miles_from_dt":10.53},{"city":"Scotts Mills","state_name":"Oregon","lat":44.97922,"lng":-122.6021,"zip":"97375","miles_from_dt":15.28},{"city":"Stayton","state_name":"Oregon","lat":44.80014,"lng":-122.71836,"zip":"97383","miles_from_dt":15.31},{"city":"Sublimity","state_name":"Oregon","lat":44.86633,"lng":-122.72924,"zip":"97385","miles_from_dt":16.36},{"city":"Scio","state_name":"Oregon","lat":44.69285,"lng":-122.77379,"zip":"97374","miles_from_dt":19.69},{"city":"Silverton","state_name":"Oregon","lat":44.97014,"lng":-122.74749,"zip":"97381","miles_from_dt":20.16},{"city":"Molalla","state_name":"Oregon","lat":45.08575,"lng":-122.55288,"zip":"97038","miles_from_dt":20.55},{"city":"Aumsville","state_name":"Oregon","lat":44.83141,"lng":-122.85195,"zip":"97325","miles_from_dt":21.93},{"city":"Detroit","state_name":"Oregon","lat":44.73382,"lng":-121.94524,"zip":"97342","miles_from_dt":23.27},{"city":"Idanha","state_name":"Oregon","lat":44.64786,"lng":-121.96146,"zip":"97350","miles_from_dt":24.53},{"city":"Saint Benedict","state_name":"Oregon","lat":45.05819,"lng":-122.77677,"zip":"97373","miles_from_dt":25.1},{"city":"Colton","state_name":"Oregon","lat":45.17017,"lng":-122.37676,"zip":"97017","miles_from_dt":25.14},{"city":"Mount Angel","state_name":"Oregon","lat":45.06903,"lng":-122.7692,"zip":"97362","miles_from_dt":25.37},{"city":"Salem","state_name":"Oregon","lat":44.90242,"lng":-122.90628,"zip":"97317","miles_from_dt":25.4},{"city":"Crabtree","state_name":"Oregon","lat":44.63776,"lng":-122.88045,"zip":"97335","miles_from_dt":26.07},{"city":"Turner","state_name":"Oregon","lat":44.79096,"lng":-122.9413,"zip":"97392","miles_from_dt":26.29},{"city":"Salem","state_name":"Oregon","lat":44.89919,"lng":-122.92825,"zip":"97308","miles_from_dt":26.38},{"city":"Lebanon","state_name":"Oregon","lat":44.5315,"lng":-122.81701,"zip":"97355","miles_from_dt":27.74},{"city":"Mulino","state_name":"Oregon","lat":45.20679,"lng":-122.53247,"zip":"97042","miles_from_dt":28.3},{"city":"Estacada","state_name":"Oregon","lat":45.19147,"lng":-122.20501,"zip":"97023","miles_from_dt":28.35},{"city":"Foster","state_name":"Oregon","lat":44.4126,"lng":-122.57644,"zip":"97345","miles_from_dt":28.47},{"city":"Cascadia","state_name":"Oregon","lat":44.3956,"lng":-122.33698,"zip":"97329","miles_from_dt":28.6},{"city":"Salem","state_name":"Oregon","lat":44.90048,"lng":-122.97436,"zip":"97310","miles_from_dt":28.61},{"city":"Salem","state_name":"Oregon","lat":45.01573,"lng":-122.92909,"zip":"97305","miles_from_dt":29.4}],"targetCityZipCode":"97358","targetCityState":"Oregon"},"__N_SSG":true}