{"pageProps":{"stateName":"Oregon","cityName":"manzanita","nearbyCities":[{"city":"Wheeler","state_name":"Oregon","lat":45.6871,"lng":-123.8873,"zip":"97147","miles_from_dt":2.98},{"city":"Arch Cape","state_name":"Oregon","lat":45.7934,"lng":-123.94793,"zip":"97102","miles_from_dt":5.4},{"city":"Rockaway Beach","state_name":"Oregon","lat":45.6341,"lng":-123.91353,"zip":"97136","miles_from_dt":5.73},{"city":"Nehalem","state_name":"Oregon","lat":45.71495,"lng":-123.8107,"zip":"97131","miles_from_dt":5.93},{"city":"Tolovana Park","state_name":"Oregon","lat":45.84357,"lng":-123.9516,"zip":"97145","miles_from_dt":8.86},{"city":"Bay City","state_name":"Oregon","lat":45.56172,"lng":-123.88291,"zip":"97107","miles_from_dt":10.92},{"city":"Garibaldi","state_name":"Oregon","lat":45.55697,"lng":-123.91619,"zip":"97118","miles_from_dt":11.01},{"city":"Cannon Beach","state_name":"Oregon","lat":45.89186,"lng":-123.95128,"zip":"97110","miles_from_dt":12.18},{"city":"Seaside","state_name":"Oregon","lat":45.90946,"lng":-123.70036,"zip":"97138","miles_from_dt":17.47},{"city":"Oceanside","state_name":"Oregon","lat":45.45587,"lng":-123.96513,"zip":"97134","miles_from_dt":18.03},{"city":"Netarts","state_name":"Oregon","lat":45.43607,"lng":-123.94251,"zip":"97143","miles_from_dt":19.33},{"city":"Tillamook","state_name":"Oregon","lat":45.47142,"lng":-123.73791,"zip":"97141","miles_from_dt":19.36},{"city":"Warrenton","state_name":"Oregon","lat":46.11849,"lng":-123.91399,"zip":"97146","miles_from_dt":27.82}],"targetCityZipCode":"97130","targetCityState":"Oregon"},"__N_SSG":true}