{"pageProps":{"stateName":"Oregon","cityName":"north-powder","nearbyCities":[{"city":"Haines","state_name":"Oregon","lat":44.93471,"lng":-118.05951,"zip":"97833","miles_from_dt":9.35},{"city":"La Grande","state_name":"Oregon","lat":45.30689,"lng":-118.13265,"zip":"97850","miles_from_dt":18.12},{"city":"Union","state_name":"Oregon","lat":45.14264,"lng":-117.64047,"zip":"97883","miles_from_dt":18.29},{"city":"Baker City","state_name":"Oregon","lat":44.80075,"lng":-117.77034,"zip":"97814","miles_from_dt":21.23},{"city":"Cove","state_name":"Oregon","lat":45.34992,"lng":-117.75506,"zip":"97824","miles_from_dt":23.08},{"city":"Sumpter","state_name":"Oregon","lat":44.80662,"lng":-118.38766,"zip":"97877","miles_from_dt":26.07},{"city":"Imbler","state_name":"Oregon","lat":45.46823,"lng":-117.94035,"zip":"97841","miles_from_dt":28.14}],"targetCityZipCode":"97867","targetCityState":"Oregon"},"__N_SSG":true}