{"pageProps":{"stateName":"Arkansas","cityName":"midland","nearbyCities":[{"city":"Hackett","state_name":"Arkansas","lat":35.13764,"lng":-94.39545,"zip":"72937","miles_from_dt":3.43},{"city":"Huntington","state_name":"Arkansas","lat":35.11488,"lng":-94.26427,"zip":"72940","miles_from_dt":5.75},{"city":"Hartford","state_name":"Arkansas","lat":35.00665,"lng":-94.38097,"zip":"72938","miles_from_dt":6.22},{"city":"Mansfield","state_name":"Arkansas","lat":35.03366,"lng":-94.24173,"zip":"72944","miles_from_dt":8.09},{"city":"Greenwood","state_name":"Arkansas","lat":35.1896,"lng":-94.23069,"zip":"72936","miles_from_dt":9.9},{"city":"Cameron","state_name":"Oklahoma","lat":35.14701,"lng":-94.53501,"zip":"74932","miles_from_dt":10.37},{"city":"Monroe","state_name":"Oklahoma","lat":34.99149,"lng":-94.51589,"zip":"74947","miles_from_dt":11.25},{"city":"Fort Smith","state_name":"Arkansas","lat":35.27236,"lng":-94.37256,"zip":"72916","miles_from_dt":12.2},{"city":"Pocola","state_name":"Oklahoma","lat":35.24568,"lng":-94.47715,"zip":"74902","miles_from_dt":12.2},{"city":"Poteau","state_name":"Oklahoma","lat":35.03931,"lng":-94.57156,"zip":"74953","miles_from_dt":12.44},{"city":"Fort Smith","state_name":"Arkansas","lat":35.26004,"lng":-94.24265,"zip":"72905","miles_from_dt":13.22},{"city":"Fort Smith","state_name":"Arkansas","lat":35.30173,"lng":-94.40802,"zip":"72918","miles_from_dt":14.44},{"city":"Fort Smith","state_name":"Arkansas","lat":35.30595,"lng":-94.4099,"zip":"72908","miles_from_dt":14.74},{"city":"Barling","state_name":"Arkansas","lat":35.30904,"lng":-94.28954,"zip":"72923","miles_from_dt":15.29},{"city":"Fort Smith","state_name":"Arkansas","lat":35.3197,"lng":-94.35318,"zip":"72902","miles_from_dt":15.46},{"city":"Fort Smith","state_name":"Arkansas","lat":35.33123,"lng":-94.37681,"zip":"72917","miles_from_dt":16.26},{"city":"Fort Smith","state_name":"Arkansas","lat":35.33063,"lng":-94.3966,"zip":"72906","miles_from_dt":16.31},{"city":"Arkoma","state_name":"Oklahoma","lat":35.32798,"lng":-94.47166,"zip":"74901","miles_from_dt":17.16},{"city":"Fort Smith","state_name":"Arkansas","lat":35.35224,"lng":-94.35302,"zip":"72919","miles_from_dt":17.7},{"city":"Fort Smith","state_name":"Arkansas","lat":35.35241,"lng":-94.36042,"zip":"72903","miles_from_dt":17.71},{"city":"Panama","state_name":"Oklahoma","lat":35.17099,"lng":-94.66482,"zip":"74951","miles_from_dt":17.87},{"city":"Waldron","state_name":"Arkansas","lat":34.90173,"lng":-94.14659,"zip":"72958","miles_from_dt":18.15},{"city":"Howe","state_name":"Oklahoma","lat":34.94979,"lng":-94.63167,"zip":"74940","miles_from_dt":18.25},{"city":"Fort Smith","state_name":"Arkansas","lat":35.3652,"lng":-94.4155,"zip":"72901","miles_from_dt":18.82},{"city":"Spiro","state_name":"Oklahoma","lat":35.26288,"lng":-94.63326,"zip":"74959","miles_from_dt":19.16},{"city":"Fort Smith","state_name":"Arkansas","lat":35.38415,"lng":-94.37617,"zip":"72913","miles_from_dt":19.91},{"city":"Fort Smith","state_name":"Arkansas","lat":35.38587,"lng":-94.39973,"zip":"72914","miles_from_dt":20.12},{"city":"Lavaca","state_name":"Arkansas","lat":35.35018,"lng":-94.16214,"zip":"72941","miles_from_dt":20.91},{"city":"Moffett","state_name":"Oklahoma","lat":35.39613,"lng":-94.45093,"zip":"74946","miles_from_dt":21.31},{"city":"Heavener","state_name":"Oklahoma","lat":34.83303,"lng":-94.58321,"zip":"74937","miles_from_dt":22},{"city":"Fort Smith","state_name":"Arkansas","lat":35.4151,"lng":-94.38338,"zip":"72904","miles_from_dt":22.06},{"city":"Roland","state_name":"Oklahoma","lat":35.41596,"lng":-94.49043,"zip":"74954","miles_from_dt":23.23},{"city":"Shady Point","state_name":"Oklahoma","lat":35.09487,"lng":-94.77334,"zip":"74956","miles_from_dt":23.25},{"city":"Van Buren","state_name":"Arkansas","lat":35.43861,"lng":-94.35259,"zip":"72957","miles_from_dt":23.65},{"city":"Booneville","state_name":"Arkansas","lat":35.07254,"lng":-93.94333,"zip":"72927","miles_from_dt":23.83},{"city":"Bokoshe","state_name":"Oklahoma","lat":35.18409,"lng":-94.77573,"zip":"74930","miles_from_dt":24.16},{"city":"Charleston","state_name":"Arkansas","lat":35.33408,"lng":-94.01432,"zip":"72933","miles_from_dt":25.68},{"city":"Van Buren","state_name":"Arkansas","lat":35.46895,"lng":-94.3489,"zip":"72956","miles_from_dt":25.75},{"city":"Alma","state_name":"Arkansas","lat":35.46953,"lng":-94.19686,"zip":"72921","miles_from_dt":27.44},{"city":"Muldrow","state_name":"Oklahoma","lat":35.46207,"lng":-94.56284,"zip":"74948","miles_from_dt":27.68},{"city":"Branch","state_name":"Arkansas","lat":35.29127,"lng":-93.93206,"zip":"72928","miles_from_dt":27.87},{"city":"Gans","state_name":"Oklahoma","lat":35.39042,"lng":-94.72772,"zip":"74936","miles_from_dt":28.96}],"targetCityZipCode":"72945","targetCityState":"Arkansas"},"__N_SSG":true}