{"pageProps":{"stateName":"Arkansas","cityName":"parkdale","nearbyCities":[{"city":"Wilmot","state_name":"Arkansas","lat":33.05156,"lng":-91.56023,"zip":"71676","miles_from_dt":6.89},{"city":"Portland","state_name":"Arkansas","lat":33.22755,"lng":-91.42665,"zip":"71663","miles_from_dt":7.67},{"city":"Montrose","state_name":"Arkansas","lat":33.32018,"lng":-91.57635,"zip":"71658","miles_from_dt":12.72},{"city":"Jones","state_name":"Louisiana","lat":32.95983,"lng":-91.57327,"zip":"71250","miles_from_dt":13.12},{"city":"Kilbourne","state_name":"Louisiana","lat":32.99597,"lng":-91.31576,"zip":"71253","miles_from_dt":15.32},{"city":"Eudora","state_name":"Arkansas","lat":33.1253,"lng":-91.24753,"zip":"71640","miles_from_dt":15.46},{"city":"Hamburg","state_name":"Arkansas","lat":33.20444,"lng":-91.77837,"zip":"71646","miles_from_dt":15.93},{"city":"Oak Grove","state_name":"Louisiana","lat":32.87497,"lng":-91.428,"zip":"71263","miles_from_dt":19.15},{"city":"Bonita","state_name":"Louisiana","lat":32.90084,"lng":-91.67443,"zip":"71223","miles_from_dt":19.15},{"city":"Lake Village","state_name":"Arkansas","lat":33.36919,"lng":-91.27676,"zip":"71653","miles_from_dt":20.73},{"city":"Chatham","state_name":"Mississippi","lat":33.11524,"lng":-91.13829,"zip":"38731","miles_from_dt":21.83},{"city":"Forest","state_name":"Louisiana","lat":32.79223,"lng":-91.41291,"zip":"71242","miles_from_dt":24.89},{"city":"Dermott","state_name":"Arkansas","lat":33.52008,"lng":-91.47927,"zip":"71638","miles_from_dt":26.04},{"city":"Fountain Hill","state_name":"Arkansas","lat":33.38842,"lng":-91.8788,"zip":"71642","miles_from_dt":27.07},{"city":"Mer Rouge","state_name":"Louisiana","lat":32.77802,"lng":-91.69515,"zip":"71261","miles_from_dt":27.3},{"city":"Glen Allan","state_name":"Mississippi","lat":33.03066,"lng":-91.05371,"zip":"38744","miles_from_dt":27.77},{"city":"Avon","state_name":"Mississippi","lat":33.22967,"lng":-91.03845,"zip":"38723","miles_from_dt":28.15},{"city":"Crossett","state_name":"Arkansas","lat":33.1369,"lng":-92.00133,"zip":"71635","miles_from_dt":28.3},{"city":"Lake Providence","state_name":"Louisiana","lat":32.79429,"lng":-91.23914,"zip":"71254","miles_from_dt":28.85},{"city":"Wayside","state_name":"Mississippi","lat":33.26679,"lng":-91.02353,"zip":"38780","miles_from_dt":29.62},{"city":"Greenville","state_name":"Mississippi","lat":33.30621,"lng":-91.03346,"zip":"38701","miles_from_dt":29.97}],"targetCityZipCode":"71661","targetCityState":"Arkansas"},"__N_SSG":true}