{"pageProps":{"stateName":"Montana","cityName":"fort-benton","nearbyCities":[{"city":"Loma","state_name":"Montana","lat":48.07682,"lng":-110.50908,"zip":"59460","miles_from_dt":11.99},{"city":"Carter","state_name":"Montana","lat":47.89688,"lng":-111.04034,"zip":"59420","miles_from_dt":18.41},{"city":"Highwood","state_name":"Montana","lat":47.5992,"lng":-110.73923,"zip":"59450","miles_from_dt":23.26},{"city":"Floweree","state_name":"Montana","lat":47.72489,"lng":-111.14261,"zip":"59440","miles_from_dt":27.07},{"city":"Geraldine","state_name":"Montana","lat":47.64083,"lng":-110.17894,"zip":"59446","miles_from_dt":29.57}],"targetCityZipCode":"59442","targetCityState":"Montana"},"__N_SSG":true}