{"pageProps":{"stateName":"Wisconsin","cityName":"bloomington","nearbyCities":[{"city":"Beetown","state_name":"Wisconsin","lat":42.80538,"lng":-90.89358,"zip":"53802","miles_from_dt":4.96},{"city":"Patch Grove","state_name":"Wisconsin","lat":42.94028,"lng":-90.97234,"zip":"53817","miles_from_dt":5.48},{"city":"Glen Haven","state_name":"Wisconsin","lat":42.82144,"lng":-90.9984,"zip":"53810","miles_from_dt":5.96},{"city":"Mount Hope","state_name":"Wisconsin","lat":42.97794,"lng":-90.85773,"zip":"53816","miles_from_dt":7.46},{"city":"Bagley","state_name":"Wisconsin","lat":42.92505,"lng":-91.06959,"zip":"53801","miles_from_dt":8.86},{"city":"Cassville","state_name":"Wisconsin","lat":42.73554,"lng":-90.92544,"zip":"53806","miles_from_dt":9.77},{"city":"Lancaster","state_name":"Wisconsin","lat":42.84402,"lng":-90.71641,"zip":"53813","miles_from_dt":9.98},{"city":"Woodman","state_name":"Wisconsin","lat":43.05049,"lng":-90.83702,"zip":"53827","miles_from_dt":12.54},{"city":"North Buena Vista","state_name":"Iowa","lat":42.693,"lng":-90.96925,"zip":"52066","miles_from_dt":13.04},{"city":"Prairie Du Chien","state_name":"Wisconsin","lat":43.04769,"lng":-91.06569,"zip":"53821","miles_from_dt":14.27},{"city":"Guttenberg","state_name":"Iowa","lat":42.7411,"lng":-91.12083,"zip":"52052","miles_from_dt":14.29},{"city":"Garnavillo","state_name":"Iowa","lat":42.8823,"lng":-91.20521,"zip":"52049","miles_from_dt":15.09},{"city":"Potosi","state_name":"Wisconsin","lat":42.69649,"lng":-90.70984,"zip":"53820","miles_from_dt":15.99},{"city":"Fennimore","state_name":"Wisconsin","lat":42.99362,"lng":-90.63323,"zip":"53809","miles_from_dt":16.11},{"city":"Stitzer","state_name":"Wisconsin","lat":42.91833,"lng":-90.58851,"zip":"53825","miles_from_dt":16.47},{"city":"Wauzeka","state_name":"Wisconsin","lat":43.12225,"lng":-90.91039,"zip":"53826","miles_from_dt":16.97},{"city":"Sherrill","state_name":"Iowa","lat":42.62331,"lng":-90.82069,"zip":"52073","miles_from_dt":18.03},{"city":"Marquette","state_name":"Iowa","lat":43.04388,"lng":-91.18647,"zip":"52158","miles_from_dt":18.25},{"city":"Holy Cross","state_name":"Iowa","lat":42.60656,"lng":-90.96399,"zip":"52053","miles_from_dt":18.85},{"city":"McGregor","state_name":"Iowa","lat":43.01661,"lng":-91.23216,"zip":"52157","miles_from_dt":19.08},{"city":"Garber","state_name":"Iowa","lat":42.73735,"lng":-91.25584,"zip":"52048","miles_from_dt":20.12},{"city":"Luxemburg","state_name":"Iowa","lat":42.60401,"lng":-91.07257,"zip":"52056","miles_from_dt":20.59},{"city":"Colesburg","state_name":"Iowa","lat":42.65996,"lng":-91.18784,"zip":"52035","miles_from_dt":20.64},{"city":"Boscobel","state_name":"Wisconsin","lat":43.14236,"lng":-90.68445,"zip":"53805","miles_from_dt":21.57},{"city":"Steuben","state_name":"Wisconsin","lat":43.19447,"lng":-90.90678,"zip":"54657","miles_from_dt":21.95},{"city":"Elkport","state_name":"Iowa","lat":42.76808,"lng":-91.32328,"zip":"52044","miles_from_dt":22.39},{"city":"New Vienna","state_name":"Iowa","lat":42.58353,"lng":-91.10202,"zip":"52065","miles_from_dt":22.5},{"city":"Farmersburg","state_name":"Iowa","lat":42.96401,"lng":-91.34301,"zip":"52047","miles_from_dt":22.88},{"city":"Platteville","state_name":"Wisconsin","lat":42.74725,"lng":-90.49177,"zip":"53818","miles_from_dt":22.96},{"city":"Dickeyville","state_name":"Wisconsin","lat":42.63745,"lng":-90.59204,"zip":"53808","miles_from_dt":23.03},{"city":"Livingston","state_name":"Wisconsin","lat":42.90205,"lng":-90.44919,"zip":"53554","miles_from_dt":23.35},{"city":"Durango","state_name":"Iowa","lat":42.53807,"lng":-90.85745,"zip":"52039","miles_from_dt":23.5},{"city":"Saint Olaf","state_name":"Iowa","lat":42.92022,"lng":-91.38025,"zip":"52072","miles_from_dt":24.16},{"city":"Eastman","state_name":"Wisconsin","lat":43.2162,"lng":-91.03608,"zip":"54626","miles_from_dt":24.33},{"city":"Dubuque","state_name":"Iowa","lat":42.54819,"lng":-90.69348,"zip":"52001","miles_from_dt":25.15},{"city":"Dubuque","state_name":"Iowa","lat":42.52481,"lng":-90.77184,"zip":"52002","miles_from_dt":25.24},{"city":"Montfort","state_name":"Wisconsin","lat":42.98105,"lng":-90.42966,"zip":"53569","miles_from_dt":25.31},{"city":"Kieler","state_name":"Wisconsin","lat":42.5808,"lng":-90.60239,"zip":"53812","miles_from_dt":25.66},{"city":"Harpers Ferry","state_name":"Iowa","lat":43.18826,"lng":-91.19588,"zip":"52146","miles_from_dt":26},{"city":"Elkader","state_name":"Iowa","lat":42.84403,"lng":-91.42201,"zip":"52043","miles_from_dt":26.2},{"city":"Rewey","state_name":"Wisconsin","lat":42.85943,"lng":-90.38131,"zip":"53580","miles_from_dt":26.77},{"city":"Edgewood","state_name":"Iowa","lat":42.68098,"lng":-91.36517,"zip":"52042","miles_from_dt":26.88},{"city":"Monona","state_name":"Iowa","lat":43.07979,"lng":-91.36134,"zip":"52159","miles_from_dt":26.93},{"city":"Seneca","state_name":"Wisconsin","lat":43.26853,"lng":-90.95419,"zip":"54654","miles_from_dt":27.17},{"city":"Dyersville","state_name":"Iowa","lat":42.51114,"lng":-91.13884,"zip":"52040","miles_from_dt":27.82},{"city":"Greeley","state_name":"Iowa","lat":42.60532,"lng":-91.33204,"zip":"52050","miles_from_dt":28.56},{"city":"Gays Mills","state_name":"Wisconsin","lat":43.28795,"lng":-90.8327,"zip":"54631","miles_from_dt":28.66},{"city":"Dubuque","state_name":"Iowa","lat":42.5001,"lng":-90.66775,"zip":"52004","miles_from_dt":28.71},{"city":"Cuba City","state_name":"Wisconsin","lat":42.61123,"lng":-90.46668,"zip":"53807","miles_from_dt":28.97},{"city":"Dubuque","state_name":"Iowa","lat":42.49588,"lng":-90.66751,"zip":"52099","miles_from_dt":28.98},{"city":"Epworth","state_name":"Iowa","lat":42.45485,"lng":-90.93113,"zip":"52045","miles_from_dt":29.13},{"city":"Cobb","state_name":"Wisconsin","lat":42.97433,"lng":-90.34438,"zip":"53526","miles_from_dt":29.38}],"targetCityZipCode":"53804","targetCityState":"Wisconsin"},"__N_SSG":true}