{"pageProps":{"stateName":"Wisconsin","cityName":"keshena","nearbyCities":[{"city":"Shawano","state_name":"Wisconsin","lat":44.77894,"lng":-88.63567,"zip":"54166","miles_from_dt":9.44},{"city":"Neopit","state_name":"Wisconsin","lat":44.97237,"lng":-88.7906,"zip":"54150","miles_from_dt":9.62},{"city":"Gresham","state_name":"Wisconsin","lat":44.86675,"lng":-88.80525,"zip":"54128","miles_from_dt":10.04},{"city":"Suring","state_name":"Wisconsin","lat":45.03553,"lng":-88.43492,"zip":"54174","miles_from_dt":12.04},{"city":"Gillett","state_name":"Wisconsin","lat":44.90701,"lng":-88.36616,"zip":"54124","miles_from_dt":12.08},{"city":"Cecil","state_name":"Wisconsin","lat":44.81572,"lng":-88.37992,"zip":"54111","miles_from_dt":13.29},{"city":"Bowler","state_name":"Wisconsin","lat":44.8822,"lng":-88.94153,"zip":"54416","miles_from_dt":16.32},{"city":"Leopolis","state_name":"Wisconsin","lat":44.7774,"lng":-88.88823,"zip":"54948","miles_from_dt":16.55},{"city":"Bonduel","state_name":"Wisconsin","lat":44.70068,"lng":-88.44436,"zip":"54107","miles_from_dt":16.92},{"city":"Tilleda","state_name":"Wisconsin","lat":44.79423,"lng":-88.91405,"zip":"54978","miles_from_dt":17},{"city":"Embarrass","state_name":"Wisconsin","lat":44.66535,"lng":-88.70966,"zip":"54933","miles_from_dt":17.87},{"city":"Caroline","state_name":"Wisconsin","lat":44.73894,"lng":-88.88546,"zip":"54928","miles_from_dt":18.1},{"city":"Green Valley","state_name":"Wisconsin","lat":44.79693,"lng":-88.26815,"zip":"54127","miles_from_dt":18.75},{"city":"Clintonville","state_name":"Wisconsin","lat":44.63704,"lng":-88.7372,"zip":"54929","miles_from_dt":20.13},{"city":"Krakow","state_name":"Wisconsin","lat":44.75843,"lng":-88.25605,"zip":"54137","miles_from_dt":20.55},{"city":"Elton","state_name":"Wisconsin","lat":45.1395,"lng":-88.8872,"zip":"54430","miles_from_dt":20.56},{"city":"Oconto Falls","state_name":"Wisconsin","lat":44.86702,"lng":-88.19058,"zip":"54154","miles_from_dt":20.95},{"city":"Mountain","state_name":"Wisconsin","lat":45.204,"lng":-88.47445,"zip":"54149","miles_from_dt":21.08},{"city":"Mattoon","state_name":"Wisconsin","lat":45.00367,"lng":-89.04172,"zip":"54450","miles_from_dt":21.94},{"city":"Phlox","state_name":"Wisconsin","lat":45.05486,"lng":-89.01748,"zip":"54464","miles_from_dt":22.1},{"city":"Marion","state_name":"Wisconsin","lat":44.65408,"lng":-88.90614,"zip":"54950","miles_from_dt":23.08},{"city":"White Lake","state_name":"Wisconsin","lat":45.2343,"lng":-88.76541,"zip":"54491","miles_from_dt":23.31},{"city":"Pulaski","state_name":"Wisconsin","lat":44.66417,"lng":-88.27689,"zip":"54162","miles_from_dt":23.89},{"city":"Nichols","state_name":"Wisconsin","lat":44.56645,"lng":-88.47049,"zip":"54152","miles_from_dt":25.04},{"city":"Tigerton","state_name":"Wisconsin","lat":44.72595,"lng":-89.05124,"zip":"54486","miles_from_dt":25.21},{"city":"Bear Creek","state_name":"Wisconsin","lat":44.54281,"lng":-88.74529,"zip":"54922","miles_from_dt":26.5},{"city":"Pound","state_name":"Wisconsin","lat":45.12449,"lng":-88.15696,"zip":"54161","miles_from_dt":26.59},{"city":"Lena","state_name":"Wisconsin","lat":44.9539,"lng":-88.07152,"zip":"54139","miles_from_dt":26.65},{"city":"Townsend","state_name":"Wisconsin","lat":45.30552,"lng":-88.62394,"zip":"54175","miles_from_dt":27},{"city":"Shiocton","state_name":"Wisconsin","lat":44.51783,"lng":-88.57241,"zip":"54170","miles_from_dt":27.47},{"city":"Bryant","state_name":"Wisconsin","lat":45.21566,"lng":-88.98003,"zip":"54418","miles_from_dt":27.5},{"city":"Sobieski","state_name":"Wisconsin","lat":44.71957,"lng":-88.12017,"zip":"54171","miles_from_dt":27.68},{"city":"Birnamwood","state_name":"Wisconsin","lat":44.95589,"lng":-89.18202,"zip":"54414","miles_from_dt":28.1},{"city":"Abrams","state_name":"Wisconsin","lat":44.78786,"lng":-88.05927,"zip":"54101","miles_from_dt":28.53},{"city":"Big Falls","state_name":"Wisconsin","lat":44.61553,"lng":-89.01823,"zip":"54926","miles_from_dt":28.74},{"city":"Coleman","state_name":"Wisconsin","lat":45.04527,"lng":-88.04743,"zip":"54112","miles_from_dt":29.11},{"city":"Wittenberg","state_name":"Wisconsin","lat":44.78963,"lng":-89.1801,"zip":"54499","miles_from_dt":29.21}],"targetCityZipCode":"54135","targetCityState":"Wisconsin"},"__N_SSG":true}