{"pageProps":{"stateName":"Wisconsin","cityName":"woodville","nearbyCities":[{"city":"Baldwin","state_name":"Wisconsin","lat":44.95871,"lng":-92.37121,"zip":"54002","miles_from_dt":4.34},{"city":"Wilson","state_name":"Wisconsin","lat":44.92403,"lng":-92.19985,"zip":"54027","miles_from_dt":4.61},{"city":"Hammond","state_name":"Wisconsin","lat":44.96899,"lng":-92.45419,"zip":"54015","miles_from_dt":8.46},{"city":"Spring Valley","state_name":"Wisconsin","lat":44.82645,"lng":-92.25513,"zip":"54767","miles_from_dt":9},{"city":"Knapp","state_name":"Wisconsin","lat":44.94862,"lng":-92.09785,"zip":"54749","miles_from_dt":9.08},{"city":"Glenwood City","state_name":"Wisconsin","lat":45.08134,"lng":-92.22929,"zip":"54013","miles_from_dt":9.09},{"city":"Downing","state_name":"Wisconsin","lat":45.09045,"lng":-92.11358,"zip":"54734","miles_from_dt":12.48},{"city":"Roberts","state_name":"Wisconsin","lat":44.97708,"lng":-92.55218,"zip":"54023","miles_from_dt":13.29},{"city":"Beldenville","state_name":"Wisconsin","lat":44.79019,"lng":-92.44218,"zip":"54003","miles_from_dt":13.83},{"city":"Boyceville","state_name":"Wisconsin","lat":45.07103,"lng":-92.01062,"zip":"54725","miles_from_dt":15.54},{"city":"Elmwood","state_name":"Wisconsin","lat":44.74427,"lng":-92.15853,"zip":"54740","miles_from_dt":15.8},{"city":"New Richmond","state_name":"Wisconsin","lat":45.11907,"lng":-92.52091,"zip":"54017","miles_from_dt":16.24},{"city":"Deer Park","state_name":"Wisconsin","lat":45.18781,"lng":-92.35734,"zip":"54007","miles_from_dt":16.46},{"city":"River Falls","state_name":"Wisconsin","lat":44.84796,"lng":-92.6096,"zip":"54022","miles_from_dt":17.67},{"city":"Ellsworth","state_name":"Wisconsin","lat":44.71648,"lng":-92.46279,"zip":"54011","miles_from_dt":18.71},{"city":"Menomonie","state_name":"Wisconsin","lat":44.84971,"lng":-91.92994,"zip":"54751","miles_from_dt":18.79},{"city":"Clear Lake","state_name":"Wisconsin","lat":45.23447,"lng":-92.23051,"zip":"54005","miles_from_dt":19.45},{"city":"Hudson","state_name":"Wisconsin","lat":44.97949,"lng":-92.69305,"zip":"54016","miles_from_dt":20.18},{"city":"Downsville","state_name":"Wisconsin","lat":44.77598,"lng":-91.93058,"zip":"54735","miles_from_dt":21.27},{"city":"Eau Galle","state_name":"Wisconsin","lat":44.71593,"lng":-91.98298,"zip":"54737","miles_from_dt":22.14},{"city":"Wheeler","state_name":"Wisconsin","lat":45.09668,"lng":-91.87303,"zip":"54772","miles_from_dt":22.31},{"city":"Star Prairie","state_name":"Wisconsin","lat":45.22688,"lng":-92.53459,"zip":"54026","miles_from_dt":22.44},{"city":"Maiden Rock","state_name":"Wisconsin","lat":44.62052,"lng":-92.29513,"zip":"54750","miles_from_dt":23.13},{"city":"Plum City","state_name":"Wisconsin","lat":44.62667,"lng":-92.17908,"zip":"54761","miles_from_dt":23.26},{"city":"Somerset","state_name":"Wisconsin","lat":45.14184,"lng":-92.68997,"zip":"54025","miles_from_dt":23.73},{"city":"Lakeland","state_name":"Minnesota","lat":44.94064,"lng":-92.76902,"zip":"55043","miles_from_dt":23.86},{"city":"Houlton","state_name":"Wisconsin","lat":45.0696,"lng":-92.75403,"zip":"54082","miles_from_dt":24.39},{"city":"Bayport","state_name":"Minnesota","lat":45.01183,"lng":-92.77883,"zip":"55003","miles_from_dt":24.62},{"city":"Arkansaw","state_name":"Wisconsin","lat":44.6304,"lng":-92.07098,"zip":"54721","miles_from_dt":24.74},{"city":"Bay City","state_name":"Wisconsin","lat":44.61063,"lng":-92.42893,"zip":"54723","miles_from_dt":24.86},{"city":"Prairie Farm","state_name":"Wisconsin","lat":45.25107,"lng":-91.98967,"zip":"54762","miles_from_dt":24.95},{"city":"Ridgeland","state_name":"Wisconsin","lat":45.179,"lng":-91.87683,"zip":"54763","miles_from_dt":25.16},{"city":"Clayton","state_name":"Wisconsin","lat":45.30699,"lng":-92.12414,"zip":"54004","miles_from_dt":25.49},{"city":"Hager City","state_name":"Wisconsin","lat":44.64578,"lng":-92.57048,"zip":"54014","miles_from_dt":25.63},{"city":"Prescott","state_name":"Wisconsin","lat":44.74048,"lng":-92.71144,"zip":"54021","miles_from_dt":25.76},{"city":"Afton","state_name":"Minnesota","lat":44.90138,"lng":-92.81969,"zip":"55001","miles_from_dt":26.6},{"city":"Amery","state_name":"Wisconsin","lat":45.33417,"lng":-92.38703,"zip":"54001","miles_from_dt":26.65},{"city":"Stillwater","state_name":"Minnesota","lat":45.0584,"lng":-92.82583,"zip":"55083","miles_from_dt":27.54},{"city":"Colfax","state_name":"Wisconsin","lat":45.01836,"lng":-91.72143,"zip":"54730","miles_from_dt":27.85},{"city":"Stillwater","state_name":"Minnesota","lat":45.07446,"lng":-92.84006,"zip":"55082","miles_from_dt":28.51},{"city":"Osceola","state_name":"Wisconsin","lat":45.27937,"lng":-92.65235,"zip":"54020","miles_from_dt":28.76},{"city":"Elk Mound","state_name":"Wisconsin","lat":44.86177,"lng":-91.70097,"zip":"54739","miles_from_dt":29.27}],"targetCityZipCode":"54028","targetCityState":"Wisconsin"},"__N_SSG":true}