{"pageProps":{"stateName":"New-hampshire","cityName":"lisbon","nearbyCities":[{"city":"Sugar Hill","state_name":"New Hampshire","lat":44.22058,"lng":-71.7963,"zip":"03586","miles_from_dt":5.01},{"city":"Bath","state_name":"New Hampshire","lat":44.18025,"lng":-71.98626,"zip":"03740","miles_from_dt":5.42},{"city":"Monroe","state_name":"New Hampshire","lat":44.28443,"lng":-72.0098,"zip":"03771","miles_from_dt":6.92},{"city":"Littleton","state_name":"New Hampshire","lat":44.33222,"lng":-71.80973,"zip":"03561","miles_from_dt":8.55},{"city":"McIndoe Falls","state_name":"Vermont","lat":44.26442,"lng":-72.06414,"zip":"05050","miles_from_dt":8.72},{"city":"Lower Waterford","state_name":"Vermont","lat":44.35558,"lng":-71.90806,"zip":"05848","miles_from_dt":9.01},{"city":"East Ryegate","state_name":"Vermont","lat":44.24013,"lng":-72.1053,"zip":"05042","miles_from_dt":10.39},{"city":"North Haverhill","state_name":"New Hampshire","lat":44.09097,"lng":-71.9947,"zip":"03774","miles_from_dt":10.47},{"city":"Franconia","state_name":"New Hampshire","lat":44.17347,"lng":-71.69519,"zip":"03580","miles_from_dt":10.65},{"city":"Wells River","state_name":"Vermont","lat":44.14292,"lng":-72.08451,"zip":"05081","miles_from_dt":10.92},{"city":"Woodsville","state_name":"New Hampshire","lat":44.06525,"lng":-71.87017,"zip":"03785","miles_from_dt":11.14},{"city":"Barnet","state_name":"Vermont","lat":44.3175,"lng":-72.10866,"zip":"05821","miles_from_dt":12.28},{"city":"Passumpsic","state_name":"Vermont","lat":44.37735,"lng":-72.03142,"zip":"05861","miles_from_dt":12.43},{"city":"South Ryegate","state_name":"Vermont","lat":44.17366,"lng":-72.14317,"zip":"05069","miles_from_dt":12.74},{"city":"Saint Johnsbury","state_name":"Vermont","lat":44.40397,"lng":-71.98837,"zip":"05819","miles_from_dt":13.14},{"city":"Pike","state_name":"New Hampshire","lat":44.03169,"lng":-71.97142,"zip":"03780","miles_from_dt":13.88},{"city":"Newbury","state_name":"Vermont","lat":44.08525,"lng":-72.11753,"zip":"05051","miles_from_dt":14.62},{"city":"Concord","state_name":"Vermont","lat":44.43741,"lng":-71.86449,"zip":"05824","miles_from_dt":14.73},{"city":"Bethlehem","state_name":"New Hampshire","lat":44.25386,"lng":-71.59924,"zip":"03574","miles_from_dt":14.91},{"city":"East Saint Johnsbury","state_name":"Vermont","lat":44.43944,"lng":-71.94369,"zip":"05838","miles_from_dt":14.96},{"city":"Haverhill","state_name":"New Hampshire","lat":44.03452,"lng":-72.05231,"zip":"03765","miles_from_dt":15.27},{"city":"West Newbury","state_name":"Vermont","lat":44.06947,"lng":-72.12163,"zip":"05085","miles_from_dt":15.51},{"city":"Lincoln","state_name":"New Hampshire","lat":44.0796,"lng":-71.65276,"zip":"03251","miles_from_dt":15.77},{"city":"Gilman","state_name":"Vermont","lat":44.41597,"lng":-71.70762,"zip":"05904","miles_from_dt":16.17},{"city":"Saint Johnsbury Center","state_name":"Vermont","lat":44.4529,"lng":-72.01214,"zip":"05863","miles_from_dt":16.71},{"city":"Glencliff","state_name":"New Hampshire","lat":43.98168,"lng":-71.88701,"zip":"03238","miles_from_dt":16.83},{"city":"Whitefield","state_name":"New Hampshire","lat":44.37998,"lng":-71.63179,"zip":"03598","miles_from_dt":16.94},{"city":"Topsham","state_name":"Vermont","lat":44.14503,"lng":-72.22659,"zip":"05076","miles_from_dt":17.29},{"city":"North Woodstock","state_name":"New Hampshire","lat":43.99885,"lng":-71.73813,"zip":"03262","miles_from_dt":17.52},{"city":"Groton","state_name":"Vermont","lat":44.23864,"lng":-72.25024,"zip":"05046","miles_from_dt":17.56},{"city":"Peacham","state_name":"Vermont","lat":44.31971,"lng":-72.23133,"zip":"05862","miles_from_dt":17.82},{"city":"Danville","state_name":"Vermont","lat":44.43748,"lng":-72.12334,"zip":"05828","miles_from_dt":18.45},{"city":"Piermont","state_name":"New Hampshire","lat":43.97477,"lng":-72.03089,"zip":"03779","miles_from_dt":18.54},{"city":"East Corinth","state_name":"Vermont","lat":44.06796,"lng":-72.20438,"zip":"05040","miles_from_dt":18.75},{"city":"Mount Washington","state_name":"New Hampshire","lat":44.34785,"lng":-71.55185,"zip":"03589","miles_from_dt":19.09},{"city":"Twin Mountain","state_name":"New Hampshire","lat":44.30616,"lng":-71.527,"zip":"03595","miles_from_dt":19.19},{"city":"Warren","state_name":"New Hampshire","lat":43.94468,"lng":-71.88231,"zip":"03279","miles_from_dt":19.39},{"city":"Lunenburg","state_name":"Vermont","lat":44.47431,"lng":-71.71538,"zip":"05906","miles_from_dt":19.4},{"city":"West Danville","state_name":"Vermont","lat":44.40619,"lng":-72.21841,"zip":"05873","miles_from_dt":20.24},{"city":"Bradford","state_name":"Vermont","lat":44.00229,"lng":-72.16412,"zip":"05033","miles_from_dt":20.34},{"city":"Woodstock","state_name":"New Hampshire","lat":43.97696,"lng":-71.67721,"zip":"03293","miles_from_dt":20.34},{"city":"West Topsham","state_name":"Vermont","lat":44.1182,"lng":-72.30249,"zip":"05086","miles_from_dt":21.46},{"city":"Lyndon","state_name":"Vermont","lat":44.53289,"lng":-72.00029,"zip":"05849","miles_from_dt":21.84},{"city":"North Concord","state_name":"Vermont","lat":44.53587,"lng":-71.8046,"zip":"05858","miles_from_dt":21.92},{"city":"Cabot","state_name":"Vermont","lat":44.41001,"lng":-72.29126,"zip":"05647","miles_from_dt":23.33},{"city":"Corinth","state_name":"Vermont","lat":44.03407,"lng":-72.2975,"zip":"05039","miles_from_dt":23.9},{"city":"Lyndonville","state_name":"Vermont","lat":44.55297,"lng":-72.05732,"zip":"05851","miles_from_dt":23.97},{"city":"East Barre","state_name":"Vermont","lat":44.14004,"lng":-72.36589,"zip":"05649","miles_from_dt":24.03},{"city":"Lyndon Center","state_name":"Vermont","lat":44.55955,"lng":-72.03417,"zip":"05850","miles_from_dt":24.05},{"city":"Bretton Woods","state_name":"New Hampshire","lat":44.28946,"lng":-71.41722,"zip":"03575","miles_from_dt":24.22},{"city":"Orford","state_name":"New Hampshire","lat":43.89548,"lng":-72.06672,"zip":"03777","miles_from_dt":24.29},{"city":"Thornton","state_name":"New Hampshire","lat":43.92408,"lng":-71.64359,"zip":"03285","miles_from_dt":24.33},{"city":"Waterville Valley","state_name":"New Hampshire","lat":44.03605,"lng":-71.48109,"zip":"03215","miles_from_dt":24.47},{"city":"Marshfield","state_name":"Vermont","lat":44.35921,"lng":-72.35399,"zip":"05658","miles_from_dt":24.47},{"city":"Jefferson","state_name":"New Hampshire","lat":44.40148,"lng":-71.4583,"zip":"03583","miles_from_dt":24.92},{"city":"Lancaster","state_name":"New Hampshire","lat":44.48696,"lng":-71.54278,"zip":"03584","miles_from_dt":25.18},{"city":"Plainfield","state_name":"Vermont","lat":44.28122,"lng":-72.3986,"zip":"05667","miles_from_dt":25.19},{"city":"Wentworth","state_name":"New Hampshire","lat":43.86006,"lng":-71.9295,"zip":"03282","miles_from_dt":25.27},{"city":"East Burke","state_name":"Vermont","lat":44.59546,"lng":-71.91027,"zip":"05832","miles_from_dt":25.56},{"city":"Fairlee","state_name":"Vermont","lat":43.9144,"lng":-72.19881,"zip":"05045","miles_from_dt":26.2},{"city":"East Hardwick","state_name":"Vermont","lat":44.5196,"lng":-72.25173,"zip":"05836","miles_from_dt":26.86},{"city":"Barre","state_name":"Vermont","lat":44.18602,"lng":-72.45108,"zip":"05641","miles_from_dt":27.65},{"city":"Washington","state_name":"Vermont","lat":44.07386,"lng":-72.41821,"zip":"05675","miles_from_dt":27.94},{"city":"Granby","state_name":"Vermont","lat":44.61297,"lng":-71.73129,"zip":"05840","miles_from_dt":27.99},{"city":"North Montpelier","state_name":"Vermont","lat":44.34125,"lng":-72.43873,"zip":"05666","miles_from_dt":28.03},{"city":"West Fairlee","state_name":"Vermont","lat":43.9184,"lng":-72.26782,"zip":"05083","miles_from_dt":28.1},{"city":"Vershire","state_name":"Vermont","lat":43.95622,"lng":-72.32214,"zip":"05079","miles_from_dt":28.16},{"city":"Campton","state_name":"New Hampshire","lat":43.84784,"lng":-71.67597,"zip":"03223","miles_from_dt":28.3},{"city":"Woodbury","state_name":"Vermont","lat":44.45377,"lng":-72.38016,"zip":"05681","miles_from_dt":28.67},{"city":"Hardwick","state_name":"Vermont","lat":44.50355,"lng":-72.33366,"zip":"05843","miles_from_dt":28.92},{"city":"Websterville","state_name":"Vermont","lat":44.15577,"lng":-72.47445,"zip":"05678","miles_from_dt":29.08},{"city":"Randolph","state_name":"New Hampshire","lat":44.29816,"lng":-71.31774,"zip":"03593","miles_from_dt":29.18},{"city":"Graniteville","state_name":"Vermont","lat":44.14053,"lng":-72.48092,"zip":"05654","miles_from_dt":29.6},{"city":"East Calais","state_name":"Vermont","lat":44.4002,"lng":-72.44235,"zip":"05650","miles_from_dt":29.61},{"city":"East Montpelier","state_name":"Vermont","lat":44.27777,"lng":-72.49246,"zip":"05651","miles_from_dt":29.77},{"city":"Rumney","state_name":"New Hampshire","lat":43.79407,"lng":-71.89035,"zip":"03266","miles_from_dt":29.78},{"city":"Greensboro Bend","state_name":"Vermont","lat":44.57966,"lng":-72.24453,"zip":"05842","miles_from_dt":29.9}],"targetCityZipCode":"03585","targetCityState":"New Hampshire"},"__N_SSG":true}