{"pageProps":{"stateName":"Georgia","cityName":"de-soto","nearbyCities":[{"city":"Cobb","state_name":"Georgia","lat":31.97195,"lng":-83.96446,"zip":"31735","miles_from_dt":5.47},{"city":"Leslie","state_name":"Georgia","lat":31.9772,"lng":-84.08135,"zip":"31764","miles_from_dt":6.87},{"city":"Warwick","state_name":"Georgia","lat":31.77351,"lng":-83.87659,"zip":"31796","miles_from_dt":11.62},{"city":"Oakfield","state_name":"Georgia","lat":31.72213,"lng":-83.96504,"zip":"31772","miles_from_dt":12.55},{"city":"Americus","state_name":"Georgia","lat":32.05071,"lng":-84.14011,"zip":"31709","miles_from_dt":12.98},{"city":"Cordele","state_name":"Georgia","lat":31.95392,"lng":-83.78295,"zip":"31010","miles_from_dt":13.61},{"city":"Cordele","state_name":"Georgia","lat":31.93729,"lng":-83.77444,"zip":"31015","miles_from_dt":13.84},{"city":"Leesburg","state_name":"Georgia","lat":31.73889,"lng":-84.14711,"zip":"31763","miles_from_dt":13.91},{"city":"Smithville","state_name":"Georgia","lat":31.89994,"lng":-84.24947,"zip":"31787","miles_from_dt":14.31},{"city":"Arabi","state_name":"Georgia","lat":31.8215,"lng":-83.72806,"zip":"31712","miles_from_dt":17.24},{"city":"Lilly","state_name":"Georgia","lat":32.14456,"lng":-83.87812,"zip":"31051","miles_from_dt":18.39},{"city":"Vienna","state_name":"Georgia","lat":32.08984,"lng":-83.78304,"zip":"31092","miles_from_dt":18.46},{"city":"Bronwood","state_name":"Georgia","lat":31.82092,"lng":-84.32423,"zip":"39826","miles_from_dt":19.51},{"city":"Byromville","state_name":"Georgia","lat":32.18917,"lng":-83.93377,"zip":"31007","miles_from_dt":20.31},{"city":"Andersonville","state_name":"Georgia","lat":32.18766,"lng":-84.12258,"zip":"31711","miles_from_dt":20.91},{"city":"Americus","state_name":"Georgia","lat":32.08261,"lng":-84.29768,"zip":"31719","miles_from_dt":21.21},{"city":"Albany","state_name":"Georgia","lat":31.59339,"lng":-84.14105,"zip":"31708","miles_from_dt":22.63},{"city":"Sasser","state_name":"Georgia","lat":31.72189,"lng":-84.34304,"zip":"39885","miles_from_dt":23.35},{"city":"Ashburn","state_name":"Georgia","lat":31.71075,"lng":-83.67496,"zip":"31714","miles_from_dt":23.48},{"city":"Pinehurst","state_name":"Georgia","lat":32.18801,"lng":-83.78669,"zip":"31070","miles_from_dt":23.6},{"city":"Albany","state_name":"Georgia","lat":31.59825,"lng":-84.19996,"zip":"31702","miles_from_dt":23.77},{"city":"Albany","state_name":"Georgia","lat":31.57908,"lng":-84.15624,"zip":"31706","miles_from_dt":23.87},{"city":"Albany","state_name":"Georgia","lat":31.57707,"lng":-84.15307,"zip":"31703","miles_from_dt":23.93},{"city":"Seville","state_name":"Georgia","lat":31.96152,"lng":-83.6028,"zip":"31084","miles_from_dt":24.06},{"city":"Albany","state_name":"Georgia","lat":31.57376,"lng":-84.15508,"zip":"31701","miles_from_dt":24.19},{"city":"Plains","state_name":"Georgia","lat":32.02898,"lng":-84.39024,"zip":"31780","miles_from_dt":24.23},{"city":"Albany","state_name":"Georgia","lat":31.551,"lng":-84.05634,"zip":"31704","miles_from_dt":24.29},{"city":"Albany","state_name":"Georgia","lat":31.58736,"lng":-84.20689,"zip":"31707","miles_from_dt":24.63},{"city":"Pitts","state_name":"Georgia","lat":31.96582,"lng":-83.56619,"zip":"31072","miles_from_dt":26.23},{"city":"Sylvester","state_name":"Georgia","lat":31.53383,"lng":-83.87833,"zip":"31791","miles_from_dt":26.38},{"city":"Poulan","state_name":"Georgia","lat":31.56062,"lng":-83.79316,"zip":"31781","miles_from_dt":26.59},{"city":"Albany","state_name":"Georgia","lat":31.51169,"lng":-84.05333,"zip":"31705","miles_from_dt":26.96},{"city":"Montezuma","state_name":"Georgia","lat":32.29249,"lng":-83.9648,"zip":"31063","miles_from_dt":27.09},{"city":"Dawson","state_name":"Georgia","lat":31.75837,"lng":-84.44314,"zip":"39842","miles_from_dt":27.52},{"city":"Unadilla","state_name":"Georgia","lat":32.23653,"lng":-83.69966,"zip":"31091","miles_from_dt":29.29},{"city":"Parrott","state_name":"Georgia","lat":31.9183,"lng":-84.50647,"zip":"39877","miles_from_dt":29.44}],"targetCityZipCode":"31743","targetCityState":"Georgia"},"__N_SSG":true}