{"pageProps":{"stateName":"Georgia","cityName":"norristown","nearbyCities":[{"city":"Adrian","state_name":"Georgia","lat":32.54802,"lng":-82.59012,"zip":"31002","miles_from_dt":6.36},{"city":"Nunez","state_name":"Georgia","lat":32.48754,"lng":-82.36444,"zip":"30448","miles_from_dt":7.68},{"city":"Soperton","state_name":"Georgia","lat":32.39852,"lng":-82.56498,"zip":"30457","miles_from_dt":8.35},{"city":"Swainsboro","state_name":"Georgia","lat":32.604,"lng":-82.34825,"zip":"30401","miles_from_dt":10.97},{"city":"Tarrytown","state_name":"Georgia","lat":32.33018,"lng":-82.51818,"zip":"30470","miles_from_dt":12.05},{"city":"Kite","state_name":"Georgia","lat":32.68281,"lng":-82.52634,"zip":"31049","miles_from_dt":12.46},{"city":"Rockledge","state_name":"Georgia","lat":32.43857,"lng":-82.73421,"zip":"30454","miles_from_dt":14.71},{"city":"Stillmore","state_name":"Georgia","lat":32.43509,"lng":-82.22186,"zip":"30464","miles_from_dt":16.62},{"city":"Twin City","state_name":"Georgia","lat":32.53816,"lng":-82.18563,"zip":"30471","miles_from_dt":18.18},{"city":"Wrightsville","state_name":"Georgia","lat":32.71875,"lng":-82.70636,"zip":"31096","miles_from_dt":19.28},{"city":"East Dublin","state_name":"Georgia","lat":32.57405,"lng":-82.81959,"zip":"31027","miles_from_dt":19.58},{"city":"Vidalia","state_name":"Georgia","lat":32.22393,"lng":-82.41381,"zip":"30474","miles_from_dt":19.86},{"city":"Vidalia","state_name":"Georgia","lat":32.21108,"lng":-82.40389,"zip":"30475","miles_from_dt":20.86},{"city":"Ailey","state_name":"Georgia","lat":32.18655,"lng":-82.51767,"zip":"30410","miles_from_dt":21.91},{"city":"Glenwood","state_name":"Georgia","lat":32.21706,"lng":-82.71436,"zip":"30428","miles_from_dt":23.58},{"city":"Mount Vernon","state_name":"Georgia","lat":32.16715,"lng":-82.58413,"zip":"30445","miles_from_dt":23.79},{"city":"Dublin","state_name":"Georgia","lat":32.54794,"lng":-82.90164,"zip":"31040","miles_from_dt":23.96},{"city":"Wadley","state_name":"Georgia","lat":32.86279,"lng":-82.3979,"zip":"30477","miles_from_dt":25.36},{"city":"Cobbtown","state_name":"Georgia","lat":32.30363,"lng":-82.12958,"zip":"30420","miles_from_dt":25.41},{"city":"Metter","state_name":"Georgia","lat":32.4169,"lng":-82.07112,"zip":"30439","miles_from_dt":25.45},{"city":"Dublin","state_name":"Georgia","lat":32.49002,"lng":-82.93435,"zip":"31021","miles_from_dt":25.71},{"city":"Midville","state_name":"Georgia","lat":32.81467,"lng":-82.23682,"zip":"30441","miles_from_dt":26.15},{"city":"Bartow","state_name":"Georgia","lat":32.88467,"lng":-82.51393,"zip":"30413","miles_from_dt":26.26},{"city":"Harrison","state_name":"Georgia","lat":32.84601,"lng":-82.7062,"zip":"31035","miles_from_dt":26.61},{"city":"Lyons","state_name":"Georgia","lat":32.1494,"lng":-82.29026,"zip":"30436","miles_from_dt":27.2},{"city":"Rentz","state_name":"Georgia","lat":32.35428,"lng":-82.95277,"zip":"31075","miles_from_dt":28.7},{"city":"Garfield","state_name":"Georgia","lat":32.64732,"lng":-82.02337,"zip":"30425","miles_from_dt":29.21},{"city":"Alston","state_name":"Georgia","lat":32.07973,"lng":-82.48643,"zip":"30412","miles_from_dt":29.23}],"targetCityZipCode":"30447","targetCityState":"Georgia"},"__N_SSG":true}