{"pageProps":{"stateName":"Georgia","cityName":"pineview","nearbyCities":[{"city":"Hawkinsville","state_name":"Georgia","lat":32.27055,"lng":-83.49597,"zip":"31036","miles_from_dt":9.59},{"city":"Pitts","state_name":"Georgia","lat":31.96582,"lng":-83.56619,"zip":"31072","miles_from_dt":11.82},{"city":"Unadilla","state_name":"Georgia","lat":32.23653,"lng":-83.69966,"zip":"31091","miles_from_dt":12.58},{"city":"Seville","state_name":"Georgia","lat":31.96152,"lng":-83.6028,"zip":"31084","miles_from_dt":12.74},{"city":"Rochelle","state_name":"Georgia","lat":31.94104,"lng":-83.46303,"zip":"31079","miles_from_dt":13.7},{"city":"Abbeville","state_name":"Georgia","lat":31.97595,"lng":-83.33979,"zip":"31001","miles_from_dt":15.25},{"city":"Vienna","state_name":"Georgia","lat":32.08984,"lng":-83.78304,"zip":"31092","miles_from_dt":15.57},{"city":"Pinehurst","state_name":"Georgia","lat":32.18801,"lng":-83.78669,"zip":"31070","miles_from_dt":15.94},{"city":"Clinchfield","state_name":"Georgia","lat":32.33768,"lng":-83.73144,"zip":"31013","miles_from_dt":18.66},{"city":"Elko","state_name":"Georgia","lat":32.33833,"lng":-83.73876,"zip":"31025","miles_from_dt":18.97},{"city":"Eastman","state_name":"Georgia","lat":32.18288,"lng":-83.1991,"zip":"31023","miles_from_dt":19.26},{"city":"Cordele","state_name":"Georgia","lat":31.95392,"lng":-83.78295,"zip":"31010","miles_from_dt":19.65},{"city":"Cordele","state_name":"Georgia","lat":31.93729,"lng":-83.77444,"zip":"31015","miles_from_dt":20.02},{"city":"Lilly","state_name":"Georgia","lat":32.14456,"lng":-83.87812,"zip":"31051","miles_from_dt":20.86},{"city":"Cochran","state_name":"Georgia","lat":32.41439,"lng":-83.34504,"zip":"31014","miles_from_dt":21.98},{"city":"Kathleen","state_name":"Georgia","lat":32.46786,"lng":-83.58009,"zip":"31047","miles_from_dt":23.3},{"city":"Byromville","state_name":"Georgia","lat":32.18917,"lng":-83.93377,"zip":"31007","miles_from_dt":24.41},{"city":"Rhine","state_name":"Georgia","lat":31.93489,"lng":-83.17727,"zip":"31077","miles_from_dt":24.44},{"city":"Arabi","state_name":"Georgia","lat":31.8215,"lng":-83.72806,"zip":"31712","miles_from_dt":24.64},{"city":"Perry","state_name":"Georgia","lat":32.4406,"lng":-83.74373,"zip":"31069","miles_from_dt":24.82},{"city":"Rebecca","state_name":"Georgia","lat":31.76416,"lng":-83.4738,"zip":"31783","miles_from_dt":25.59},{"city":"Chester","state_name":"Georgia","lat":32.39422,"lng":-83.17717,"zip":"31012","miles_from_dt":27.06},{"city":"Chauncey","state_name":"Georgia","lat":32.13315,"lng":-83.0556,"zip":"31011","miles_from_dt":27.38},{"city":"Montezuma","state_name":"Georgia","lat":32.29249,"lng":-83.9648,"zip":"31063","miles_from_dt":28.13},{"city":"Cobb","state_name":"Georgia","lat":31.97195,"lng":-83.96446,"zip":"31735","miles_from_dt":28.21},{"city":"Bonaire","state_name":"Georgia","lat":32.54533,"lng":-83.59497,"zip":"31005","miles_from_dt":28.71},{"city":"Milan","state_name":"Georgia","lat":31.98333,"lng":-83.05673,"zip":"31060","miles_from_dt":29.22}],"targetCityZipCode":"31071","targetCityState":"Georgia"},"__N_SSG":true}