{"pageProps":{"stateName":"Georgia","cityName":"rebecca","nearbyCities":[{"city":"Irwinville","state_name":"Georgia","lat":31.65664,"lng":-83.41012,"zip":"31760","miles_from_dt":8.3},{"city":"Sycamore","state_name":"Georgia","lat":31.64823,"lng":-83.5693,"zip":"31790","miles_from_dt":9.77},{"city":"Chula","state_name":"Georgia","lat":31.59293,"lng":-83.48599,"zip":"31733","miles_from_dt":11.82},{"city":"Rochelle","state_name":"Georgia","lat":31.94104,"lng":-83.46303,"zip":"31079","miles_from_dt":12.2},{"city":"Ashburn","state_name":"Georgia","lat":31.71075,"lng":-83.67496,"zip":"31714","miles_from_dt":12.4},{"city":"Pitts","state_name":"Georgia","lat":31.96582,"lng":-83.56619,"zip":"31072","miles_from_dt":14.92},{"city":"Fitzgerald","state_name":"Georgia","lat":31.73391,"lng":-83.21752,"zip":"31750","miles_from_dt":15.23},{"city":"Arabi","state_name":"Georgia","lat":31.8215,"lng":-83.72806,"zip":"31712","miles_from_dt":15.48},{"city":"Seville","state_name":"Georgia","lat":31.96152,"lng":-83.6028,"zip":"31084","miles_from_dt":15.57},{"city":"Abbeville","state_name":"Georgia","lat":31.97595,"lng":-83.33979,"zip":"31001","miles_from_dt":16.58},{"city":"Mystic","state_name":"Georgia","lat":31.56307,"lng":-83.27042,"zip":"31769","miles_from_dt":18.32},{"city":"Ocilla","state_name":"Georgia","lat":31.56102,"lng":-83.27125,"zip":"31774","miles_from_dt":18.39},{"city":"Rhine","state_name":"Georgia","lat":31.93489,"lng":-83.17727,"zip":"31077","miles_from_dt":21.04},{"city":"Cordele","state_name":"Georgia","lat":31.93729,"lng":-83.77444,"zip":"31015","miles_from_dt":21.33},{"city":"Tifton","state_name":"Georgia","lat":31.46104,"lng":-83.58386,"zip":"31793","miles_from_dt":21.87},{"city":"Tifton","state_name":"Georgia","lat":31.44418,"lng":-83.45151,"zip":"31794","miles_from_dt":22.08},{"city":"Cordele","state_name":"Georgia","lat":31.95392,"lng":-83.78295,"zip":"31010","miles_from_dt":22.39},{"city":"Ty Ty","state_name":"Georgia","lat":31.47611,"lng":-83.67633,"zip":"31795","miles_from_dt":23.16},{"city":"Poulan","state_name":"Georgia","lat":31.56062,"lng":-83.79316,"zip":"31781","miles_from_dt":23.47},{"city":"Warwick","state_name":"Georgia","lat":31.77351,"lng":-83.87659,"zip":"31796","miles_from_dt":23.72},{"city":"Brookfield","state_name":"Georgia","lat":31.41778,"lng":-83.3874,"zip":"31727","miles_from_dt":24.4},{"city":"Sumner","state_name":"Georgia","lat":31.47858,"lng":-83.73257,"zip":"31789","miles_from_dt":24.9},{"city":"Enigma","state_name":"Georgia","lat":31.42128,"lng":-83.3315,"zip":"31749","miles_from_dt":25.07},{"city":"Pineview","state_name":"Georgia","lat":32.13325,"lng":-83.52255,"zip":"31071","miles_from_dt":25.59},{"city":"Wray","state_name":"Georgia","lat":31.64117,"lng":-83.04333,"zip":"31798","miles_from_dt":26.73},{"city":"Sylvester","state_name":"Georgia","lat":31.53383,"lng":-83.87833,"zip":"31791","miles_from_dt":28.64},{"city":"Milan","state_name":"Georgia","lat":31.98333,"lng":-83.05673,"zip":"31060","miles_from_dt":28.8},{"city":"Vienna","state_name":"Georgia","lat":32.08984,"lng":-83.78304,"zip":"31092","miles_from_dt":28.87},{"city":"Oakfield","state_name":"Georgia","lat":31.72213,"lng":-83.96504,"zip":"31772","miles_from_dt":29.07}],"targetCityZipCode":"31783","targetCityState":"Georgia"},"__N_SSG":true}