{"pageProps":{"stateName":"Georgia","cityName":"toccoa-falls","nearbyCities":[{"city":"Toccoa","state_name":"Georgia","lat":34.55549,"lng":-83.32632,"zip":"30577","miles_from_dt":3.25},{"city":"Mount Airy","state_name":"Georgia","lat":34.5596,"lng":-83.46283,"zip":"30563","miles_from_dt":6.7},{"city":"Eastanollee","state_name":"Georgia","lat":34.5035,"lng":-83.26888,"zip":"30538","miles_from_dt":8.05},{"city":"Tallulah Falls","state_name":"Georgia","lat":34.74242,"lng":-83.39986,"zip":"30573","miles_from_dt":10.38},{"city":"Turnerville","state_name":"Georgia","lat":34.68976,"lng":-83.52623,"zip":"30580","miles_from_dt":11.72},{"city":"Long Creek","state_name":"South Carolina","lat":34.76191,"lng":-83.29858,"zip":"29658","miles_from_dt":11.82},{"city":"Baldwin","state_name":"Georgia","lat":34.45674,"lng":-83.47474,"zip":"30511","miles_from_dt":11.85},{"city":"Westminster","state_name":"South Carolina","lat":34.65641,"lng":-83.15284,"zip":"29693","miles_from_dt":12.19},{"city":"Martin","state_name":"Georgia","lat":34.48143,"lng":-83.18484,"zip":"30557","miles_from_dt":12.5},{"city":"Demorest","state_name":"Georgia","lat":34.58063,"lng":-83.57652,"zip":"30535","miles_from_dt":12.73},{"city":"Lakemont","state_name":"Georgia","lat":34.76965,"lng":-83.44575,"zip":"30552","miles_from_dt":13.02},{"city":"Clarkesville","state_name":"Georgia","lat":34.72012,"lng":-83.54166,"zip":"30523","miles_from_dt":13.66},{"city":"Wiley","state_name":"Georgia","lat":34.80195,"lng":-83.42405,"zip":"30581","miles_from_dt":14.7},{"city":"Cornelia","state_name":"Georgia","lat":34.51017,"lng":-83.59103,"zip":"30531","miles_from_dt":14.77},{"city":"Carnesville","state_name":"Georgia","lat":34.36202,"lng":-83.29355,"zip":"30521","miles_from_dt":16.54},{"city":"Tiger","state_name":"Georgia","lat":34.82682,"lng":-83.44539,"zip":"30576","miles_from_dt":16.7},{"city":"Alto","state_name":"Georgia","lat":34.44194,"lng":-83.58446,"zip":"30510","miles_from_dt":16.92},{"city":"Homer","state_name":"Georgia","lat":34.35737,"lng":-83.46095,"zip":"30547","miles_from_dt":17.58},{"city":"Lavonia","state_name":"Georgia","lat":34.44473,"lng":-83.08771,"zip":"30553","miles_from_dt":18.46},{"city":"Sautee Nacoochee","state_name":"Georgia","lat":34.71219,"lng":-83.68322,"zip":"30571","miles_from_dt":20.37},{"city":"Richland","state_name":"South Carolina","lat":34.70479,"lng":-83.02001,"zip":"29675","miles_from_dt":20.44},{"city":"Walhalla","state_name":"South Carolina","lat":34.78547,"lng":-83.07669,"zip":"29691","miles_from_dt":20.47},{"city":"Mountain Rest","state_name":"South Carolina","lat":34.86393,"lng":-83.15991,"zip":"29664","miles_from_dt":21.49},{"city":"Clayton","state_name":"Georgia","lat":34.91289,"lng":-83.35853,"zip":"30525","miles_from_dt":21.8},{"city":"Lula","state_name":"Georgia","lat":34.40093,"lng":-83.65926,"zip":"30554","miles_from_dt":22.03},{"city":"Mountain City","state_name":"Georgia","lat":34.91937,"lng":-83.38177,"zip":"30562","miles_from_dt":22.3},{"city":"Fair Play","state_name":"South Carolina","lat":34.50506,"lng":-82.97441,"zip":"29643","miles_from_dt":22.56},{"city":"West Union","state_name":"South Carolina","lat":34.77458,"lng":-83.00771,"zip":"29696","miles_from_dt":23.23},{"city":"Canon","state_name":"Georgia","lat":34.33833,"lng":-83.08661,"zip":"30520","miles_from_dt":23.46},{"city":"Bowersville","state_name":"Georgia","lat":34.37535,"lng":-83.03748,"zip":"30516","miles_from_dt":23.65},{"city":"Seneca","state_name":"South Carolina","lat":34.63365,"lng":-82.93991,"zip":"29678","miles_from_dt":23.74},{"city":"Cleveland","state_name":"Georgia","lat":34.6083,"lng":-83.77589,"zip":"30528","miles_from_dt":24.05},{"city":"Seneca","state_name":"South Carolina","lat":34.68597,"lng":-82.94482,"zip":"29679","miles_from_dt":24.12},{"city":"Franklin Springs","state_name":"Georgia","lat":34.28283,"lng":-83.15232,"zip":"30639","miles_from_dt":24.51},{"city":"Rabun Gap","state_name":"Georgia","lat":34.95348,"lng":-83.41218,"zip":"30568","miles_from_dt":24.82},{"city":"Helen","state_name":"Georgia","lat":34.74208,"lng":-83.75813,"zip":"30545","miles_from_dt":25.1},{"city":"Commerce","state_name":"Georgia","lat":34.22691,"lng":-83.38433,"zip":"30530","miles_from_dt":25.54},{"city":"Maysville","state_name":"Georgia","lat":34.2683,"lng":-83.56787,"zip":"30558","miles_from_dt":25.71},{"city":"Seneca","state_name":"South Carolina","lat":34.75036,"lng":-82.94257,"zip":"29672","miles_from_dt":25.72},{"city":"Royston","state_name":"Georgia","lat":34.26383,"lng":-83.14624,"zip":"30662","miles_from_dt":25.83},{"city":"Clermont","state_name":"Georgia","lat":34.47948,"lng":-83.7863,"zip":"30527","miles_from_dt":25.94},{"city":"Dillard","state_name":"Georgia","lat":34.97855,"lng":-83.32975,"zip":"30537","miles_from_dt":26.36},{"city":"Newry","state_name":"South Carolina","lat":34.72399,"lng":-82.91413,"zip":"29665","miles_from_dt":26.55},{"city":"Gillsville","state_name":"Georgia","lat":34.29781,"lng":-83.64971,"zip":"30543","miles_from_dt":26.63},{"city":"Clemson","state_name":"South Carolina","lat":34.69888,"lng":-82.89315,"zip":"29633","miles_from_dt":27.19},{"city":"Commerce","state_name":"Georgia","lat":34.2155,"lng":-83.482,"zip":"30529","miles_from_dt":27.27},{"city":"Townville","state_name":"South Carolina","lat":34.53624,"lng":-82.87658,"zip":"29689","miles_from_dt":27.55},{"city":"Commerce","state_name":"Georgia","lat":34.2052,"lng":-83.46061,"zip":"30599","miles_from_dt":27.66},{"city":"Tamassee","state_name":"South Carolina","lat":34.92858,"lng":-83.04541,"zip":"29686","miles_from_dt":28.84},{"city":"Scaly Mountain","state_name":"North Carolina","lat":35.01916,"lng":-83.32186,"zip":"28775","miles_from_dt":29.18},{"city":"Ila","state_name":"Georgia","lat":34.17269,"lng":-83.29241,"zip":"30647","miles_from_dt":29.43},{"city":"Danielsville","state_name":"Georgia","lat":34.17896,"lng":-83.24612,"zip":"30633","miles_from_dt":29.44},{"city":"Hiawassee","state_name":"Georgia","lat":34.90673,"lng":-83.71016,"zip":"30546","miles_from_dt":29.45},{"city":"Clemson","state_name":"South Carolina","lat":34.67517,"lng":-82.83978,"zip":"29634","miles_from_dt":29.8},{"city":"Hartwell","state_name":"Georgia","lat":34.36464,"lng":-82.91143,"zip":"30643","miles_from_dt":29.9}],"targetCityZipCode":"30598","targetCityState":"Georgia"},"__N_SSG":true}