{"pageProps":{"stateName":"Maine","cityName":"beals","nearbyCities":[{"city":"Jonesport","state_name":"Maine","lat":44.56606,"lng":-67.5817,"zip":"04649","miles_from_dt":5.46},{"city":"Addison","state_name":"Maine","lat":44.57697,"lng":-67.70281,"zip":"04606","miles_from_dt":8.1},{"city":"Jonesboro","state_name":"Maine","lat":44.65899,"lng":-67.59585,"zip":"04648","miles_from_dt":11.83},{"city":"Harrington","state_name":"Maine","lat":44.57876,"lng":-67.80562,"zip":"04643","miles_from_dt":12.1},{"city":"Milbridge","state_name":"Maine","lat":44.53873,"lng":-67.87257,"zip":"04658","miles_from_dt":14.1},{"city":"Machiasport","state_name":"Maine","lat":44.66467,"lng":-67.39318,"zip":"04655","miles_from_dt":15.81},{"city":"Columbia Falls","state_name":"Maine","lat":44.70786,"lng":-67.70824,"zip":"04623","miles_from_dt":16.17},{"city":"Steuben","state_name":"Maine","lat":44.50699,"lng":-67.94485,"zip":"04680","miles_from_dt":17.28},{"city":"Corea","state_name":"Maine","lat":44.42438,"lng":-67.9877,"zip":"04624","miles_from_dt":19.84},{"city":"Machias","state_name":"Maine","lat":44.78128,"lng":-67.57716,"zip":"04654","miles_from_dt":20.29},{"city":"Prospect Harbor","state_name":"Maine","lat":44.40014,"lng":-68.01841,"zip":"04669","miles_from_dt":21.74},{"city":"Gouldsboro","state_name":"Maine","lat":44.47689,"lng":-68.05228,"zip":"04607","miles_from_dt":22.55},{"city":"Cutler","state_name":"Maine","lat":44.68494,"lng":-67.22169,"zip":"04626","miles_from_dt":22.96},{"city":"Birch Harbor","state_name":"Maine","lat":44.37498,"lng":-68.03593,"zip":"04613","miles_from_dt":23.1},{"city":"Winter Harbor","state_name":"Maine","lat":44.38479,"lng":-68.07828,"zip":"04693","miles_from_dt":24.88},{"city":"Whiting","state_name":"Maine","lat":44.76178,"lng":-67.25217,"zip":"04691","miles_from_dt":25.42},{"city":"Cherryfield","state_name":"Maine","lat":44.75555,"lng":-67.95143,"zip":"04622","miles_from_dt":25.47},{"city":"East Machias","state_name":"Maine","lat":44.8471,"lng":-67.47287,"zip":"04630","miles_from_dt":25.55},{"city":"Sullivan","state_name":"Maine","lat":44.53906,"lng":-68.12797,"zip":"04664","miles_from_dt":26.5},{"city":"Sorrento","state_name":"Maine","lat":44.49016,"lng":-68.17945,"zip":"04677","miles_from_dt":28.82}],"targetCityZipCode":"04611","targetCityState":"Maine"},"__N_SSG":true}