{"pageProps":{"stateName":"Michigan","cityName":"deckerville","nearbyCities":[{"city":"Palms","state_name":"Michigan","lat":43.61485,"lng":-82.71099,"zip":"48465","miles_from_dt":5.35},{"city":"Carsonville","state_name":"Michigan","lat":43.42884,"lng":-82.65762,"zip":"48419","miles_from_dt":8.23},{"city":"Minden City","state_name":"Michigan","lat":43.67102,"lng":-82.75818,"zip":"48456","miles_from_dt":9.35},{"city":"Forestville","state_name":"Michigan","lat":43.65988,"lng":-82.61263,"zip":"48434","miles_from_dt":10.1},{"city":"Sandusky","state_name":"Michigan","lat":43.41868,"lng":-82.85369,"zip":"48471","miles_from_dt":10.51},{"city":"Port Sanilac","state_name":"Michigan","lat":43.43927,"lng":-82.55849,"zip":"48469","miles_from_dt":10.74},{"city":"Argyle","state_name":"Michigan","lat":43.56629,"lng":-82.9362,"zip":"48410","miles_from_dt":10.84},{"city":"Snover","state_name":"Michigan","lat":43.51211,"lng":-82.95732,"zip":"48472","miles_from_dt":11.87},{"city":"Applegate","state_name":"Michigan","lat":43.3526,"lng":-82.66061,"zip":"48401","miles_from_dt":13.18},{"city":"Ruth","state_name":"Michigan","lat":43.73253,"lng":-82.76158,"zip":"48470","miles_from_dt":13.57},{"city":"Ubly","state_name":"Michigan","lat":43.67141,"lng":-82.93732,"zip":"48475","miles_from_dt":14.13},{"city":"Decker","state_name":"Michigan","lat":43.50856,"lng":-83.06025,"zip":"48426","miles_from_dt":17.02},{"city":"Harbor Beach","state_name":"Michigan","lat":43.80515,"lng":-82.71727,"zip":"48441","miles_from_dt":18.45},{"city":"Peck","state_name":"Michigan","lat":43.27693,"lng":-82.81731,"zip":"48466","miles_from_dt":18.62},{"city":"Croswell","state_name":"Michigan","lat":43.26265,"lng":-82.65069,"zip":"48422","miles_from_dt":19.35},{"city":"Marlette","state_name":"Michigan","lat":43.34374,"lng":-83.03493,"zip":"48453","miles_from_dt":20.61},{"city":"Lexington","state_name":"Michigan","lat":43.25289,"lng":-82.54123,"zip":"48450","miles_from_dt":21.72},{"city":"Bad Axe","state_name":"Michigan","lat":43.80231,"lng":-82.99663,"zip":"48413","miles_from_dt":22.81},{"city":"Cass City","state_name":"Michigan","lat":43.60776,"lng":-83.16833,"zip":"48726","miles_from_dt":22.83},{"city":"Deford","state_name":"Michigan","lat":43.49621,"lng":-83.17828,"zip":"48729","miles_from_dt":23.01},{"city":"Melvin","state_name":"Michigan","lat":43.19999,"lng":-82.81833,"zip":"48454","miles_from_dt":23.81},{"city":"Kingston","state_name":"Michigan","lat":43.40487,"lng":-83.18121,"zip":"48741","miles_from_dt":24.76},{"city":"Brown City","state_name":"Michigan","lat":43.21791,"lng":-82.98476,"zip":"48416","miles_from_dt":25.7},{"city":"Clifford","state_name":"Michigan","lat":43.30695,"lng":-83.17935,"zip":"48727","miles_from_dt":27.92},{"city":"Port Hope","state_name":"Michigan","lat":43.94113,"lng":-82.79021,"zip":"48468","miles_from_dt":28.04},{"city":"Filion","state_name":"Michigan","lat":43.90013,"lng":-82.97923,"zip":"48432","miles_from_dt":28.09},{"city":"Jeddo","state_name":"Michigan","lat":43.13278,"lng":-82.59457,"zip":"48032","miles_from_dt":28.71},{"city":"Yale","state_name":"Michigan","lat":43.12639,"lng":-82.82955,"zip":"48097","miles_from_dt":28.9},{"city":"Gagetown","state_name":"Michigan","lat":43.66861,"lng":-83.27294,"zip":"48735","miles_from_dt":28.99},{"city":"Owendale","state_name":"Michigan","lat":43.734,"lng":-83.23774,"zip":"48754","miles_from_dt":29.11}],"targetCityZipCode":"48427","targetCityState":"Michigan"},"__N_SSG":true}