{"pageProps":{"stateName":"Michigan","cityName":"ionia","nearbyCities":[{"city":"Lyons","state_name":"Michigan","lat":42.95469,"lng":-84.9364,"zip":"48851","miles_from_dt":6.51},{"city":"Orleans","state_name":"Michigan","lat":43.08785,"lng":-85.10725,"zip":"48865","miles_from_dt":7.46},{"city":"Saranac","state_name":"Michigan","lat":42.934,"lng":-85.20214,"zip":"48881","miles_from_dt":8.17},{"city":"Muir","state_name":"Michigan","lat":43.05089,"lng":-84.90939,"zip":"48860","miles_from_dt":8.74},{"city":"Palo","state_name":"Michigan","lat":43.11027,"lng":-84.98483,"zip":"48870","miles_from_dt":9.33},{"city":"Fenwick","state_name":"Michigan","lat":43.12981,"lng":-85.03108,"zip":"48834","miles_from_dt":10.01},{"city":"Portland","state_name":"Michigan","lat":42.8578,"lng":-84.93201,"zip":"48875","miles_from_dt":10.91},{"city":"Pewamo","state_name":"Michigan","lat":43.00978,"lng":-84.83608,"zip":"48873","miles_from_dt":11.34},{"city":"Belding","state_name":"Michigan","lat":43.0646,"lng":-85.25712,"zip":"48809","miles_from_dt":11.47},{"city":"Smyrna","state_name":"Michigan","lat":43.06242,"lng":-85.26273,"zip":"48887","miles_from_dt":11.65},{"city":"Hubbardston","state_name":"Michigan","lat":43.10746,"lng":-84.854,"zip":"48845","miles_from_dt":13.28},{"city":"Lake Odessa","state_name":"Michigan","lat":42.7984,"lng":-85.13298,"zip":"48849","miles_from_dt":13.51},{"city":"Westphalia","state_name":"Michigan","lat":42.92841,"lng":-84.79489,"zip":"48894","miles_from_dt":13.9},{"city":"Clarksville","state_name":"Michigan","lat":42.84155,"lng":-85.25387,"zip":"48815","miles_from_dt":14.1},{"city":"Lowell","state_name":"Michigan","lat":42.95161,"lng":-85.35139,"zip":"49331","miles_from_dt":15.09},{"city":"Sheridan","state_name":"Michigan","lat":43.20731,"lng":-85.04249,"zip":"48884","miles_from_dt":15.29},{"city":"Sunfield","state_name":"Michigan","lat":42.76878,"lng":-84.97167,"zip":"48890","miles_from_dt":15.62},{"city":"Fowler","state_name":"Michigan","lat":43.03008,"lng":-84.74655,"zip":"48835","miles_from_dt":16.04},{"city":"Carson City","state_name":"Michigan","lat":43.18226,"lng":-84.85518,"zip":"48811","miles_from_dt":16.98},{"city":"Greenville","state_name":"Michigan","lat":43.18268,"lng":-85.25943,"zip":"48838","miles_from_dt":16.98},{"city":"Eagle","state_name":"Michigan","lat":42.83407,"lng":-84.76065,"zip":"48822","miles_from_dt":18.36},{"city":"Sidney","state_name":"Michigan","lat":43.24908,"lng":-85.14356,"zip":"48885","miles_from_dt":18.67},{"city":"Mulliken","state_name":"Michigan","lat":42.73002,"lng":-84.91741,"zip":"48861","miles_from_dt":19.06},{"city":"Woodland","state_name":"Michigan","lat":42.70498,"lng":-85.13193,"zip":"48897","miles_from_dt":19.77},{"city":"Freeport","state_name":"Michigan","lat":42.76155,"lng":-85.30162,"zip":"49325","miles_from_dt":19.85},{"city":"Maple Rapids","state_name":"Michigan","lat":43.10371,"lng":-84.68999,"zip":"48853","miles_from_dt":20.3},{"city":"Alto","state_name":"Michigan","lat":42.82307,"lng":-85.39871,"zip":"49302","miles_from_dt":20.65},{"city":"Ada","state_name":"Michigan","lat":42.97716,"lng":-85.47671,"zip":"49301","miles_from_dt":21.25},{"city":"Ada","state_name":"Michigan","lat":42.9539,"lng":-85.47866,"zip":"49355","miles_from_dt":21.46},{"city":"Ada","state_name":"Michigan","lat":42.95688,"lng":-85.4814,"zip":"49356","miles_from_dt":21.58},{"city":"Crystal","state_name":"Michigan","lat":43.2759,"lng":-84.89661,"zip":"48818","miles_from_dt":21.6},{"city":"Middleton","state_name":"Michigan","lat":43.19994,"lng":-84.7372,"zip":"48856","miles_from_dt":21.92},{"city":"Ada","state_name":"Michigan","lat":42.95038,"lng":-85.48748,"zip":"49357","miles_from_dt":21.93},{"city":"Grand Ledge","state_name":"Michigan","lat":42.7453,"lng":-84.76701,"zip":"48837","miles_from_dt":22.22},{"city":"Stanton","state_name":"Michigan","lat":43.3089,"lng":-85.09566,"zip":"48888","miles_from_dt":22.37},{"city":"Perrinton","state_name":"Michigan","lat":43.15476,"lng":-84.67874,"zip":"48871","miles_from_dt":22.43},{"city":"Gowen","state_name":"Michigan","lat":43.25069,"lng":-85.32083,"zip":"49326","miles_from_dt":22.6},{"city":"Cannonsburg","state_name":"Michigan","lat":43.13059,"lng":-85.48243,"zip":"49317","miles_from_dt":23.71},{"city":"Rockford","state_name":"Michigan","lat":43.12433,"lng":-85.49246,"zip":"49341","miles_from_dt":23.99},{"city":"Vermontville","state_name":"Michigan","lat":42.63794,"lng":-85.01409,"zip":"49096","miles_from_dt":24.13},{"city":"Saint Johns","state_name":"Michigan","lat":43.00629,"lng":-84.57981,"zip":"48879","miles_from_dt":24.25},{"city":"Grand Rapids","state_name":"Michigan","lat":42.91906,"lng":-85.52706,"zip":"49516","miles_from_dt":24.25},{"city":"Grand Rapids","state_name":"Michigan","lat":42.92815,"lng":-85.53629,"zip":"49546","miles_from_dt":24.6},{"city":"Sumner","state_name":"Michigan","lat":43.29133,"lng":-84.79701,"zip":"48889","miles_from_dt":24.85},{"city":"Dewitt","state_name":"Michigan","lat":42.86277,"lng":-84.59374,"zip":"48820","miles_from_dt":25.02},{"city":"Mcbrides","state_name":"Michigan","lat":43.35256,"lng":-85.04652,"zip":"48852","miles_from_dt":25.3},{"city":"Grand Rapids","state_name":"Michigan","lat":42.8821,"lng":-85.54764,"zip":"49512","miles_from_dt":25.87},{"city":"Grand Rapids","state_name":"Michigan","lat":42.86678,"lng":-85.54425,"zip":"49530","miles_from_dt":26.03},{"city":"Belmont","state_name":"Michigan","lat":43.07296,"lng":-85.56939,"zip":"49306","miles_from_dt":26.61},{"city":"Trufant","state_name":"Michigan","lat":43.31488,"lng":-85.34352,"zip":"49347","miles_from_dt":26.91},{"city":"Rockford","state_name":"Michigan","lat":43.12526,"lng":-85.55903,"zip":"49351","miles_from_dt":27.14},{"city":"Hastings","state_name":"Michigan","lat":42.63331,"lng":-85.29316,"zip":"49058","miles_from_dt":27.14},{"city":"Grand Rapids","state_name":"Michigan","lat":43.02144,"lng":-85.5918,"zip":"49525","miles_from_dt":27.18},{"city":"Pompeii","state_name":"Michigan","lat":43.18644,"lng":-84.59498,"zip":"48874","miles_from_dt":27.18},{"city":"Lansing","state_name":"Michigan","lat":42.73105,"lng":-84.64587,"zip":"48908","miles_from_dt":27.33},{"city":"Lansing","state_name":"Michigan","lat":42.78489,"lng":-84.58886,"zip":"48906","miles_from_dt":27.55},{"city":"Lansing","state_name":"Michigan","lat":42.72509,"lng":-84.63897,"zip":"48917","miles_from_dt":27.87},{"city":"Nashville","state_name":"Michigan","lat":42.57971,"lng":-85.11717,"zip":"49073","miles_from_dt":28.22},{"city":"Grand Rapids","state_name":"Michigan","lat":43.02206,"lng":-85.61258,"zip":"49510","miles_from_dt":28.23},{"city":"Grand Rapids","state_name":"Michigan","lat":42.94515,"lng":-85.6136,"zip":"49506","miles_from_dt":28.33},{"city":"Elm Hall","state_name":"Michigan","lat":43.3626,"lng":-84.83406,"zip":"48830","miles_from_dt":28.34},{"city":"Lansing","state_name":"Michigan","lat":42.78329,"lng":-84.5713,"zip":"48937","miles_from_dt":28.38},{"city":"Caledonia","state_name":"Michigan","lat":42.79644,"lng":-85.55564,"zip":"49316","miles_from_dt":28.47},{"city":"Potterville","state_name":"Michigan","lat":42.64757,"lng":-84.73631,"zip":"48876","miles_from_dt":28.51},{"city":"Edmore","state_name":"Michigan","lat":43.40027,"lng":-85.02037,"zip":"48829","miles_from_dt":28.65},{"city":"Middleville","state_name":"Michigan","lat":42.69546,"lng":-85.46343,"zip":"49333","miles_from_dt":28.77},{"city":"Lansing","state_name":"Michigan","lat":42.67483,"lng":-84.67844,"zip":"48918","miles_from_dt":28.86},{"city":"Eureka","state_name":"Michigan","lat":43.10332,"lng":-84.50721,"zip":"48833","miles_from_dt":29.01},{"city":"Cedar Springs","state_name":"Michigan","lat":43.22767,"lng":-85.5281,"zip":"49319","miles_from_dt":29.06},{"city":"Lansing","state_name":"Michigan","lat":42.67182,"lng":-84.67547,"zip":"48980","miles_from_dt":29.11},{"city":"Lansing","state_name":"Michigan","lat":42.67749,"lng":-84.66585,"zip":"48913","miles_from_dt":29.15},{"city":"Cedar Lake","state_name":"Michigan","lat":43.40469,"lng":-84.97643,"zip":"48812","miles_from_dt":29.18},{"city":"Vestaburg","state_name":"Michigan","lat":43.39676,"lng":-84.91469,"zip":"48891","miles_from_dt":29.25},{"city":"Grand Rapids","state_name":"Michigan","lat":42.9984,"lng":-85.63699,"zip":"49505","miles_from_dt":29.37},{"city":"Coral","state_name":"Michigan","lat":43.35685,"lng":-85.35261,"zip":"49322","miles_from_dt":29.62},{"city":"Grand Rapids","state_name":"Michigan","lat":42.87582,"lng":-85.62579,"zip":"49518","miles_from_dt":29.81},{"city":"Grand Rapids","state_name":"Michigan","lat":42.87459,"lng":-85.62586,"zip":"49508","miles_from_dt":29.84},{"city":"Grand Rapids","state_name":"Michigan","lat":42.87671,"lng":-85.62747,"zip":"49560","miles_from_dt":29.88}],"targetCityZipCode":"48846","targetCityState":"Michigan"},"__N_SSG":true}