{"pageProps":{"stateName":"Michigan","cityName":"nazareth","nearbyCities":[{"city":"Kalamazoo","state_name":"Michigan","lat":42.34903,"lng":-85.55954,"zip":"49004","miles_from_dt":2.25},{"city":"Kalamazoo","state_name":"Michigan","lat":42.30252,"lng":-85.5883,"zip":"49007","miles_from_dt":2.75},{"city":"Comstock","state_name":"Michigan","lat":42.28489,"lng":-85.5113,"zip":"49041","miles_from_dt":2.82},{"city":"Kalamazoo","state_name":"Michigan","lat":42.29116,"lng":-85.5826,"zip":"49005","miles_from_dt":2.95},{"city":"Kalamazoo","state_name":"Michigan","lat":42.27202,"lng":-85.49893,"zip":"49048","miles_from_dt":3.91},{"city":"Kalamazoo","state_name":"Michigan","lat":42.2647,"lng":-85.56265,"zip":"49001","miles_from_dt":3.98},{"city":"Kalamazoo","state_name":"Michigan","lat":42.27288,"lng":-85.58742,"zip":"49019","miles_from_dt":4.05},{"city":"Kalamazoo","state_name":"Michigan","lat":42.29539,"lng":-85.6291,"zip":"49006","miles_from_dt":4.87},{"city":"Kalamazoo","state_name":"Michigan","lat":42.26337,"lng":-85.61528,"zip":"49008","miles_from_dt":5.49},{"city":"Richland","state_name":"Michigan","lat":42.3784,"lng":-85.45899,"zip":"49083","miles_from_dt":5.79},{"city":"Galesburg","state_name":"Michigan","lat":42.28877,"lng":-85.41722,"zip":"49053","miles_from_dt":6.64},{"city":"Kalamazoo","state_name":"Michigan","lat":42.31239,"lng":-85.68229,"zip":"49003","miles_from_dt":7.31},{"city":"Kalamazoo","state_name":"Michigan","lat":42.30913,"lng":-85.69278,"zip":"49009","miles_from_dt":7.87},{"city":"Portage","state_name":"Michigan","lat":42.20562,"lng":-85.56678,"zip":"49081","miles_from_dt":8},{"city":"Oshtemo","state_name":"Michigan","lat":42.25552,"lng":-85.677,"zip":"49077","miles_from_dt":8.31},{"city":"Portage","state_name":"Michigan","lat":42.19867,"lng":-85.55906,"zip":"49002","miles_from_dt":8.42},{"city":"Portage","state_name":"Michigan","lat":42.20207,"lng":-85.61917,"zip":"49024","miles_from_dt":9.09},{"city":"Plainwell","state_name":"Michigan","lat":42.46086,"lng":-85.57711,"zip":"49080","miles_from_dt":9.92},{"city":"Augusta","state_name":"Michigan","lat":42.34626,"lng":-85.34116,"zip":"49012","miles_from_dt":10.34},{"city":"Hickory Corners","state_name":"Michigan","lat":42.42738,"lng":-85.39589,"zip":"49060","miles_from_dt":10.46},{"city":"Scotts","state_name":"Michigan","lat":42.18602,"lng":-85.42503,"zip":"49088","miles_from_dt":10.95},{"city":"Climax","state_name":"Michigan","lat":42.23178,"lng":-85.33403,"zip":"49034","miles_from_dt":12.18},{"city":"Mattawan","state_name":"Michigan","lat":42.2275,"lng":-85.78002,"zip":"49071","miles_from_dt":13.86},{"city":"Otsego","state_name":"Michigan","lat":42.46585,"lng":-85.72846,"zip":"49078","miles_from_dt":13.95},{"city":"Vicksburg","state_name":"Michigan","lat":42.11491,"lng":-85.48985,"zip":"49097","miles_from_dt":14.37},{"city":"Kendall","state_name":"Michigan","lat":42.36089,"lng":-85.81547,"zip":"49062","miles_from_dt":14.39},{"city":"Battle Creek","state_name":"Michigan","lat":42.33448,"lng":-85.24706,"zip":"49037","miles_from_dt":15.03},{"city":"Delton","state_name":"Michigan","lat":42.51229,"lng":-85.40249,"zip":"49046","miles_from_dt":15.03},{"city":"Schoolcraft","state_name":"Michigan","lat":42.12209,"lng":-85.68557,"zip":"49087","miles_from_dt":15.56},{"city":"Martin","state_name":"Michigan","lat":42.54023,"lng":-85.62879,"zip":"49070","miles_from_dt":15.88},{"city":"Battle Creek","state_name":"Michigan","lat":42.27467,"lng":-85.23115,"zip":"49015","miles_from_dt":16.12},{"city":"Gobles","state_name":"Michigan","lat":42.37022,"lng":-85.85327,"zip":"49055","miles_from_dt":16.42},{"city":"Bedford","state_name":"Michigan","lat":42.39545,"lng":-85.23307,"zip":"49020","miles_from_dt":16.55},{"city":"Battle Creek","state_name":"Michigan","lat":42.39748,"lng":-85.21971,"zip":"49018","miles_from_dt":17.25},{"city":"Battle Creek","state_name":"Michigan","lat":42.3979,"lng":-85.2111,"zip":"49017","miles_from_dt":17.67},{"city":"Cloverdale","state_name":"Michigan","lat":42.55267,"lng":-85.38521,"zip":"49035","miles_from_dt":17.91},{"city":"Fulton","state_name":"Michigan","lat":42.11538,"lng":-85.31936,"zip":"49052","miles_from_dt":18.09},{"city":"East Leroy","state_name":"Michigan","lat":42.18207,"lng":-85.23803,"zip":"49051","miles_from_dt":18.17},{"city":"Battle Creek","state_name":"Michigan","lat":42.30587,"lng":-85.1721,"zip":"49016","miles_from_dt":18.87},{"city":"Shelbyville","state_name":"Michigan","lat":42.5919,"lng":-85.59028,"zip":"49344","miles_from_dt":18.96},{"city":"Paw Paw","state_name":"Michigan","lat":42.23997,"lng":-85.90901,"zip":"49079","miles_from_dt":19.7},{"city":"Lawton","state_name":"Michigan","lat":42.13645,"lng":-85.83928,"zip":"49065","miles_from_dt":19.9},{"city":"Dowling","state_name":"Michigan","lat":42.50598,"lng":-85.23651,"zip":"49050","miles_from_dt":20.15},{"city":"Mendon","state_name":"Michigan","lat":42.01295,"lng":-85.45825,"zip":"49072","miles_from_dt":21.59},{"city":"Bloomingdale","state_name":"Michigan","lat":42.37778,"lng":-85.96273,"zip":"49026","miles_from_dt":22.01},{"city":"Leonidas","state_name":"Michigan","lat":42.03319,"lng":-85.35007,"zip":"49066","miles_from_dt":22.05},{"city":"Athens","state_name":"Michigan","lat":42.10288,"lng":-85.22285,"zip":"49011","miles_from_dt":22.11},{"city":"Battle Creek","state_name":"Michigan","lat":42.30996,"lng":-85.10711,"zip":"49014","miles_from_dt":22.18},{"city":"Allegan","state_name":"Michigan","lat":42.53418,"lng":-85.87298,"zip":"49010","miles_from_dt":22.56},{"city":"Bradley","state_name":"Michigan","lat":42.63859,"lng":-85.64613,"zip":"49311","miles_from_dt":22.66},{"city":"Ceresco","state_name":"Michigan","lat":42.22654,"lng":-85.09193,"zip":"49033","miles_from_dt":23.85},{"city":"Hopkins","state_name":"Michigan","lat":42.6304,"lng":-85.75703,"zip":"49328","miles_from_dt":24.14},{"city":"Marcellus","state_name":"Michigan","lat":42.02359,"lng":-85.79982,"zip":"49067","miles_from_dt":24.41},{"city":"Three Rivers","state_name":"Michigan","lat":41.97375,"lng":-85.64665,"zip":"49093","miles_from_dt":24.51},{"city":"Hastings","state_name":"Michigan","lat":42.63331,"lng":-85.29316,"zip":"49058","miles_from_dt":25.04},{"city":"Wayland","state_name":"Michigan","lat":42.68379,"lng":-85.61619,"zip":"49348","miles_from_dt":25.42},{"city":"Burlington","state_name":"Michigan","lat":42.1423,"lng":-85.09107,"zip":"49029","miles_from_dt":26.08},{"city":"Bellevue","state_name":"Michigan","lat":42.4588,"lng":-85.06435,"zip":"49021","miles_from_dt":26.16},{"city":"Middleville","state_name":"Michigan","lat":42.69546,"lng":-85.46343,"zip":"49333","miles_from_dt":26.22},{"city":"Colon","state_name":"Michigan","lat":41.96847,"lng":-85.32398,"zip":"49040","miles_from_dt":26.66},{"city":"Lawrence","state_name":"Michigan","lat":42.22028,"lng":-86.04991,"zip":"49064","miles_from_dt":27.03},{"city":"Sherwood","state_name":"Michigan","lat":42.00181,"lng":-85.23113,"zip":"49089","miles_from_dt":27.08},{"city":"Grand Junction","state_name":"Michigan","lat":42.39951,"lng":-86.05967,"zip":"49056","miles_from_dt":27.17},{"city":"Breedsville","state_name":"Michigan","lat":42.3482,"lng":-86.06939,"zip":"49027","miles_from_dt":27.19},{"city":"Centreville","state_name":"Michigan","lat":41.91779,"lng":-85.50767,"zip":"49032","miles_from_dt":27.8},{"city":"Decatur","state_name":"Michigan","lat":42.1038,"lng":-86.00219,"zip":"49045","miles_from_dt":28.02},{"city":"Nashville","state_name":"Michigan","lat":42.57971,"lng":-85.11717,"zip":"49073","miles_from_dt":28.09},{"city":"Nottawa","state_name":"Michigan","lat":41.91783,"lng":-85.44899,"zip":"49075","miles_from_dt":28.13},{"city":"Union City","state_name":"Michigan","lat":42.04696,"lng":-85.11752,"zip":"49094","miles_from_dt":28.72},{"city":"Bangor","state_name":"Michigan","lat":42.30524,"lng":-86.10796,"zip":"49013","miles_from_dt":29.12},{"city":"Pullman","state_name":"Michigan","lat":42.48333,"lng":-86.08051,"zip":"49450","miles_from_dt":29.87}],"targetCityZipCode":"49074","targetCityState":"Michigan"},"__N_SSG":true}