{"pageProps":{"stateName":"Michigan","cityName":"nunica","nearbyCities":[{"city":"Fruitport","state_name":"Michigan","lat":43.15238,"lng":-86.1166,"zip":"49415","miles_from_dt":4.76},{"city":"Spring Lake","state_name":"Michigan","lat":43.09026,"lng":-86.19347,"zip":"49456","miles_from_dt":6.03},{"city":"Grand Haven","state_name":"Michigan","lat":43.01519,"lng":-86.14387,"zip":"49417","miles_from_dt":6.29},{"city":"Coopersville","state_name":"Michigan","lat":43.06602,"lng":-85.95129,"zip":"49404","miles_from_dt":6.46},{"city":"Ferrysburg","state_name":"Michigan","lat":43.08077,"lng":-86.21826,"zip":"49409","miles_from_dt":7.32},{"city":"Muskegon","state_name":"Michigan","lat":43.17671,"lng":-86.19892,"zip":"49444","miles_from_dt":8.65},{"city":"Ravenna","state_name":"Michigan","lat":43.21177,"lng":-85.96966,"zip":"49451","miles_from_dt":9.89},{"city":"Allendale","state_name":"Michigan","lat":42.9763,"lng":-85.95604,"zip":"49401","miles_from_dt":9.91},{"city":"Lamont","state_name":"Michigan","lat":43.01192,"lng":-85.90053,"zip":"49430","miles_from_dt":10.34},{"city":"Muskegon","state_name":"Michigan","lat":43.23995,"lng":-86.13278,"zip":"49442","miles_from_dt":10.72},{"city":"West Olive","state_name":"Michigan","lat":42.93473,"lng":-86.1429,"zip":"49460","miles_from_dt":11.32},{"city":"Conklin","state_name":"Michigan","lat":43.13316,"lng":-85.85022,"zip":"49403","miles_from_dt":11.71},{"city":"Muskegon","state_name":"Michigan","lat":43.18745,"lng":-86.2736,"zip":"49441","miles_from_dt":12.09},{"city":"Muskegon","state_name":"Michigan","lat":43.22204,"lng":-86.24155,"zip":"49443","miles_from_dt":12.39},{"city":"Marne","state_name":"Michigan","lat":43.02683,"lng":-85.84049,"zip":"49435","miles_from_dt":12.63},{"city":"Muskegon","state_name":"Michigan","lat":43.23852,"lng":-86.25387,"zip":"49440","miles_from_dt":13.65},{"city":"Casnovia","state_name":"Michigan","lat":43.22319,"lng":-85.82981,"zip":"49318","miles_from_dt":15.37},{"city":"Grand Rapids","state_name":"Michigan","lat":42.97106,"lng":-85.78834,"zip":"49534","miles_from_dt":16.67},{"city":"Jenison","state_name":"Michigan","lat":42.92042,"lng":-85.83712,"zip":"49428","miles_from_dt":16.81},{"city":"Bailey","state_name":"Michigan","lat":43.27803,"lng":-85.85824,"zip":"49303","miles_from_dt":16.92},{"city":"Grand Rapids","state_name":"Michigan","lat":43.04591,"lng":-85.7417,"zip":"49544","miles_from_dt":17.12},{"city":"Holland","state_name":"Michigan","lat":42.84269,"lng":-86.12431,"zip":"49424","miles_from_dt":17.31},{"city":"Muskegon","state_name":"Michigan","lat":43.297,"lng":-86.27481,"zip":"49445","miles_from_dt":17.47},{"city":"Zeeland","state_name":"Michigan","lat":42.84183,"lng":-85.98338,"zip":"49464","miles_from_dt":17.79},{"city":"Hudsonville","state_name":"Michigan","lat":42.86636,"lng":-85.89038,"zip":"49426","miles_from_dt":18.08},{"city":"Twin Lake","state_name":"Michigan","lat":43.35105,"lng":-86.14455,"zip":"49457","miles_from_dt":18.32},{"city":"Jenison","state_name":"Michigan","lat":42.89011,"lng":-85.8311,"zip":"49429","miles_from_dt":18.54},{"city":"Sparta","state_name":"Michigan","lat":43.15419,"lng":-85.70224,"zip":"49345","miles_from_dt":19.32},{"city":"Comstock Park","state_name":"Michigan","lat":43.0737,"lng":-85.68198,"zip":"49321","miles_from_dt":19.89},{"city":"Grand Rapids","state_name":"Michigan","lat":42.98047,"lng":-85.70937,"zip":"49504","miles_from_dt":19.99},{"city":"Kent City","state_name":"Michigan","lat":43.24463,"lng":-85.73721,"zip":"49330","miles_from_dt":20.08},{"city":"Grant","state_name":"Michigan","lat":43.33507,"lng":-85.84558,"zip":"49327","miles_from_dt":20.44},{"city":"Grandville","state_name":"Michigan","lat":42.90588,"lng":-85.75528,"zip":"49468","miles_from_dt":20.6},{"city":"Holland","state_name":"Michigan","lat":42.78681,"lng":-86.10913,"zip":"49422","miles_from_dt":21.05},{"city":"Grandville","state_name":"Michigan","lat":42.8774,"lng":-85.77226,"zip":"49418","miles_from_dt":21.24},{"city":"Jamestown","state_name":"Michigan","lat":42.82711,"lng":-85.84694,"zip":"49427","miles_from_dt":21.54},{"city":"Grand Rapids","state_name":"Michigan","lat":42.96524,"lng":-85.67299,"zip":"49523","miles_from_dt":22.09},{"city":"Grand Rapids","state_name":"Michigan","lat":42.96964,"lng":-85.66586,"zip":"49555","miles_from_dt":22.31},{"city":"Wyoming","state_name":"Michigan","lat":42.89914,"lng":-85.7192,"zip":"49519","miles_from_dt":22.33},{"city":"Grand Rapids","state_name":"Michigan","lat":42.96146,"lng":-85.66187,"zip":"49502","miles_from_dt":22.72},{"city":"Grand Rapids","state_name":"Michigan","lat":42.96492,"lng":-85.65854,"zip":"49501","miles_from_dt":22.78},{"city":"Grand Rapids","state_name":"Michigan","lat":42.96282,"lng":-85.65872,"zip":"49503","miles_from_dt":22.83},{"city":"Grand Rapids","state_name":"Michigan","lat":42.96557,"lng":-85.65593,"zip":"49514","miles_from_dt":22.88},{"city":"Grand Rapids","state_name":"Michigan","lat":42.96354,"lng":-85.65622,"zip":"49588","miles_from_dt":22.92},{"city":"Grand Rapids","state_name":"Michigan","lat":42.96289,"lng":-85.65454,"zip":"49515","miles_from_dt":23.02},{"city":"Grand Rapids","state_name":"Michigan","lat":42.9984,"lng":-85.63699,"zip":"49505","miles_from_dt":23.04},{"city":"Grand Rapids","state_name":"Michigan","lat":42.96338,"lng":-85.65275,"zip":"49599","miles_from_dt":23.09},{"city":"Macatawa","state_name":"Michigan","lat":42.76975,"lng":-86.20774,"zip":"49434","miles_from_dt":23.17},{"city":"Wyoming","state_name":"Michigan","lat":42.89773,"lng":-85.69299,"zip":"49509","miles_from_dt":23.47},{"city":"Whitehall","state_name":"Michigan","lat":43.38215,"lng":-86.32317,"zip":"49461","miles_from_dt":23.72},{"city":"Grand Rapids","state_name":"Michigan","lat":43.02206,"lng":-85.61258,"zip":"49510","miles_from_dt":23.85},{"city":"Grand Rapids","state_name":"Michigan","lat":42.93054,"lng":-85.65524,"zip":"49507","miles_from_dt":23.94},{"city":"Holton","state_name":"Michigan","lat":43.43941,"lng":-86.09981,"zip":"49425","miles_from_dt":24.1},{"city":"Holland","state_name":"Michigan","lat":42.73964,"lng":-86.09015,"zip":"49423","miles_from_dt":24.25},{"city":"Grand Rapids","state_name":"Michigan","lat":42.9,"lng":-85.67219,"zip":"49528","miles_from_dt":24.26},{"city":"Grand Rapids","state_name":"Michigan","lat":43.02144,"lng":-85.5918,"zip":"49525","miles_from_dt":24.89},{"city":"Grand Rapids","state_name":"Michigan","lat":42.94515,"lng":-85.6136,"zip":"49506","miles_from_dt":25.41},{"city":"Belmont","state_name":"Michigan","lat":43.07296,"lng":-85.56939,"zip":"49306","miles_from_dt":25.58},{"city":"Grand Rapids","state_name":"Michigan","lat":42.86795,"lng":-85.66273,"zip":"49548","miles_from_dt":25.92},{"city":"Sylvan Beach","state_name":"Michigan","lat":43.37056,"lng":-86.42325,"zip":"49463","miles_from_dt":26.14},{"city":"Rockford","state_name":"Michigan","lat":43.12526,"lng":-85.55903,"zip":"49351","miles_from_dt":26.17},{"city":"Byron Center","state_name":"Michigan","lat":42.80101,"lng":-85.73589,"zip":"49315","miles_from_dt":26.35},{"city":"Fremont","state_name":"Michigan","lat":43.46283,"lng":-85.95227,"zip":"49413","miles_from_dt":26.41},{"city":"Fremont","state_name":"Michigan","lat":43.4699,"lng":-85.94747,"zip":"49412","miles_from_dt":26.95},{"city":"Grand Rapids","state_name":"Michigan","lat":42.87671,"lng":-85.62747,"zip":"49560","miles_from_dt":27.04},{"city":"Grand Rapids","state_name":"Michigan","lat":42.87582,"lng":-85.62579,"zip":"49518","miles_from_dt":27.14},{"city":"Grand Rapids","state_name":"Michigan","lat":42.87459,"lng":-85.62586,"zip":"49508","miles_from_dt":27.19},{"city":"Burnips","state_name":"Michigan","lat":42.73106,"lng":-85.85109,"zip":"49314","miles_from_dt":27.29},{"city":"Hamilton","state_name":"Michigan","lat":42.67768,"lng":-85.97826,"zip":"49419","miles_from_dt":28.93},{"city":"Dorr","state_name":"Michigan","lat":42.72541,"lng":-85.7871,"zip":"49323","miles_from_dt":29.13},{"city":"Cedar Springs","state_name":"Michigan","lat":43.22767,"lng":-85.5281,"zip":"49319","miles_from_dt":29.18},{"city":"Grand Rapids","state_name":"Michigan","lat":42.92815,"lng":-85.53629,"zip":"49546","miles_from_dt":29.48},{"city":"Rockford","state_name":"Michigan","lat":43.12433,"lng":-85.49246,"zip":"49341","miles_from_dt":29.52},{"city":"Montague","state_name":"Michigan","lat":43.4588,"lng":-86.38121,"zip":"49437","miles_from_dt":29.75},{"city":"Saugatuck","state_name":"Michigan","lat":42.66511,"lng":-86.17388,"zip":"49453","miles_from_dt":29.81},{"city":"Newaygo","state_name":"Michigan","lat":43.43472,"lng":-85.71437,"zip":"49337","miles_from_dt":29.89}],"targetCityZipCode":"49448","targetCityState":"Michigan"},"__N_SSG":true}