{"pageProps":{"stateName":"Michigan","cityName":"quinnesec","nearbyCities":[{"city":"Kingsford","state_name":"Michigan","lat":45.80053,"lng":-88.07718,"zip":"49802","miles_from_dt":4.83},{"city":"Niagara","state_name":"Wisconsin","lat":45.72352,"lng":-87.99752,"zip":"54151","miles_from_dt":5.52},{"city":"Norway","state_name":"Michigan","lat":45.87315,"lng":-87.89964,"zip":"49870","miles_from_dt":6.17},{"city":"Loretto","state_name":"Michigan","lat":45.78399,"lng":-87.81807,"zip":"49852","miles_from_dt":7.79},{"city":"Iron Mountain","state_name":"Michigan","lat":45.9191,"lng":-88.01795,"zip":"49801","miles_from_dt":8.31},{"city":"Vulcan","state_name":"Michigan","lat":45.77547,"lng":-87.77243,"zip":"49892","miles_from_dt":10.07},{"city":"Pembine","state_name":"Wisconsin","lat":45.60099,"lng":-87.93963,"zip":"54156","miles_from_dt":14.01},{"city":"Dunbar","state_name":"Wisconsin","lat":45.62488,"lng":-88.18285,"zip":"54119","miles_from_dt":15.77},{"city":"Florence","state_name":"Wisconsin","lat":45.86385,"lng":-88.32899,"zip":"54121","miles_from_dt":17.51},{"city":"Foster City","state_name":"Michigan","lat":45.96829,"lng":-87.70292,"zip":"49834","miles_from_dt":17.52},{"city":"Hermansville","state_name":"Michigan","lat":45.70585,"lng":-87.63267,"zip":"49847","miles_from_dt":17.94},{"city":"Sagola","state_name":"Michigan","lat":46.07852,"lng":-88.03259,"zip":"49881","miles_from_dt":19.28},{"city":"Amberg","state_name":"Wisconsin","lat":45.50278,"lng":-88.00524,"zip":"54102","miles_from_dt":20.72},{"city":"Felch","state_name":"Michigan","lat":46.05777,"lng":-87.7356,"zip":"49831","miles_from_dt":21.15},{"city":"Perronville","state_name":"Michigan","lat":45.876,"lng":-87.51824,"zip":"49873","miles_from_dt":22.74},{"city":"Powers","state_name":"Michigan","lat":45.70394,"lng":-87.50568,"zip":"49874","miles_from_dt":23.79},{"city":"Nadeau","state_name":"Michigan","lat":45.61295,"lng":-87.55163,"zip":"49863","miles_from_dt":24.39},{"city":"Spalding","state_name":"Michigan","lat":45.69748,"lng":-87.49409,"zip":"49886","miles_from_dt":24.45},{"city":"Goodman","state_name":"Wisconsin","lat":45.58995,"lng":-88.38325,"zip":"54125","miles_from_dt":24.51},{"city":"Fence","state_name":"Wisconsin","lat":45.75892,"lng":-88.49089,"zip":"54120","miles_from_dt":25},{"city":"Daggett","state_name":"Michigan","lat":45.52167,"lng":-87.63052,"zip":"49821","miles_from_dt":25.63},{"city":"Alpha","state_name":"Michigan","lat":46.04905,"lng":-88.37744,"zip":"49902","miles_from_dt":25.75},{"city":"Channing","state_name":"Michigan","lat":46.18465,"lng":-87.95967,"zip":"49815","miles_from_dt":26.43},{"city":"Ralph","state_name":"Michigan","lat":46.15651,"lng":-87.7425,"zip":"49877","miles_from_dt":26.96},{"city":"Carney","state_name":"Michigan","lat":45.59094,"lng":-87.50269,"zip":"49812","miles_from_dt":27.21},{"city":"Armstrong Creek","state_name":"Wisconsin","lat":45.64972,"lng":-88.49885,"zip":"54103","miles_from_dt":27.34},{"city":"Crystal Falls","state_name":"Michigan","lat":46.14087,"lng":-88.30079,"zip":"49920","miles_from_dt":28.11},{"city":"Athelstane","state_name":"Wisconsin","lat":45.44018,"lng":-88.26518,"zip":"54104","miles_from_dt":28.63},{"city":"Arnold","state_name":"Michigan","lat":46.04989,"lng":-87.49297,"zip":"49819","miles_from_dt":28.94},{"city":"Wilson","state_name":"Michigan","lat":45.67748,"lng":-87.38953,"zip":"49896","miles_from_dt":29.7}],"targetCityZipCode":"49876","targetCityState":"Michigan"},"__N_SSG":true}