{"pageProps":{"stateName":"Michigan","cityName":"riga","nearbyCities":[{"city":"Ottawa Lake","state_name":"Michigan","lat":41.75979,"lng":-83.72341,"zip":"49267","miles_from_dt":4.08},{"city":"Blissfield","state_name":"Michigan","lat":41.8039,"lng":-83.88247,"zip":"49228","miles_from_dt":5.09},{"city":"Sylvania","state_name":"Ohio","lat":41.70067,"lng":-83.73799,"zip":"43560","miles_from_dt":7.09},{"city":"Petersburg","state_name":"Michigan","lat":41.86864,"lng":-83.68206,"zip":"49270","miles_from_dt":7.22},{"city":"Berkey","state_name":"Ohio","lat":41.69736,"lng":-83.8369,"zip":"43504","miles_from_dt":7.42},{"city":"Deerfield","state_name":"Michigan","lat":41.90593,"lng":-83.78809,"zip":"49238","miles_from_dt":7.5},{"city":"Lambertville","state_name":"Michigan","lat":41.75325,"lng":-83.62803,"zip":"48144","miles_from_dt":8.63},{"city":"Palmyra","state_name":"Michigan","lat":41.87156,"lng":-83.92565,"zip":"49268","miles_from_dt":8.91},{"city":"Toledo","state_name":"Ohio","lat":41.70475,"lng":-83.6508,"zip":"43656","miles_from_dt":9.4},{"city":"Toledo","state_name":"Ohio","lat":41.70419,"lng":-83.65095,"zip":"43623","miles_from_dt":9.42},{"city":"Toledo","state_name":"Ohio","lat":41.66416,"lng":-83.72808,"zip":"43617","miles_from_dt":9.64},{"city":"Samaria","state_name":"Michigan","lat":41.8048,"lng":-83.58157,"zip":"48177","miles_from_dt":10.48},{"city":"Temperance","state_name":"Michigan","lat":41.7919,"lng":-83.57831,"zip":"48182","miles_from_dt":10.65},{"city":"Metamora","state_name":"Ohio","lat":41.69545,"lng":-83.943,"zip":"43540","miles_from_dt":10.8},{"city":"Toledo","state_name":"Ohio","lat":41.70628,"lng":-83.60374,"zip":"43613","miles_from_dt":11.25},{"city":"Toledo","state_name":"Ohio","lat":41.65254,"lng":-83.67132,"zip":"43635","miles_from_dt":11.57},{"city":"Toledo","state_name":"Ohio","lat":41.65045,"lng":-83.67255,"zip":"43615","miles_from_dt":11.67},{"city":"Holland","state_name":"Ohio","lat":41.62908,"lng":-83.74923,"zip":"43528","miles_from_dt":11.75},{"city":"Ida","state_name":"Michigan","lat":41.88141,"lng":-83.58274,"zip":"48140","miles_from_dt":11.91},{"city":"Jasper","state_name":"Michigan","lat":41.75651,"lng":-84.01137,"zip":"49248","miles_from_dt":12.06},{"city":"Toledo","state_name":"Ohio","lat":41.67178,"lng":-83.61085,"zip":"43606","miles_from_dt":12.47},{"city":"Dundee","state_name":"Michigan","lat":41.96553,"lng":-83.67268,"zip":"48131","miles_from_dt":12.96},{"city":"Britton","state_name":"Michigan","lat":41.99005,"lng":-83.82655,"zip":"49229","miles_from_dt":13.48},{"city":"Toledo","state_name":"Ohio","lat":41.70946,"lng":-83.54899,"zip":"43612","miles_from_dt":13.59},{"city":"Toledo","state_name":"Ohio","lat":41.65288,"lng":-83.60469,"zip":"43661","miles_from_dt":13.62},{"city":"Toledo","state_name":"Ohio","lat":41.64761,"lng":-83.60582,"zip":"43607","miles_from_dt":13.85},{"city":"Toledo","state_name":"Ohio","lat":41.67775,"lng":-83.5614,"zip":"43610","miles_from_dt":14.17},{"city":"Toledo","state_name":"Ohio","lat":41.67683,"lng":-83.56178,"zip":"43657","miles_from_dt":14.19},{"city":"Toledo","state_name":"Ohio","lat":41.63106,"lng":-83.61875,"zip":"43699","miles_from_dt":14.32},{"city":"Swanton","state_name":"Ohio","lat":41.5935,"lng":-83.8781,"zip":"43558","miles_from_dt":14.88},{"city":"Toledo","state_name":"Ohio","lat":41.66519,"lng":-83.5547,"zip":"43620","miles_from_dt":14.97},{"city":"Erie","state_name":"Michigan","lat":41.78428,"lng":-83.48816,"zip":"48133","miles_from_dt":15.32},{"city":"Toledo","state_name":"Ohio","lat":41.68008,"lng":-83.53062,"zip":"43608","miles_from_dt":15.41},{"city":"Toledo","state_name":"Ohio","lat":41.60336,"lng":-83.62715,"zip":"43614","miles_from_dt":15.66},{"city":"Toledo","state_name":"Ohio","lat":41.62849,"lng":-83.57824,"zip":"43609","miles_from_dt":15.79},{"city":"Monclova","state_name":"Ohio","lat":41.56642,"lng":-83.76531,"zip":"43542","miles_from_dt":15.97},{"city":"Toledo","state_name":"Ohio","lat":41.64729,"lng":-83.54763,"zip":"43601","miles_from_dt":16.03},{"city":"Toledo","state_name":"Ohio","lat":41.65217,"lng":-83.53977,"zip":"43604","miles_from_dt":16.13},{"city":"Adrian","state_name":"Michigan","lat":41.90343,"lng":-84.06372,"zip":"49221","miles_from_dt":16.17},{"city":"Azalia","state_name":"Michigan","lat":42.01547,"lng":-83.66884,"zip":"48110","miles_from_dt":16.19},{"city":"Maumee","state_name":"Ohio","lat":41.57433,"lng":-83.68542,"zip":"43537","miles_from_dt":16.22},{"city":"Toledo","state_name":"Ohio","lat":41.64478,"lng":-83.54344,"zip":"43697","miles_from_dt":16.31},{"city":"Toledo","state_name":"Ohio","lat":41.65097,"lng":-83.53648,"zip":"43652","miles_from_dt":16.32},{"city":"Toledo","state_name":"Ohio","lat":41.65089,"lng":-83.53523,"zip":"43667","miles_from_dt":16.37},{"city":"Toledo","state_name":"Ohio","lat":41.64259,"lng":-83.544,"zip":"43682","miles_from_dt":16.38},{"city":"Toledo","state_name":"Ohio","lat":41.64925,"lng":-83.53679,"zip":"43659","miles_from_dt":16.38},{"city":"Toledo","state_name":"Ohio","lat":41.65807,"lng":-83.52738,"zip":"43603","miles_from_dt":16.4},{"city":"Toledo","state_name":"Ohio","lat":41.65445,"lng":-83.53039,"zip":"43666","miles_from_dt":16.42},{"city":"Toledo","state_name":"Ohio","lat":41.64221,"lng":-83.54216,"zip":"43681","miles_from_dt":16.47},{"city":"Toledo","state_name":"Ohio","lat":41.70241,"lng":-83.49154,"zip":"43611","miles_from_dt":16.49},{"city":"Toledo","state_name":"Ohio","lat":41.63895,"lng":-83.54468,"zip":"43660","miles_from_dt":16.52},{"city":"Sand Creek","state_name":"Michigan","lat":41.77965,"lng":-84.10409,"zip":"49279","miles_from_dt":16.56},{"city":"Weston","state_name":"Michigan","lat":41.77144,"lng":-84.10702,"zip":"49289","miles_from_dt":16.77},{"city":"Tecumseh","state_name":"Michigan","lat":42.01443,"lng":-83.93447,"zip":"49286","miles_from_dt":16.87},{"city":"Lyons","state_name":"Ohio","lat":41.69335,"lng":-84.07997,"zip":"43533","miles_from_dt":16.88},{"city":"La Salle","state_name":"Michigan","lat":41.85122,"lng":-83.46331,"zip":"48145","miles_from_dt":16.98},{"city":"Rossford","state_name":"Ohio","lat":41.60392,"lng":-83.56328,"zip":"43460","miles_from_dt":17.57},{"city":"Toledo","state_name":"Ohio","lat":41.64734,"lng":-83.50722,"zip":"43605","miles_from_dt":17.67},{"city":"Monroe","state_name":"Michigan","lat":41.90818,"lng":-83.47263,"zip":"48161","miles_from_dt":17.81},{"city":"Luna Pier","state_name":"Michigan","lat":41.81495,"lng":-83.43776,"zip":"48157","miles_from_dt":17.94},{"city":"Toledo","state_name":"Ohio","lat":41.60596,"lng":-83.537,"zip":"43654","miles_from_dt":18.39},{"city":"Delta","state_name":"Ohio","lat":41.58656,"lng":-84.00746,"zip":"43515","miles_from_dt":18.57},{"city":"Perrysburg","state_name":"Ohio","lat":41.55391,"lng":-83.62606,"zip":"43552","miles_from_dt":18.69},{"city":"Harbor View","state_name":"Ohio","lat":41.69319,"lng":-83.44474,"zip":"43434","miles_from_dt":18.97},{"city":"Whitehouse","state_name":"Ohio","lat":41.51574,"lng":-83.81796,"zip":"43571","miles_from_dt":19.51},{"city":"Maybee","state_name":"Michigan","lat":42.02562,"lng":-83.55598,"zip":"48159","miles_from_dt":19.67},{"city":"Milan","state_name":"Michigan","lat":42.08256,"lng":-83.67978,"zip":"48160","miles_from_dt":20.41},{"city":"Northwood","state_name":"Ohio","lat":41.60424,"lng":-83.47348,"zip":"43619","miles_from_dt":20.88},{"city":"Waterville","state_name":"Ohio","lat":41.49467,"lng":-83.75838,"zip":"43566","miles_from_dt":20.93},{"city":"Clinton","state_name":"Michigan","lat":42.07792,"lng":-83.95035,"zip":"49236","miles_from_dt":21.17},{"city":"Monroe","state_name":"Michigan","lat":41.96045,"lng":-83.43503,"zip":"48162","miles_from_dt":21.24},{"city":"Walbridge","state_name":"Ohio","lat":41.56593,"lng":-83.50489,"zip":"43465","miles_from_dt":21.54},{"city":"Neapolis","state_name":"Ohio","lat":41.49214,"lng":-83.87634,"zip":"43547","miles_from_dt":21.59},{"city":"Oregon","state_name":"Ohio","lat":41.65727,"lng":-83.40931,"zip":"43616","miles_from_dt":21.66},{"city":"Tipton","state_name":"Michigan","lat":42.02177,"lng":-84.08263,"zip":"49287","miles_from_dt":21.83},{"city":"Perrysburg","state_name":"Ohio","lat":41.52095,"lng":-83.57503,"zip":"43551","miles_from_dt":21.93},{"city":"Clayton","state_name":"Michigan","lat":41.86348,"lng":-84.21348,"zip":"49235","miles_from_dt":22.62},{"city":"Morenci","state_name":"Michigan","lat":41.74989,"lng":-84.22122,"zip":"49256","miles_from_dt":22.81},{"city":"Haskins","state_name":"Ohio","lat":41.46663,"lng":-83.70098,"zip":"43525","miles_from_dt":23.23},{"city":"Millbury","state_name":"Ohio","lat":41.56654,"lng":-83.43429,"zip":"43447","miles_from_dt":24.12},{"city":"Wauseon","state_name":"Ohio","lat":41.57592,"lng":-84.15248,"zip":"43567","miles_from_dt":24.42},{"city":"Saline","state_name":"Michigan","lat":42.15067,"lng":-83.81477,"zip":"48176","miles_from_dt":24.44},{"city":"Colton","state_name":"Ohio","lat":41.46484,"lng":-83.94712,"zip":"43510","miles_from_dt":24.45},{"city":"Stony Ridge","state_name":"Ohio","lat":41.51141,"lng":-83.50511,"zip":"43463","miles_from_dt":24.46},{"city":"Whittaker","state_name":"Michigan","lat":42.13162,"lng":-83.60327,"zip":"48190","miles_from_dt":24.88},{"city":"Onsted","state_name":"Michigan","lat":42.01022,"lng":-84.17432,"zip":"49265","miles_from_dt":24.9},{"city":"Willis","state_name":"Michigan","lat":42.12022,"lng":-83.56492,"zip":"48191","miles_from_dt":24.99},{"city":"Dunbridge","state_name":"Ohio","lat":41.45165,"lng":-83.61724,"zip":"43414","miles_from_dt":25.38},{"city":"Liberty Center","state_name":"Ohio","lat":41.45486,"lng":-83.97008,"zip":"43532","miles_from_dt":25.52},{"city":"Carleton","state_name":"Michigan","lat":42.04984,"lng":-83.40997,"zip":"48117","miles_from_dt":26},{"city":"Bridgewater","state_name":"Michigan","lat":42.16051,"lng":-83.92133,"zip":"48115","miles_from_dt":26.04},{"city":"Tontogany","state_name":"Ohio","lat":41.42044,"lng":-83.74011,"zip":"43565","miles_from_dt":26.11},{"city":"Grand Rapids","state_name":"Ohio","lat":41.42058,"lng":-83.84352,"zip":"43522","miles_from_dt":26.18},{"city":"Lemoyne","state_name":"Ohio","lat":41.49804,"lng":-83.47193,"zip":"43441","miles_from_dt":26.23},{"city":"Williston","state_name":"Ohio","lat":41.59974,"lng":-83.34661,"zip":"43468","miles_from_dt":26.43},{"city":"Curtice","state_name":"Ohio","lat":41.62933,"lng":-83.31961,"zip":"43412","miles_from_dt":26.68},{"city":"Clay Center","state_name":"Ohio","lat":41.57179,"lng":-83.36352,"zip":"43408","miles_from_dt":26.76},{"city":"Manitou Beach","state_name":"Michigan","lat":41.96443,"lng":-84.2697,"zip":"49253","miles_from_dt":27.56},{"city":"Bowling Green","state_name":"Ohio","lat":41.40957,"lng":-83.65389,"zip":"43402","miles_from_dt":27.6},{"city":"Manchester","state_name":"Michigan","lat":42.15564,"lng":-84.03031,"zip":"48158","miles_from_dt":27.79},{"city":"Fayette","state_name":"Ohio","lat":41.66377,"lng":-84.29717,"zip":"43521","miles_from_dt":28.07},{"city":"Luckey","state_name":"Ohio","lat":41.46099,"lng":-83.46906,"zip":"43443","miles_from_dt":28.38},{"city":"Genoa","state_name":"Ohio","lat":41.5238,"lng":-83.37329,"zip":"43430","miles_from_dt":28.44},{"city":"Newport","state_name":"Michigan","lat":41.98677,"lng":-83.29375,"zip":"48166","miles_from_dt":28.48},{"city":"Ypsilanti","state_name":"Michigan","lat":42.1973,"lng":-83.62903,"zip":"48197","miles_from_dt":28.74},{"city":"Hudson","state_name":"Michigan","lat":41.84712,"lng":-84.34189,"zip":"49247","miles_from_dt":28.99},{"city":"Martin","state_name":"Ohio","lat":41.58644,"lng":-83.29488,"zip":"43445","miles_from_dt":29.2},{"city":"Pettisville","state_name":"Ohio","lat":41.53096,"lng":-84.22382,"zip":"43553","miles_from_dt":29.25},{"city":"Ann Arbor","state_name":"Michigan","lat":42.22206,"lng":-83.7317,"zip":"48108","miles_from_dt":29.44},{"city":"Ann Arbor","state_name":"Michigan","lat":42.22795,"lng":-83.73885,"zip":"48106","miles_from_dt":29.81},{"city":"Bowling Green","state_name":"Ohio","lat":41.37784,"lng":-83.63653,"zip":"43403","miles_from_dt":29.95}],"targetCityZipCode":"49276","targetCityState":"Michigan"},"__N_SSG":true}