{"pageProps":{"stateName":"Michigan","cityName":"suttons-bay","nearbyCities":[{"city":"Lake Leelanau","state_name":"Michigan","lat":44.97184,"lng":-85.7302,"zip":"49653","miles_from_dt":3.91},{"city":"Omena","state_name":"Michigan","lat":45.0544,"lng":-85.58882,"zip":"49674","miles_from_dt":6},{"city":"Old Mission","state_name":"Michigan","lat":44.95461,"lng":-85.48863,"zip":"49673","miles_from_dt":8.15},{"city":"Northport","state_name":"Michigan","lat":45.12088,"lng":-85.62096,"zip":"49670","miles_from_dt":9.87},{"city":"Cedar","state_name":"Michigan","lat":44.86229,"lng":-85.77555,"zip":"49621","miles_from_dt":10.14},{"city":"Traverse City","state_name":"Michigan","lat":44.82841,"lng":-85.53597,"zip":"49686","miles_from_dt":11.87},{"city":"Traverse City","state_name":"Michigan","lat":44.80191,"lng":-85.70549,"zip":"49684","miles_from_dt":12.55},{"city":"Elk Rapids","state_name":"Michigan","lat":44.90835,"lng":-85.39424,"zip":"49629","miles_from_dt":13.53},{"city":"Maple City","state_name":"Michigan","lat":44.87457,"lng":-85.89058,"zip":"49664","miles_from_dt":13.8},{"city":"Acme","state_name":"Michigan","lat":44.79302,"lng":-85.49457,"zip":"49610","miles_from_dt":15},{"city":"Kewadin","state_name":"Michigan","lat":44.98359,"lng":-85.3435,"zip":"49648","miles_from_dt":15.08},{"city":"Eastport","state_name":"Michigan","lat":45.11261,"lng":-85.35677,"zip":"49627","miles_from_dt":17.09},{"city":"Empire","state_name":"Michigan","lat":44.92262,"lng":-86.00074,"zip":"49630","miles_from_dt":17.58},{"city":"Leland","state_name":"Michigan","lat":45.0268,"lng":-86.00875,"zip":"49654","miles_from_dt":17.82},{"city":"Glen Arbor","state_name":"Michigan","lat":44.87261,"lng":-85.99292,"zip":"49636","miles_from_dt":18.32},{"city":"Williamsburg","state_name":"Michigan","lat":44.77915,"lng":-85.38964,"zip":"49690","miles_from_dt":18.88},{"city":"Traverse City","state_name":"Michigan","lat":44.69859,"lng":-85.70425,"zip":"49685","miles_from_dt":19.57},{"city":"Central Lake","state_name":"Michigan","lat":45.0785,"lng":-85.26583,"zip":"49622","miles_from_dt":20.07},{"city":"Rapid City","state_name":"Michigan","lat":44.84147,"lng":-85.29028,"zip":"49676","miles_from_dt":20.11},{"city":"Lake Ann","state_name":"Michigan","lat":44.73359,"lng":-85.88033,"zip":"49650","miles_from_dt":20.37},{"city":"Bellaire","state_name":"Michigan","lat":44.97219,"lng":-85.20683,"zip":"49615","miles_from_dt":21.79},{"city":"Ellsworth","state_name":"Michigan","lat":45.16123,"lng":-85.28255,"zip":"49729","miles_from_dt":21.97},{"city":"Alden","state_name":"Michigan","lat":44.86212,"lng":-85.22561,"zip":"49612","miles_from_dt":22.4},{"city":"Traverse City","state_name":"Michigan","lat":44.6764,"lng":-85.48413,"zip":"49696","miles_from_dt":22.48},{"city":"Grawn","state_name":"Michigan","lat":44.62897,"lng":-85.71083,"zip":"49637","miles_from_dt":24.38},{"city":"Interlochen","state_name":"Michigan","lat":44.63959,"lng":-85.83357,"zip":"49643","miles_from_dt":25.13},{"city":"Honor","state_name":"Michigan","lat":44.72088,"lng":-86.03664,"zip":"49640","miles_from_dt":26.03},{"city":"Mayfield","state_name":"Michigan","lat":44.59799,"lng":-85.53436,"zip":"49666","miles_from_dt":26.97},{"city":"Charlevoix","state_name":"Michigan","lat":45.27555,"lng":-85.23984,"zip":"49720","miles_from_dt":28.67},{"city":"East Jordan","state_name":"Michigan","lat":45.13452,"lng":-85.10679,"zip":"49727","miles_from_dt":28.71},{"city":"Kingsley","state_name":"Michigan","lat":44.5685,"lng":-85.52596,"zip":"49649","miles_from_dt":29.04}],"targetCityZipCode":"49682","targetCityState":"Michigan"},"__N_SSG":true}