{"pageProps":{"stateName":"Idaho","cityName":"riggins","nearbyCities":[{"city":"Pollock","state_name":"Idaho","lat":45.31165,"lng":-116.33062,"zip":"83547","miles_from_dt":5.28},{"city":"Lucile","state_name":"Idaho","lat":45.55291,"lng":-116.3115,"zip":"83542","miles_from_dt":13.17},{"city":"New Meadows","state_name":"Idaho","lat":45.13647,"lng":-116.39626,"zip":"83654","miles_from_dt":17.31},{"city":"White Bird","state_name":"Idaho","lat":45.68522,"lng":-116.29936,"zip":"83554","miles_from_dt":22.12},{"city":"Mccall","state_name":"Idaho","lat":45.1504,"lng":-115.82001,"zip":"83638","miles_from_dt":25.93},{"city":"Warren","state_name":"Idaho","lat":45.26427,"lng":-115.67581,"zip":"83671","miles_from_dt":29.08}],"targetCityZipCode":"83549","targetCityState":"Idaho"},"__N_SSG":true}