{"pageProps":{"stateName":"New-jersey","cityName":"milmay","nearbyCities":[{"city":"Dorothy","state_name":"New Jersey","lat":39.40398,"lng":-74.82696,"zip":"08317","miles_from_dt":3.06},{"city":"Estell Manor","state_name":"New Jersey","lat":39.3645,"lng":-74.81753,"zip":"08319","miles_from_dt":4.36},{"city":"Vineland","state_name":"New Jersey","lat":39.44843,"lng":-74.95943,"zip":"08361","miles_from_dt":5.2},{"city":"Richland","state_name":"New Jersey","lat":39.49134,"lng":-74.87413,"zip":"08350","miles_from_dt":6.26},{"city":"Mizpah","state_name":"New Jersey","lat":39.48808,"lng":-74.83431,"zip":"08342","miles_from_dt":6.58},{"city":"Port Elizabeth","state_name":"New Jersey","lat":39.31381,"lng":-74.96594,"zip":"08348","miles_from_dt":7.44},{"city":"Vineland","state_name":"New Jersey","lat":39.46556,"lng":-74.9992,"zip":"08362","miles_from_dt":7.61},{"city":"Millville","state_name":"New Jersey","lat":39.3705,"lng":-75.0293,"zip":"08332","miles_from_dt":8.05},{"city":"Mays Landing","state_name":"New Jersey","lat":39.4566,"lng":-74.73814,"zip":"08330","miles_from_dt":8.7},{"city":"Dorchester","state_name":"New Jersey","lat":39.28009,"lng":-74.93186,"zip":"08316","miles_from_dt":8.72},{"city":"Buena","state_name":"New Jersey","lat":39.52723,"lng":-74.89769,"zip":"08310","miles_from_dt":8.75},{"city":"Minotola","state_name":"New Jersey","lat":39.52002,"lng":-74.9524,"zip":"08341","miles_from_dt":9},{"city":"Vineland","state_name":"New Jersey","lat":39.49374,"lng":-75.00352,"zip":"08360","miles_from_dt":9.05},{"city":"Landisville","state_name":"New Jersey","lat":39.53847,"lng":-74.92761,"zip":"08326","miles_from_dt":9.77},{"city":"Tuckahoe","state_name":"New Jersey","lat":39.29001,"lng":-74.75905,"zip":"08250","miles_from_dt":10.17},{"city":"Mauricetown","state_name":"New Jersey","lat":39.2857,"lng":-75.00338,"zip":"08329","miles_from_dt":10.2},{"city":"Woodbine","state_name":"New Jersey","lat":39.26437,"lng":-74.80861,"zip":"08270","miles_from_dt":10.25},{"city":"Leesburg","state_name":"New Jersey","lat":39.25458,"lng":-74.94657,"zip":"08327","miles_from_dt":10.63},{"city":"Newtonville","state_name":"New Jersey","lat":39.56926,"lng":-74.85827,"zip":"08346","miles_from_dt":11.7},{"city":"Norma","state_name":"New Jersey","lat":39.49378,"lng":-75.08778,"zip":"08347","miles_from_dt":12.64},{"city":"Newfield","state_name":"New Jersey","lat":39.56707,"lng":-74.99185,"zip":"08344","miles_from_dt":12.83},{"city":"Delmont","state_name":"New Jersey","lat":39.21683,"lng":-74.94113,"zip":"08314","miles_from_dt":13.06},{"city":"Port Norris","state_name":"New Jersey","lat":39.266,"lng":-75.06337,"zip":"08349","miles_from_dt":13.37},{"city":"Egg Harbor Township","state_name":"New Jersey","lat":39.38662,"lng":-74.62369,"zip":"08234","miles_from_dt":13.97},{"city":"Rosenhayn","state_name":"New Jersey","lat":39.47545,"lng":-75.12724,"zip":"08352","miles_from_dt":13.99},{"city":"Heislerville","state_name":"New Jersey","lat":39.21859,"lng":-74.99999,"zip":"08324","miles_from_dt":14.03},{"city":"Dennisville","state_name":"New Jersey","lat":39.19133,"lng":-74.8241,"zip":"08214","miles_from_dt":14.81},{"city":"Fairton","state_name":"New Jersey","lat":39.3851,"lng":-75.16059,"zip":"08320","miles_from_dt":14.84},{"city":"Dividing Creek","state_name":"New Jersey","lat":39.26969,"lng":-75.10486,"zip":"08315","miles_from_dt":14.89},{"city":"Elwood","state_name":"New Jersey","lat":39.57702,"lng":-74.71879,"zip":"08217","miles_from_dt":15.02},{"city":"Marmora","state_name":"New Jersey","lat":39.27021,"lng":-74.6571,"zip":"08223","miles_from_dt":15.14},{"city":"Malaga","state_name":"New Jersey","lat":39.5797,"lng":-75.06015,"zip":"08328","miles_from_dt":15.52},{"city":"South Dennis","state_name":"New Jersey","lat":39.1765,"lng":-74.81902,"zip":"08245","miles_from_dt":15.87},{"city":"Newport","state_name":"New Jersey","lat":39.28816,"lng":-75.14668,"zip":"08345","miles_from_dt":16.07},{"city":"Cologne","state_name":"New Jersey","lat":39.49921,"lng":-74.60825,"zip":"08213","miles_from_dt":16.24},{"city":"Somers Point","state_name":"New Jersey","lat":39.31503,"lng":-74.59808,"zip":"08244","miles_from_dt":16.42},{"city":"South Seaville","state_name":"New Jersey","lat":39.18098,"lng":-74.76583,"zip":"08246","miles_from_dt":16.44},{"city":"Ocean View","state_name":"New Jersey","lat":39.20381,"lng":-74.70342,"zip":"08230","miles_from_dt":16.69},{"city":"Franklinville","state_name":"New Jersey","lat":39.61463,"lng":-75.03385,"zip":"08322","miles_from_dt":16.78},{"city":"Winslow","state_name":"New Jersey","lat":39.64514,"lng":-74.85576,"zip":"08095","miles_from_dt":16.92},{"city":"Hammonton","state_name":"New Jersey","lat":39.63272,"lng":-74.77226,"zip":"08037","miles_from_dt":17.07},{"city":"Linwood","state_name":"New Jersey","lat":39.33879,"lng":-74.5652,"zip":"08221","miles_from_dt":17.6},{"city":"Ocean City","state_name":"New Jersey","lat":39.26812,"lng":-74.60196,"zip":"08226","miles_from_dt":17.67},{"city":"Goshen","state_name":"New Jersey","lat":39.14374,"lng":-74.862,"zip":"08218","miles_from_dt":17.78},{"city":"Williamstown","state_name":"New Jersey","lat":39.65096,"lng":-74.96529,"zip":"08094","miles_from_dt":17.79},{"city":"Cedarville","state_name":"New Jersey","lat":39.32685,"lng":-75.20804,"zip":"08311","miles_from_dt":18.08},{"city":"Strathmere","state_name":"New Jersey","lat":39.1944,"lng":-74.66175,"zip":"08248","miles_from_dt":18.57},{"city":"Fortescue","state_name":"New Jersey","lat":39.21961,"lng":-75.14107,"zip":"08321","miles_from_dt":18.6},{"city":"Northfield","state_name":"New Jersey","lat":39.36167,"lng":-74.53963,"zip":"08225","miles_from_dt":18.64},{"city":"Elmer","state_name":"New Jersey","lat":39.55657,"lng":-75.17776,"zip":"08318","miles_from_dt":19.02},{"city":"Longport","state_name":"New Jersey","lat":39.31915,"lng":-74.53535,"zip":"08403","miles_from_dt":19.51},{"city":"Pomona","state_name":"New Jersey","lat":39.48676,"lng":-74.53633,"zip":"08240","miles_from_dt":19.52},{"city":"Cape May Court House","state_name":"New Jersey","lat":39.11974,"lng":-74.82248,"zip":"08210","miles_from_dt":19.67},{"city":"Pleasantville","state_name":"New Jersey","lat":39.38771,"lng":-74.51489,"zip":"08232","miles_from_dt":19.78},{"city":"Sea Isle City","state_name":"New Jersey","lat":39.15235,"lng":-74.69758,"zip":"08243","miles_from_dt":19.85},{"city":"Bridgeton","state_name":"New Jersey","lat":39.4397,"lng":-75.2616,"zip":"08302","miles_from_dt":20.38},{"city":"Egg Harbor City","state_name":"New Jersey","lat":39.58962,"lng":-74.58716,"zip":"08215","miles_from_dt":20.53},{"city":"Deerfield Street","state_name":"New Jersey","lat":39.53065,"lng":-75.23101,"zip":"08313","miles_from_dt":20.6},{"city":"Margate City","state_name":"New Jersey","lat":39.33069,"lng":-74.50706,"zip":"08402","miles_from_dt":20.76},{"city":"Absecon","state_name":"New Jersey","lat":39.42257,"lng":-74.49511,"zip":"08201","miles_from_dt":20.87},{"city":"Clayton","state_name":"New Jersey","lat":39.66143,"lng":-75.08375,"zip":"08312","miles_from_dt":20.9},{"city":"Cedar Brook","state_name":"New Jersey","lat":39.71074,"lng":-74.9013,"zip":"08018","miles_from_dt":21.4},{"city":"Ventnor City","state_name":"New Jersey","lat":39.34565,"lng":-74.48603,"zip":"08406","miles_from_dt":21.65},{"city":"Waterford Works","state_name":"New Jersey","lat":39.71591,"lng":-74.82686,"zip":"08089","miles_from_dt":21.95},{"city":"Avalon","state_name":"New Jersey","lat":39.09659,"lng":-74.74806,"zip":"08202","miles_from_dt":22.22},{"city":"Shiloh","state_name":"New Jersey","lat":39.45954,"lng":-75.29695,"zip":"08353","miles_from_dt":22.46},{"city":"Monroeville","state_name":"New Jersey","lat":39.64057,"lng":-75.1699,"zip":"08343","miles_from_dt":22.51},{"city":"Oceanville","state_name":"New Jersey","lat":39.4648,"lng":-74.46038,"zip":"08231","miles_from_dt":23.09},{"city":"Atlantic City","state_name":"New Jersey","lat":39.37964,"lng":-74.45284,"zip":"08401","miles_from_dt":23.13},{"city":"Port Republic","state_name":"New Jersey","lat":39.53278,"lng":-74.48523,"zip":"08241","miles_from_dt":23.19},{"city":"Absecon","state_name":"New Jersey","lat":39.47455,"lng":-74.45698,"zip":"08205","miles_from_dt":23.41},{"city":"Sicklerville","state_name":"New Jersey","lat":39.73421,"lng":-74.97564,"zip":"08081","miles_from_dt":23.51},{"city":"Glassboro","state_name":"New Jersey","lat":39.69336,"lng":-75.11949,"zip":"08028","miles_from_dt":23.78},{"city":"Stone Harbor","state_name":"New Jersey","lat":39.05279,"lng":-74.78508,"zip":"08247","miles_from_dt":24.59},{"city":"Atco","state_name":"New Jersey","lat":39.75494,"lng":-74.83007,"zip":"08004","miles_from_dt":24.6},{"city":"Atlantic City","state_name":"New Jersey","lat":39.36265,"lng":-74.42594,"zip":"08404","miles_from_dt":24.67},{"city":"Atlantic City","state_name":"New Jersey","lat":39.36605,"lng":-74.42241,"zip":"08405","miles_from_dt":24.83},{"city":"Berlin","state_name":"New Jersey","lat":39.76154,"lng":-74.93279,"zip":"08009","miles_from_dt":25.02},{"city":"Green Creek","state_name":"New Jersey","lat":39.03821,"lng":-74.89703,"zip":"08219","miles_from_dt":25.03},{"city":"Leeds Point","state_name":"New Jersey","lat":39.49915,"lng":-74.43253,"zip":"08220","miles_from_dt":25.08},{"city":"Whitesboro","state_name":"New Jersey","lat":39.03699,"lng":-74.86342,"zip":"08252","miles_from_dt":25.13},{"city":"Greenwich","state_name":"New Jersey","lat":39.39557,"lng":-75.36605,"zip":"08323","miles_from_dt":25.8},{"city":"Villas","state_name":"New Jersey","lat":39.02766,"lng":-74.92573,"zip":"08251","miles_from_dt":25.84},{"city":"Ewan","state_name":"New Jersey","lat":39.69757,"lng":-75.18274,"zip":"08025","miles_from_dt":25.95},{"city":"New Gretna","state_name":"New Jersey","lat":39.59548,"lng":-74.46352,"zip":"08224","miles_from_dt":26.18},{"city":"Richwood","state_name":"New Jersey","lat":39.71289,"lng":-75.16379,"zip":"08074","miles_from_dt":26.2},{"city":"Rio Grande","state_name":"New Jersey","lat":39.01786,"lng":-74.88627,"zip":"08242","miles_from_dt":26.42},{"city":"Pitman","state_name":"New Jersey","lat":39.73227,"lng":-75.13457,"zip":"08071","miles_from_dt":26.49},{"city":"Brigantine","state_name":"New Jersey","lat":39.41281,"lng":-74.38006,"zip":"08203","miles_from_dt":26.99},{"city":"Alloway","state_name":"New Jersey","lat":39.55423,"lng":-75.35683,"zip":"08001","miles_from_dt":27.4},{"city":"Sewell","state_name":"New Jersey","lat":39.75714,"lng":-75.11801,"zip":"08080","miles_from_dt":27.57},{"city":"Grenloch","state_name":"New Jersey","lat":39.78048,"lng":-75.05952,"zip":"08032","miles_from_dt":27.81},{"city":"Blackwood","state_name":"New Jersey","lat":39.78409,"lng":-75.05586,"zip":"08012","miles_from_dt":27.98},{"city":"West Berlin","state_name":"New Jersey","lat":39.80545,"lng":-74.92558,"zip":"08091","miles_from_dt":28},{"city":"Wildwood","state_name":"New Jersey","lat":38.99555,"lng":-74.84088,"zip":"08260","miles_from_dt":28.06},{"city":"Mullica Hill","state_name":"New Jersey","lat":39.71465,"lng":-75.22124,"zip":"08062","miles_from_dt":28.16},{"city":"Clementon","state_name":"New Jersey","lat":39.80604,"lng":-75.00025,"zip":"08021","miles_from_dt":28.63},{"city":"Harrisonville","state_name":"New Jersey","lat":39.68662,"lng":-75.27661,"zip":"08039","miles_from_dt":28.78},{"city":"Woodstown","state_name":"New Jersey","lat":39.63934,"lng":-75.3316,"zip":"08098","miles_from_dt":29.02},{"city":"Cape May","state_name":"New Jersey","lat":38.97131,"lng":-74.92054,"zip":"08204","miles_from_dt":29.7},{"city":"Quinton","state_name":"New Jersey","lat":39.54495,"lng":-75.41258,"zip":"08072","miles_from_dt":29.95}],"targetCityZipCode":"08340","targetCityState":"New Jersey"},"__N_SSG":true}