{"pageProps":{"stateName":"South-carolina","cityName":"heath-springs","nearbyCities":[{"city":"Camden","state_name":"South Carolina","lat":34.56,"lng":-80.58219,"zip":"29021","miles_from_dt":8.7},{"city":"Liberty Hill","state_name":"South Carolina","lat":34.4512,"lng":-80.8144,"zip":"29074","miles_from_dt":8.95},{"city":"Great Falls","state_name":"South Carolina","lat":34.57248,"lng":-80.91753,"zip":"29055","miles_from_dt":10.44},{"city":"Westville","state_name":"South Carolina","lat":34.44266,"lng":-80.60666,"zip":"29175","miles_from_dt":11.05},{"city":"Kershaw","state_name":"South Carolina","lat":34.54976,"lng":-80.53268,"zip":"29067","miles_from_dt":11.56},{"city":"Lancaster","state_name":"South Carolina","lat":34.74265,"lng":-80.73684,"zip":"29720","miles_from_dt":12.39},{"city":"Lancaster","state_name":"South Carolina","lat":34.7471,"lng":-80.71842,"zip":"29721","miles_from_dt":12.73},{"city":"Rock Hill","state_name":"South Carolina","lat":34.74958,"lng":-80.72082,"zip":"29731","miles_from_dt":12.89},{"city":"Rock Hill","state_name":"South Carolina","lat":34.74958,"lng":-80.72082,"zip":"29734","miles_from_dt":12.89},{"city":"Lancaster","state_name":"South Carolina","lat":34.74958,"lng":-80.72082,"zip":"29722","miles_from_dt":12.89},{"city":"Fort Lawn","state_name":"South Carolina","lat":34.71171,"lng":-80.9145,"zip":"29714","miles_from_dt":14.49},{"city":"Richburg","state_name":"South Carolina","lat":34.67716,"lng":-81.00528,"zip":"29729","miles_from_dt":17.31},{"city":"Ridgeway","state_name":"South Carolina","lat":34.32757,"lng":-80.89205,"zip":"29130","miles_from_dt":18.55},{"city":"Camden","state_name":"South Carolina","lat":34.31036,"lng":-80.59334,"zip":"29020","miles_from_dt":19.19},{"city":"Catawba","state_name":"South Carolina","lat":34.82293,"lng":-80.91592,"zip":"29704","miles_from_dt":20.68},{"city":"Van Wyck","state_name":"South Carolina","lat":34.8585,"lng":-80.84603,"zip":"29744","miles_from_dt":21.33},{"city":"Edgemoor","state_name":"South Carolina","lat":34.79439,"lng":-80.98398,"zip":"29712","miles_from_dt":21.35},{"city":"Lando","state_name":"South Carolina","lat":34.77503,"lng":-81.01248,"zip":"29724","miles_from_dt":21.54},{"city":"Bethune","state_name":"South Carolina","lat":34.44097,"lng":-80.37642,"zip":"29009","miles_from_dt":22.11},{"city":"Jefferson","state_name":"South Carolina","lat":34.6291,"lng":-80.35469,"zip":"29718","miles_from_dt":22.14},{"city":"Cassatt","state_name":"South Carolina","lat":34.34002,"lng":-80.44374,"zip":"29032","miles_from_dt":22.63},{"city":"Blackstock","state_name":"South Carolina","lat":34.54368,"lng":-81.13553,"zip":"29014","miles_from_dt":22.9},{"city":"Pageland","state_name":"South Carolina","lat":34.76831,"lng":-80.40445,"zip":"29728","miles_from_dt":23.54},{"city":"Waxhaw","state_name":"North Carolina","lat":34.91532,"lng":-80.73021,"zip":"28173","miles_from_dt":24.29},{"city":"Winnsboro","state_name":"South Carolina","lat":34.36472,"lng":-81.09821,"zip":"29180","miles_from_dt":24.85},{"city":"Monroe","state_name":"North Carolina","lat":34.89355,"lng":-80.54113,"zip":"28112","miles_from_dt":25.31},{"city":"Mineral Springs","state_name":"North Carolina","lat":34.93411,"lng":-80.67975,"zip":"28108","miles_from_dt":25.77},{"city":"Lugoff","state_name":"South Carolina","lat":34.18162,"lng":-80.6994,"zip":"29078","miles_from_dt":26.36},{"city":"Elgin","state_name":"South Carolina","lat":34.18389,"lng":-80.8141,"zip":"29045","miles_from_dt":26.52},{"city":"Rock Hill","state_name":"South Carolina","lat":34.8878,"lng":-81.02116,"zip":"29730","miles_from_dt":27.7},{"city":"Rion","state_name":"South Carolina","lat":34.30373,"lng":-81.12414,"zip":"29132","miles_from_dt":28.53},{"city":"Mount Croghan","state_name":"South Carolina","lat":34.71566,"lng":-80.2684,"zip":"29727","miles_from_dt":28.58},{"city":"McBee","state_name":"South Carolina","lat":34.47798,"lng":-80.24038,"zip":"29101","miles_from_dt":28.81},{"city":"Blythewood","state_name":"South Carolina","lat":34.20367,"lng":-80.99296,"zip":"29016","miles_from_dt":28.83},{"city":"Fort Mill","state_name":"South Carolina","lat":34.98148,"lng":-80.85669,"zip":"29707","miles_from_dt":29.67}],"targetCityZipCode":"29058","targetCityState":"South Carolina"},"__N_SSG":true}