{"pageProps":{"stateName":"South-carolina","cityName":"timmonsville","nearbyCities":[{"city":"Florence","state_name":"South Carolina","lat":34.20414,"lng":-79.82654,"zip":"29501","miles_from_dt":9.47},{"city":"Florence","state_name":"South Carolina","lat":34.19232,"lng":-79.80372,"zip":"29503","miles_from_dt":9.91},{"city":"Lynchburg","state_name":"South Carolina","lat":34.01525,"lng":-80.08374,"zip":"29080","miles_from_dt":10.26},{"city":"Olanta","state_name":"South Carolina","lat":33.95436,"lng":-79.93537,"zip":"29114","miles_from_dt":10.41},{"city":"Florence","state_name":"South Carolina","lat":34.19517,"lng":-79.79222,"zip":"29502","miles_from_dt":10.56},{"city":"Lamar","state_name":"South Carolina","lat":34.18798,"lng":-80.09654,"zip":"29069","miles_from_dt":10.56},{"city":"Florence","state_name":"South Carolina","lat":34.18424,"lng":-79.78254,"zip":"29504","miles_from_dt":10.61},{"city":"Effingham","state_name":"South Carolina","lat":34.0653,"lng":-79.74087,"zip":"29541","miles_from_dt":11.83},{"city":"Elliott","state_name":"South Carolina","lat":34.11252,"lng":-80.16131,"zip":"29046","miles_from_dt":12.62},{"city":"Darlington","state_name":"South Carolina","lat":34.28421,"lng":-79.85119,"zip":"29532","miles_from_dt":13.37},{"city":"Coward","state_name":"South Carolina","lat":33.98984,"lng":-79.74222,"zip":"29530","miles_from_dt":13.93},{"city":"Florence","state_name":"South Carolina","lat":34.12348,"lng":-79.68974,"zip":"29505","miles_from_dt":14.48},{"city":"Turbeville","state_name":"South Carolina","lat":33.88751,"lng":-80.00865,"zip":"29162","miles_from_dt":15.5},{"city":"Scranton","state_name":"South Carolina","lat":33.93894,"lng":-79.759,"zip":"29591","miles_from_dt":15.53},{"city":"Lydia","state_name":"South Carolina","lat":34.289,"lng":-80.11318,"zip":"29079","miles_from_dt":16.03},{"city":"Mayesville","state_name":"South Carolina","lat":33.99524,"lng":-80.21373,"zip":"29104","miles_from_dt":17.37},{"city":"Florence","state_name":"South Carolina","lat":34.2103,"lng":-79.64432,"zip":"29506","miles_from_dt":18.5},{"city":"Gable","state_name":"South Carolina","lat":33.8669,"lng":-80.12231,"zip":"29051","miles_from_dt":19.44},{"city":"Hartsville","state_name":"South Carolina","lat":34.36896,"lng":-80.08632,"zip":"29551","miles_from_dt":19.98},{"city":"Sardinia","state_name":"South Carolina","lat":33.83662,"lng":-80.08072,"zip":"29143","miles_from_dt":20.17},{"city":"Darlington","state_name":"South Carolina","lat":34.38903,"lng":-79.85028,"zip":"29540","miles_from_dt":20.24},{"city":"Bishopville","state_name":"South Carolina","lat":34.21487,"lng":-80.26946,"zip":"29010","miles_from_dt":20.26},{"city":"Hartsville","state_name":"South Carolina","lat":34.39309,"lng":-80.07595,"zip":"29550","miles_from_dt":21.28},{"city":"Lake City","state_name":"South Carolina","lat":33.83535,"lng":-79.74747,"zip":"29560","miles_from_dt":21.69},{"city":"New Zion","state_name":"South Carolina","lat":33.78648,"lng":-80.01433,"zip":"29111","miles_from_dt":22.37},{"city":"Cades","state_name":"South Carolina","lat":33.7892,"lng":-79.84851,"zip":"29518","miles_from_dt":22.43},{"city":"Sumter","state_name":"South Carolina","lat":33.96515,"lng":-80.30675,"zip":"29153","miles_from_dt":23.08},{"city":"Pamplico","state_name":"South Carolina","lat":33.9724,"lng":-79.57045,"zip":"29583","miles_from_dt":23.17},{"city":"Alcolu","state_name":"South Carolina","lat":33.78528,"lng":-80.17338,"zip":"29001","miles_from_dt":25.77},{"city":"Society Hill","state_name":"South Carolina","lat":34.49462,"lng":-79.85429,"zip":"29593","miles_from_dt":27.29},{"city":"Sumter","state_name":"South Carolina","lat":33.90864,"lng":-80.36259,"zip":"29151","miles_from_dt":27.72},{"city":"Dalzell","state_name":"South Carolina","lat":34.06253,"lng":-80.43455,"zip":"29040","miles_from_dt":28.43},{"city":"Sumter","state_name":"South Carolina","lat":33.87621,"lng":-80.35609,"zip":"29150","miles_from_dt":28.57},{"city":"Sellers","state_name":"South Carolina","lat":34.26941,"lng":-79.47704,"zip":"29592","miles_from_dt":28.9},{"city":"Blenheim","state_name":"South Carolina","lat":34.44323,"lng":-79.62414,"zip":"29516","miles_from_dt":29.53},{"city":"Marion","state_name":"South Carolina","lat":34.138,"lng":-79.42205,"zip":"29571","miles_from_dt":29.86}],"targetCityZipCode":"29161","targetCityState":"South Carolina"},"__N_SSG":true}