{"pageProps":{"stateName":"Louisiana","cityName":"jones","nearbyCities":[{"city":"Wilmot","state_name":"Arkansas","lat":33.05156,"lng":-91.56023,"zip":"71676","miles_from_dt":6.37},{"city":"Bonita","state_name":"Louisiana","lat":32.90084,"lng":-91.67443,"zip":"71223","miles_from_dt":7.15},{"city":"Oak Grove","state_name":"Louisiana","lat":32.87497,"lng":-91.428,"zip":"71263","miles_from_dt":10.27},{"city":"Parkdale","state_name":"Arkansas","lat":33.14338,"lng":-91.51333,"zip":"71661","miles_from_dt":13.12},{"city":"Mer Rouge","state_name":"Louisiana","lat":32.77802,"lng":-91.69515,"zip":"71261","miles_from_dt":14.39},{"city":"Forest","state_name":"Louisiana","lat":32.79223,"lng":-91.41291,"zip":"71242","miles_from_dt":14.84},{"city":"Kilbourne","state_name":"Louisiana","lat":32.99597,"lng":-91.31576,"zip":"71253","miles_from_dt":15.16},{"city":"Pioneer","state_name":"Louisiana","lat":32.70359,"lng":-91.48362,"zip":"71266","miles_from_dt":18.41},{"city":"Portland","state_name":"Arkansas","lat":33.22755,"lng":-91.42665,"zip":"71663","miles_from_dt":20.32},{"city":"Hamburg","state_name":"Arkansas","lat":33.20444,"lng":-91.77837,"zip":"71646","miles_from_dt":20.63},{"city":"Bastrop","state_name":"Louisiana","lat":32.8622,"lng":-91.91236,"zip":"71220","miles_from_dt":20.83},{"city":"Eudora","state_name":"Arkansas","lat":33.1253,"lng":-91.24753,"zip":"71640","miles_from_dt":22.08},{"city":"Bastrop","state_name":"Louisiana","lat":32.75636,"lng":-91.87619,"zip":"71221","miles_from_dt":22.52},{"city":"Lake Providence","state_name":"Louisiana","lat":32.79429,"lng":-91.23914,"zip":"71254","miles_from_dt":22.53},{"city":"Montrose","state_name":"Arkansas","lat":33.32018,"lng":-91.57635,"zip":"71658","miles_from_dt":24.83},{"city":"Epps","state_name":"Louisiana","lat":32.58413,"lng":-91.48024,"zip":"71237","miles_from_dt":26.45},{"city":"Oak Ridge","state_name":"Louisiana","lat":32.6029,"lng":-91.7734,"zip":"71264","miles_from_dt":27.22},{"city":"Chatham","state_name":"Mississippi","lat":33.11524,"lng":-91.13829,"zip":"38731","miles_from_dt":27.43},{"city":"Crossett","state_name":"Arkansas","lat":33.1369,"lng":-92.00133,"zip":"71635","miles_from_dt":27.68},{"city":"Transylvania","state_name":"Louisiana","lat":32.65244,"lng":-91.23397,"zip":"71286","miles_from_dt":28.96},{"city":"Collinston","state_name":"Louisiana","lat":32.6374,"lng":-91.89251,"zip":"71229","miles_from_dt":28.96}],"targetCityZipCode":"71250","targetCityState":"Louisiana"},"__N_SSG":true}