{"pageProps":{"stateName":"Louisiana","cityName":"lacassine","nearbyCities":[{"city":"Welsh","state_name":"Louisiana","lat":30.25604,"lng":-92.8397,"zip":"70591","miles_from_dt":5.08},{"city":"Iowa","state_name":"Louisiana","lat":30.24752,"lng":-93.01605,"zip":"70647","miles_from_dt":5.78},{"city":"Hayes","state_name":"Louisiana","lat":30.10767,"lng":-92.92938,"zip":"70646","miles_from_dt":8.7},{"city":"Fenton","state_name":"Louisiana","lat":30.36587,"lng":-92.91652,"zip":"70640","miles_from_dt":9.1},{"city":"Roanoke","state_name":"Louisiana","lat":30.25496,"lng":-92.73588,"zip":"70581","miles_from_dt":11.15},{"city":"Lake Charles","state_name":"Louisiana","lat":30.25609,"lng":-93.12346,"zip":"70615","miles_from_dt":12.23},{"city":"Lake Arthur","state_name":"Louisiana","lat":30.04988,"lng":-92.83139,"zip":"70549","miles_from_dt":13.75},{"city":"Jennings","state_name":"Louisiana","lat":30.26756,"lng":-92.66747,"zip":"70546","miles_from_dt":15.32},{"city":"Lake Charles","state_name":"Louisiana","lat":30.24109,"lng":-93.18,"zip":"70612","miles_from_dt":15.52},{"city":"Bell City","state_name":"Louisiana","lat":30.02723,"lng":-93.04966,"zip":"70630","miles_from_dt":16.19},{"city":"Lake Charles","state_name":"Louisiana","lat":30.22462,"lng":-93.21278,"zip":"70616","miles_from_dt":17.48},{"city":"Lake Charles","state_name":"Louisiana","lat":30.22627,"lng":-93.21525,"zip":"70601","miles_from_dt":17.63},{"city":"Lake Charles","state_name":"Louisiana","lat":30.22554,"lng":-93.21616,"zip":"70602","miles_from_dt":17.68},{"city":"Lake Charles","state_name":"Louisiana","lat":30.23107,"lng":-93.21864,"zip":"70629","miles_from_dt":17.82},{"city":"Lake Charles","state_name":"Louisiana","lat":30.17907,"lng":-93.21482,"zip":"70609","miles_from_dt":18},{"city":"Lake Charles","state_name":"Louisiana","lat":30.34594,"lng":-93.20156,"zip":"70611","miles_from_dt":18.48},{"city":"Kinder","state_name":"Louisiana","lat":30.50568,"lng":-92.88387,"zip":"70648","miles_from_dt":18.86},{"city":"Lake Charles","state_name":"Louisiana","lat":30.16534,"lng":-93.23238,"zip":"70606","miles_from_dt":19.24},{"city":"Mermentau","state_name":"Louisiana","lat":30.19072,"lng":-92.58325,"zip":"70556","miles_from_dt":20.4},{"city":"Elton","state_name":"Louisiana","lat":30.4705,"lng":-92.6993,"zip":"70532","miles_from_dt":21},{"city":"Reeves","state_name":"Louisiana","lat":30.52324,"lng":-93.03297,"zip":"70658","miles_from_dt":21.04},{"city":"Evangeline","state_name":"Louisiana","lat":30.25747,"lng":-92.56642,"zip":"70537","miles_from_dt":21.25},{"city":"Lake Charles","state_name":"Louisiana","lat":30.04982,"lng":-93.20606,"zip":"70607","miles_from_dt":21.27},{"city":"Westlake","state_name":"Louisiana","lat":30.24216,"lng":-93.27731,"zip":"70669","miles_from_dt":21.34},{"city":"Leblanc","state_name":"Louisiana","lat":30.54333,"lng":-92.95127,"zip":"70651","miles_from_dt":21.4},{"city":"Lake Charles","state_name":"Louisiana","lat":30.13048,"lng":-93.27418,"zip":"70605","miles_from_dt":22.32},{"city":"Ragley","state_name":"Louisiana","lat":30.5004,"lng":-93.14279,"zip":"70657","miles_from_dt":22.66},{"city":"Creole","state_name":"Louisiana","lat":29.86747,"lng":-92.87987,"zip":"70632","miles_from_dt":25.35},{"city":"Egan","state_name":"Louisiana","lat":30.23101,"lng":-92.49678,"zip":"70531","miles_from_dt":25.36},{"city":"Gueydan","state_name":"Louisiana","lat":30.00442,"lng":-92.5886,"zip":"70542","miles_from_dt":25.4},{"city":"Basile","state_name":"Louisiana","lat":30.44843,"lng":-92.57154,"zip":"70515","miles_from_dt":25.57},{"city":"Morse","state_name":"Louisiana","lat":30.12876,"lng":-92.50903,"zip":"70559","miles_from_dt":25.67},{"city":"Iota","state_name":"Louisiana","lat":30.33532,"lng":-92.5014,"zip":"70543","miles_from_dt":26.02},{"city":"Sulphur","state_name":"Louisiana","lat":30.2603,"lng":-93.37246,"zip":"70664","miles_from_dt":27.08},{"city":"Estherwood","state_name":"Louisiana","lat":30.16564,"lng":-92.45499,"zip":"70534","miles_from_dt":28.26},{"city":"Sulphur","state_name":"Louisiana","lat":30.2772,"lng":-93.39086,"zip":"70663","miles_from_dt":28.28}],"targetCityZipCode":"70650","targetCityState":"Louisiana"},"__N_SSG":true}