{"pageProps":{"stateName":"Arizona","cityName":"tumacacori","nearbyCities":[{"city":"Tubac","state_name":"Arizona","lat":31.62009,"lng":-111.05192,"zip":"85646","miles_from_dt":3.64},{"city":"Rio Rico","state_name":"Arizona","lat":31.51262,"lng":-111.00807,"zip":"85648","miles_from_dt":4.36},{"city":"Nogales","state_name":"Arizona","lat":31.42345,"lng":-111.03764,"zip":"85621","miles_from_dt":9.94},{"city":"Amado","state_name":"Arizona","lat":31.69497,"lng":-111.14655,"zip":"85645","miles_from_dt":10.63},{"city":"Nogales","state_name":"Arizona","lat":31.41448,"lng":-110.89358,"zip":"85628","miles_from_dt":13.81},{"city":"Green Valley","state_name":"Arizona","lat":31.80301,"lng":-111.09104,"zip":"85622","miles_from_dt":16.45},{"city":"Arivaca","state_name":"Arizona","lat":31.58453,"lng":-111.33359,"zip":"85601","miles_from_dt":17.08},{"city":"Green Valley","state_name":"Arizona","lat":31.81241,"lng":-110.92972,"zip":"85614","miles_from_dt":18.18},{"city":"Patagonia","state_name":"Arizona","lat":31.51768,"lng":-110.71039,"zip":"85624","miles_from_dt":20.02},{"city":"Sonoita","state_name":"Arizona","lat":31.72108,"lng":-110.69258,"zip":"85637","miles_from_dt":23.3},{"city":"Sahuarita","state_name":"Arizona","lat":31.91413,"lng":-111.01334,"zip":"85629","miles_from_dt":23.95},{"city":"Sasabe","state_name":"Arizona","lat":31.60632,"lng":-111.52827,"zip":"85633","miles_from_dt":28.64},{"city":"Tucson","state_name":"Arizona","lat":31.87623,"lng":-111.37472,"zip":"85736","miles_from_dt":28.81}],"targetCityZipCode":"85640","targetCityState":"Arizona"},"__N_SSG":true}