{"pageProps":{"stateName":"Illinois","cityName":"claremont","nearbyCities":[{"city":"Sumner","state_name":"Illinois","lat":38.72707,"lng":-87.84957,"zip":"62466","miles_from_dt":5.36},{"city":"Olney","state_name":"Illinois","lat":38.71436,"lng":-88.08777,"zip":"62450","miles_from_dt":8.22},{"city":"Calhoun","state_name":"Illinois","lat":38.62201,"lng":-87.98425,"zip":"62419","miles_from_dt":9.25},{"city":"Bridgeport","state_name":"Illinois","lat":38.70304,"lng":-87.76779,"zip":"62417","miles_from_dt":10.08},{"city":"Dundas","state_name":"Illinois","lat":38.83363,"lng":-88.10383,"zip":"62425","miles_from_dt":10.32},{"city":"West Liberty","state_name":"Illinois","lat":38.88441,"lng":-88.04645,"zip":"62475","miles_from_dt":10.68},{"city":"Parkersburg","state_name":"Illinois","lat":38.58715,"lng":-88.01774,"zip":"62452","miles_from_dt":12.07},{"city":"Sainte Marie","state_name":"Illinois","lat":38.92997,"lng":-88.0278,"zip":"62459","miles_from_dt":13.08},{"city":"West Salem","state_name":"Illinois","lat":38.53412,"lng":-88.00509,"zip":"62476","miles_from_dt":15.41},{"city":"Noble","state_name":"Illinois","lat":38.68073,"lng":-88.22939,"zip":"62868","miles_from_dt":16.22},{"city":"Lawrenceville","state_name":"Illinois","lat":38.74668,"lng":-87.63754,"zip":"62439","miles_from_dt":16.53},{"city":"Saint Francisville","state_name":"Illinois","lat":38.60661,"lng":-87.69639,"zip":"62460","miles_from_dt":16.71},{"city":"Willow Hill","state_name":"Illinois","lat":38.99864,"lng":-88.00129,"zip":"62480","miles_from_dt":17.28},{"city":"Flat Rock","state_name":"Illinois","lat":38.87301,"lng":-87.65891,"zip":"62427","miles_from_dt":17.47},{"city":"Oblong","state_name":"Illinois","lat":39.00419,"lng":-87.91069,"zip":"62449","miles_from_dt":17.47},{"city":"Stoy","state_name":"Illinois","lat":38.99793,"lng":-87.82385,"zip":"62464","miles_from_dt":18.14},{"city":"Allendale","state_name":"Illinois","lat":38.53254,"lng":-87.72783,"zip":"62410","miles_from_dt":19.12},{"city":"Newton","state_name":"Illinois","lat":38.96741,"lng":-88.17988,"zip":"62448","miles_from_dt":19.57},{"city":"Robinson","state_name":"Illinois","lat":38.99725,"lng":-87.75767,"zip":"62454","miles_from_dt":19.65},{"city":"Bone Gap","state_name":"Illinois","lat":38.45707,"lng":-87.98698,"zip":"62815","miles_from_dt":20.49},{"city":"Ingraham","state_name":"Illinois","lat":38.84217,"lng":-88.3253,"zip":"62434","miles_from_dt":21.53},{"city":"Sailor Springs","state_name":"Illinois","lat":38.7651,"lng":-88.35907,"zip":"62879","miles_from_dt":22.47},{"city":"Clay City","state_name":"Illinois","lat":38.67076,"lng":-88.34686,"zip":"62824","miles_from_dt":22.51},{"city":"Mount Erie","state_name":"Illinois","lat":38.49115,"lng":-88.21478,"zip":"62446","miles_from_dt":23.23},{"city":"Mount Carmel","state_name":"Illinois","lat":38.41575,"lng":-87.85526,"zip":"62863","miles_from_dt":23.69},{"city":"Palestine","state_name":"Illinois","lat":38.99394,"lng":-87.6066,"zip":"62451","miles_from_dt":24.66},{"city":"Bellmont","state_name":"Illinois","lat":38.38739,"lng":-87.90361,"zip":"62811","miles_from_dt":25.26},{"city":"Vincennes","state_name":"Indiana","lat":38.62136,"lng":-87.50594,"zip":"47591","miles_from_dt":25.32},{"city":"Decker","state_name":"Indiana","lat":38.48312,"lng":-87.61733,"zip":"47524","miles_from_dt":25.61},{"city":"Browns","state_name":"Illinois","lat":38.37772,"lng":-87.96749,"zip":"62818","miles_from_dt":25.86},{"city":"Yale","state_name":"Illinois","lat":39.12657,"lng":-88.02293,"zip":"62481","miles_from_dt":26.18},{"city":"Albion","state_name":"Illinois","lat":38.38405,"lng":-88.07492,"zip":"62806","miles_from_dt":26.37},{"city":"Annapolis","state_name":"Illinois","lat":39.14081,"lng":-87.84012,"zip":"62413","miles_from_dt":27.38},{"city":"Wheeler","state_name":"Illinois","lat":39.03731,"lng":-88.31239,"zip":"62479","miles_from_dt":27.97},{"city":"Hutsonville","state_name":"Illinois","lat":39.11276,"lng":-87.70514,"zip":"62433","miles_from_dt":27.99},{"city":"Keensburg","state_name":"Illinois","lat":38.34992,"lng":-87.86676,"zip":"62852","miles_from_dt":28.06},{"city":"Oaktown","state_name":"Indiana","lat":38.85705,"lng":-87.43611,"zip":"47561","miles_from_dt":28.32},{"city":"Bruceville","state_name":"Indiana","lat":38.7645,"lng":-87.41857,"zip":"47516","miles_from_dt":28.36},{"city":"Hidalgo","state_name":"Illinois","lat":39.13353,"lng":-88.14176,"zip":"62432","miles_from_dt":28.39},{"city":"Golden Gate","state_name":"Illinois","lat":38.3828,"lng":-88.19893,"zip":"62843","miles_from_dt":28.99},{"city":"Patoka","state_name":"Indiana","lat":38.41922,"lng":-87.60042,"zip":"47666","miles_from_dt":29.54},{"city":"Merom","state_name":"Indiana","lat":39.06528,"lng":-87.56658,"zip":"47861","miles_from_dt":29.65},{"city":"Louisville","state_name":"Illinois","lat":38.81271,"lng":-88.49353,"zip":"62858","miles_from_dt":29.99}],"targetCityZipCode":"62421","targetCityState":"Illinois"},"__N_SSG":true}