{"pageProps":{"stateName":"Illinois","cityName":"penfield","nearbyCities":[{"city":"Gifford","state_name":"Illinois","lat":40.31148,"lng":-88.01581,"zip":"61847","miles_from_dt":3.45},{"city":"Armstrong","state_name":"Illinois","lat":40.25869,"lng":-87.88989,"zip":"61812","miles_from_dt":4.53},{"city":"Potomac","state_name":"Illinois","lat":40.30362,"lng":-87.80047,"zip":"61865","miles_from_dt":7.95},{"city":"Royal","state_name":"Illinois","lat":40.19118,"lng":-87.97925,"zip":"61871","miles_from_dt":7.98},{"city":"Ludlow","state_name":"Illinois","lat":40.38042,"lng":-88.10239,"zip":"60949","miles_from_dt":9.55},{"city":"Rankin","state_name":"Illinois","lat":40.43879,"lng":-87.89132,"zip":"60960","miles_from_dt":9.77},{"city":"Collison","state_name":"Illinois","lat":40.22623,"lng":-87.79705,"zip":"61831","miles_from_dt":9.78},{"city":"Ogden","state_name":"Illinois","lat":40.15065,"lng":-87.96163,"zip":"61859","miles_from_dt":10.65},{"city":"Rantoul","state_name":"Illinois","lat":40.31148,"lng":-88.15837,"zip":"61866","miles_from_dt":10.96},{"city":"Thomasboro","state_name":"Illinois","lat":40.23953,"lng":-88.14945,"zip":"61878","miles_from_dt":11.41},{"city":"Fithian","state_name":"Illinois","lat":40.14431,"lng":-87.8711,"zip":"61844","miles_from_dt":11.85},{"city":"Saint Joseph","state_name":"Illinois","lat":40.14069,"lng":-88.03817,"zip":"61873","miles_from_dt":12.22},{"city":"Henning","state_name":"Illinois","lat":40.30694,"lng":-87.70096,"zip":"61848","miles_from_dt":13.21},{"city":"East Lynn","state_name":"Illinois","lat":40.46513,"lng":-87.80013,"zip":"60932","miles_from_dt":13.63},{"city":"Paxton","state_name":"Illinois","lat":40.44037,"lng":-88.13977,"zip":"60957","miles_from_dt":13.67},{"city":"Muncie","state_name":"Illinois","lat":40.11862,"lng":-87.84337,"zip":"61857","miles_from_dt":14.05},{"city":"Oakwood","state_name":"Illinois","lat":40.13166,"lng":-87.76438,"zip":"61858","miles_from_dt":15.49},{"city":"Urbana","state_name":"Illinois","lat":40.12288,"lng":-88.14863,"zip":"61802","miles_from_dt":16.33},{"city":"Rossville","state_name":"Illinois","lat":40.36848,"lng":-87.65115,"zip":"60963","miles_from_dt":16.43},{"city":"Loda","state_name":"Illinois","lat":40.52413,"lng":-88.07698,"zip":"60948","miles_from_dt":16.53},{"city":"Alvin","state_name":"Illinois","lat":40.29531,"lng":-87.62162,"zip":"61811","miles_from_dt":17.41},{"city":"Cissna Park","state_name":"Illinois","lat":40.55855,"lng":-87.88454,"zip":"60924","miles_from_dt":17.86},{"city":"Dewey","state_name":"Illinois","lat":40.29663,"lng":-88.30187,"zip":"61840","miles_from_dt":18.54},{"city":"Hoopeston","state_name":"Illinois","lat":40.46678,"lng":-87.66134,"zip":"60942","miles_from_dt":18.94},{"city":"Danville","state_name":"Illinois","lat":40.16428,"lng":-87.64028,"zip":"61834","miles_from_dt":19.08},{"city":"Urbana","state_name":"Illinois","lat":40.10937,"lng":-88.21175,"zip":"61801","miles_from_dt":19.29},{"city":"Urbana","state_name":"Illinois","lat":40.10639,"lng":-88.21405,"zip":"61803","miles_from_dt":19.52},{"city":"Claytonville","state_name":"Illinois","lat":40.56937,"lng":-87.81208,"zip":"60926","miles_from_dt":19.67},{"city":"Champaign","state_name":"Illinois","lat":40.12077,"lng":-88.2437,"zip":"61824","miles_from_dt":20.02},{"city":"Elliott","state_name":"Illinois","lat":40.46258,"lng":-88.27381,"zip":"60933","miles_from_dt":20.22},{"city":"Homer","state_name":"Illinois","lat":40.01145,"lng":-87.96185,"zip":"61849","miles_from_dt":20.24},{"city":"Fairmount","state_name":"Illinois","lat":40.02775,"lng":-87.82459,"zip":"61841","miles_from_dt":20.25},{"city":"Goodwine","state_name":"Illinois","lat":40.56696,"lng":-87.77714,"zip":"60939","miles_from_dt":20.28},{"city":"Champaign","state_name":"Illinois","lat":40.112,"lng":-88.24423,"zip":"61820","miles_from_dt":20.43},{"city":"Champaign","state_name":"Illinois","lat":40.10879,"lng":-88.24328,"zip":"61825","miles_from_dt":20.54},{"city":"Buckley","state_name":"Illinois","lat":40.59681,"lng":-88.02968,"zip":"60918","miles_from_dt":20.57},{"city":"Danville","state_name":"Illinois","lat":40.13186,"lng":-87.63256,"zip":"61832","miles_from_dt":20.64},{"city":"Bismarck","state_name":"Illinois","lat":40.23191,"lng":-87.57018,"zip":"61814","miles_from_dt":20.75},{"city":"Champaign","state_name":"Illinois","lat":40.13706,"lng":-88.27853,"zip":"61826","miles_from_dt":20.83},{"city":"Tilton","state_name":"Illinois","lat":40.09914,"lng":-87.64718,"zip":"61833","miles_from_dt":21.44},{"city":"Champaign","state_name":"Illinois","lat":40.11041,"lng":-88.27611,"zip":"61821","miles_from_dt":21.81},{"city":"Champaign","state_name":"Illinois","lat":40.13693,"lng":-88.30453,"zip":"61822","miles_from_dt":21.99},{"city":"Wellington","state_name":"Illinois","lat":40.53654,"lng":-87.66265,"zip":"60973","miles_from_dt":22.07},{"city":"Sidney","state_name":"Illinois","lat":39.99456,"lng":-88.07764,"zip":"61877","miles_from_dt":22.43},{"city":"Catlin","state_name":"Illinois","lat":40.03088,"lng":-87.71991,"zip":"61817","miles_from_dt":22.51},{"city":"Fisher","state_name":"Illinois","lat":40.31593,"lng":-88.38053,"zip":"61843","miles_from_dt":22.7},{"city":"State Line","state_name":"Indiana","lat":40.19728,"lng":-87.5268,"zip":"47982","miles_from_dt":23.62},{"city":"Melvin","state_name":"Illinois","lat":40.56373,"lng":-88.25142,"zip":"60952","miles_from_dt":23.88},{"city":"Savoy","state_name":"Illinois","lat":40.05062,"lng":-88.26078,"zip":"61874","miles_from_dt":24},{"city":"Foosland","state_name":"Illinois","lat":40.37308,"lng":-88.40076,"zip":"61845","miles_from_dt":24.21},{"city":"Gibson City","state_name":"Illinois","lat":40.46456,"lng":-88.36103,"zip":"60936","miles_from_dt":24.28},{"city":"Philo","state_name":"Illinois","lat":39.97989,"lng":-88.14437,"zip":"61864","miles_from_dt":24.64},{"city":"Westville","state_name":"Illinois","lat":40.03494,"lng":-87.63992,"zip":"61883","miles_from_dt":24.85},{"city":"Roberts","state_name":"Illinois","lat":40.62248,"lng":-88.18442,"zip":"60962","miles_from_dt":25.14},{"city":"Mahomet","state_name":"Illinois","lat":40.22344,"lng":-88.41555,"zip":"61853","miles_from_dt":25.19},{"city":"Bondville","state_name":"Illinois","lat":40.11075,"lng":-88.3679,"zip":"61815","miles_from_dt":25.8},{"city":"Milford","state_name":"Illinois","lat":40.62854,"lng":-87.6894,"zip":"60953","miles_from_dt":26.25},{"city":"Broadlands","state_name":"Illinois","lat":39.92444,"lng":-88.00398,"zip":"61816","miles_from_dt":26.39},{"city":"West Lebanon","state_name":"Indiana","lat":40.28034,"lng":-87.44794,"zip":"47991","miles_from_dt":26.63},{"city":"Thawville","state_name":"Illinois","lat":40.6746,"lng":-88.12049,"zip":"60968","miles_from_dt":27.04},{"city":"Allerton","state_name":"Illinois","lat":39.91019,"lng":-87.91837,"zip":"61810","miles_from_dt":27.28},{"city":"Onarga","state_name":"Illinois","lat":40.7004,"lng":-87.98008,"zip":"60955","miles_from_dt":27.34},{"city":"Ambia","state_name":"Indiana","lat":40.46881,"lng":-87.47633,"zip":"47917","miles_from_dt":27.49},{"city":"Tolono","state_name":"Illinois","lat":39.97482,"lng":-88.2458,"zip":"61880","miles_from_dt":27.6},{"city":"Indianola","state_name":"Illinois","lat":39.9301,"lng":-87.74346,"zip":"61850","miles_from_dt":28.09},{"city":"Sidell","state_name":"Illinois","lat":39.90534,"lng":-87.8398,"zip":"61876","miles_from_dt":28.18},{"city":"Williamsport","state_name":"Indiana","lat":40.31161,"lng":-87.41603,"zip":"47993","miles_from_dt":28.26},{"city":"Seymour","state_name":"Illinois","lat":40.10421,"lng":-88.42267,"zip":"61875","miles_from_dt":28.53},{"city":"Longview","state_name":"Illinois","lat":39.89951,"lng":-88.07277,"zip":"61852","miles_from_dt":28.69},{"city":"Georgetown","state_name":"Illinois","lat":39.97601,"lng":-87.61222,"zip":"61846","miles_from_dt":28.92},{"city":"Sibley","state_name":"Illinois","lat":40.57209,"lng":-88.37605,"zip":"61773","miles_from_dt":29.02},{"city":"Stockland","state_name":"Illinois","lat":40.6241,"lng":-87.58123,"zip":"60967","miles_from_dt":29.42}],"targetCityZipCode":"61862","targetCityState":"Illinois"},"__N_SSG":true}