{"pageProps":{"stateName":"Illinois","cityName":"altona","nearbyCities":[{"city":"Bishop Hill","state_name":"Illinois","lat":41.19982,"lng":-90.11751,"zip":"61419","miles_from_dt":5.46},{"city":"Oneida","state_name":"Illinois","lat":41.07115,"lng":-90.24338,"zip":"61467","miles_from_dt":5.97},{"city":"Woodhull","state_name":"Illinois","lat":41.18263,"lng":-90.26518,"zip":"61490","miles_from_dt":6.95},{"city":"Galva","state_name":"Illinois","lat":41.17387,"lng":-90.03598,"zip":"61434","miles_from_dt":7.03},{"city":"Victoria","state_name":"Illinois","lat":41.01677,"lng":-90.09764,"zip":"61485","miles_from_dt":8.11},{"city":"La Fayette","state_name":"Illinois","lat":41.08926,"lng":-89.97051,"zip":"61449","miles_from_dt":9.95},{"city":"Wataga","state_name":"Illinois","lat":41.03004,"lng":-90.32071,"zip":"61488","miles_from_dt":10.9},{"city":"Cambridge","state_name":"Illinois","lat":41.28727,"lng":-90.17647,"zip":"61238","miles_from_dt":11.19},{"city":"Rio","state_name":"Illinois","lat":41.10327,"lng":-90.38345,"zip":"61472","miles_from_dt":12.03},{"city":"Henderson","state_name":"Illinois","lat":41.02923,"lng":-90.35019,"zip":"61439","miles_from_dt":12.19},{"city":"Alpha","state_name":"Illinois","lat":41.19135,"lng":-90.37227,"zip":"61413","miles_from_dt":12.2},{"city":"Dahinda","state_name":"Illinois","lat":40.93262,"lng":-90.10977,"zip":"61428","miles_from_dt":13.55},{"city":"Andover","state_name":"Illinois","lat":41.29464,"lng":-90.29129,"zip":"61233","miles_from_dt":13.64},{"city":"Knoxville","state_name":"Illinois","lat":40.93385,"lng":-90.24374,"zip":"61448","miles_from_dt":14.05},{"city":"Kewanee","state_name":"Illinois","lat":41.25972,"lng":-89.94242,"zip":"61443","miles_from_dt":14.42},{"city":"Williamsfield","state_name":"Illinois","lat":40.93462,"lng":-90.02664,"zip":"61489","miles_from_dt":14.81},{"city":"Lynn Center","state_name":"Illinois","lat":41.27799,"lng":-90.35699,"zip":"61262","miles_from_dt":14.86},{"city":"East Galesburg","state_name":"Illinois","lat":40.94393,"lng":-90.31135,"zip":"61430","miles_from_dt":14.99},{"city":"Toulon","state_name":"Illinois","lat":41.08157,"lng":-89.87186,"zip":"61483","miles_from_dt":15.09},{"city":"Ophiem","state_name":"Illinois","lat":41.2565,"lng":-90.38751,"zip":"61468","miles_from_dt":15.1},{"city":"North Henderson","state_name":"Illinois","lat":41.11103,"lng":-90.48222,"zip":"61466","miles_from_dt":17.11},{"city":"Laura","state_name":"Illinois","lat":40.94117,"lng":-89.93555,"zip":"61451","miles_from_dt":17.15},{"city":"New Windsor","state_name":"Illinois","lat":41.20618,"lng":-90.46744,"zip":"61465","miles_from_dt":17.21},{"city":"Galesburg","state_name":"Illinois","lat":40.94451,"lng":-90.38888,"zip":"61401","miles_from_dt":17.5},{"city":"Osco","state_name":"Illinois","lat":41.37031,"lng":-90.27666,"zip":"61274","miles_from_dt":18.01},{"city":"Galesburg","state_name":"Illinois","lat":40.93993,"lng":-90.40627,"zip":"61402","miles_from_dt":18.36},{"city":"Gilson","state_name":"Illinois","lat":40.86067,"lng":-90.21739,"zip":"61436","miles_from_dt":18.6},{"city":"Atkinson","state_name":"Illinois","lat":41.39972,"lng":-90.0237,"zip":"61235","miles_from_dt":20.09},{"city":"Orion","state_name":"Illinois","lat":41.36426,"lng":-90.39907,"zip":"61273","miles_from_dt":20.79},{"city":"Neponset","state_name":"Illinois","lat":41.27981,"lng":-89.78878,"zip":"61345","miles_from_dt":21.84},{"city":"Viola","state_name":"Illinois","lat":41.19609,"lng":-90.57614,"zip":"61486","miles_from_dt":22.49},{"city":"Sherrard","state_name":"Illinois","lat":41.3009,"lng":-90.51992,"zip":"61281","miles_from_dt":22.53},{"city":"Wyoming","state_name":"Illinois","lat":41.05982,"lng":-89.72525,"zip":"61491","miles_from_dt":22.89},{"city":"Alexis","state_name":"Illinois","lat":41.07092,"lng":-90.58853,"zip":"61412","miles_from_dt":22.95},{"city":"Gerlaw","state_name":"Illinois","lat":40.99559,"lng":-90.5686,"zip":"61435","miles_from_dt":23.4},{"city":"Castleton","state_name":"Illinois","lat":41.11964,"lng":-89.70601,"zip":"61426","miles_from_dt":23.43},{"city":"Yates City","state_name":"Illinois","lat":40.79768,"lng":-90.0343,"zip":"61572","miles_from_dt":23.52},{"city":"Geneseo","state_name":"Illinois","lat":41.46692,"lng":-90.15551,"zip":"61254","miles_from_dt":23.53},{"city":"Annawan","state_name":"Illinois","lat":41.41804,"lng":-89.91947,"zip":"61234","miles_from_dt":23.59},{"city":"Maquon","state_name":"Illinois","lat":40.78027,"lng":-90.18107,"zip":"61458","miles_from_dt":23.89},{"city":"Princeville","state_name":"Illinois","lat":40.92101,"lng":-89.77438,"zip":"61559","miles_from_dt":24.4},{"city":"Cameron","state_name":"Illinois","lat":40.8855,"lng":-90.50232,"zip":"61423","miles_from_dt":24.6},{"city":"Matherville","state_name":"Illinois","lat":41.26409,"lng":-90.59878,"zip":"61263","miles_from_dt":25.02},{"city":"Coal Valley","state_name":"Illinois","lat":41.42579,"lng":-90.4325,"zip":"61240","miles_from_dt":25.24},{"city":"Preemption","state_name":"Illinois","lat":41.31667,"lng":-90.57638,"zip":"61276","miles_from_dt":25.6},{"city":"Mineral","state_name":"Illinois","lat":41.41245,"lng":-89.8344,"zip":"61344","miles_from_dt":25.87},{"city":"Abingdon","state_name":"Illinois","lat":40.79779,"lng":-90.40703,"zip":"61410","miles_from_dt":26.21},{"city":"Brimfield","state_name":"Illinois","lat":40.823,"lng":-89.85155,"zip":"61517","miles_from_dt":26.25},{"city":"Colona","state_name":"Illinois","lat":41.48782,"lng":-90.31997,"zip":"61241","miles_from_dt":26.41},{"city":"Elmwood","state_name":"Illinois","lat":40.7809,"lng":-89.93673,"zip":"61529","miles_from_dt":26.41},{"city":"Bradford","state_name":"Illinois","lat":41.1792,"lng":-89.65083,"zip":"61421","miles_from_dt":26.55},{"city":"Camp Grove","state_name":"Illinois","lat":41.07671,"lng":-89.63513,"zip":"61424","miles_from_dt":27.35},{"city":"Buda","state_name":"Illinois","lat":41.29745,"lng":-89.67474,"zip":"61314","miles_from_dt":27.68},{"city":"Sheffield","state_name":"Illinois","lat":41.40913,"lng":-89.76778,"zip":"61361","miles_from_dt":28.08},{"city":"Carbon Cliff","state_name":"Illinois","lat":41.49479,"lng":-90.38966,"zip":"61239","miles_from_dt":28.23},{"city":"Speer","state_name":"Illinois","lat":41.00192,"lng":-89.63939,"zip":"61479","miles_from_dt":28.25},{"city":"Barstow","state_name":"Illinois","lat":41.51242,"lng":-90.35586,"zip":"61236","miles_from_dt":28.64},{"city":"Silvis","state_name":"Illinois","lat":41.49673,"lng":-90.41172,"zip":"61282","miles_from_dt":28.86},{"city":"Milan","state_name":"Illinois","lat":41.39765,"lng":-90.59452,"zip":"61264","miles_from_dt":29.59},{"city":"Saint Augustine","state_name":"Illinois","lat":40.73419,"lng":-90.39724,"zip":"61474","miles_from_dt":29.86},{"city":"London Mills","state_name":"Illinois","lat":40.69753,"lng":-90.24273,"zip":"61544","miles_from_dt":29.92},{"city":"Monmouth","state_name":"Illinois","lat":40.91014,"lng":-90.65176,"zip":"61462","miles_from_dt":29.93},{"city":"East Moline","state_name":"Illinois","lat":41.52138,"lng":-90.39424,"zip":"61244","miles_from_dt":29.99}],"targetCityZipCode":"61414","targetCityState":"Illinois"},"__N_SSG":true}