{"pageProps":{"stateName":"Illinois","cityName":"dale","nearbyCities":[{"city":"Broughton","state_name":"Illinois","lat":37.9545,"lng":-88.47762,"zip":"62817","miles_from_dt":3.19},{"city":"McLeansboro","state_name":"Illinois","lat":38.07094,"lng":-88.54289,"zip":"62859","miles_from_dt":5.69},{"city":"Raleigh","state_name":"Illinois","lat":37.85179,"lng":-88.54384,"zip":"62977","miles_from_dt":10.6},{"city":"Eldorado","state_name":"Illinois","lat":37.84379,"lng":-88.44139,"zip":"62930","miles_from_dt":11.07},{"city":"Norris City","state_name":"Illinois","lat":37.96608,"lng":-88.28336,"zip":"62869","miles_from_dt":11.55},{"city":"Enfield","state_name":"Illinois","lat":38.10573,"lng":-88.32406,"zip":"62835","miles_from_dt":11.67},{"city":"Galatia","state_name":"Illinois","lat":37.84281,"lng":-88.63194,"zip":"62935","miles_from_dt":13.29},{"city":"Macedonia","state_name":"Illinois","lat":38.04022,"lng":-88.72921,"zip":"62860","miles_from_dt":13.32},{"city":"Springerton","state_name":"Illinois","lat":38.18478,"lng":-88.36871,"zip":"62887","miles_from_dt":14.4},{"city":"Dahlgren","state_name":"Illinois","lat":38.19536,"lng":-88.60864,"zip":"62828","miles_from_dt":14.96},{"city":"Omaha","state_name":"Illinois","lat":37.8757,"lng":-88.26499,"zip":"62871","miles_from_dt":15},{"city":"Thompsonville","state_name":"Illinois","lat":37.90574,"lng":-88.73944,"zip":"62890","miles_from_dt":15.05},{"city":"Muddy","state_name":"Illinois","lat":37.76753,"lng":-88.5177,"zip":"62965","miles_from_dt":16.07},{"city":"Mill Shoals","state_name":"Illinois","lat":38.2166,"lng":-88.29685,"zip":"62862","miles_from_dt":18.32},{"city":"Ewing","state_name":"Illinois","lat":38.0973,"lng":-88.80568,"zip":"62836","miles_from_dt":18.46},{"city":"Logan","state_name":"Illinois","lat":37.95246,"lng":-88.83549,"zip":"62856","miles_from_dt":19.11},{"city":"Ridgway","state_name":"Illinois","lat":37.80813,"lng":-88.2365,"zip":"62979","miles_from_dt":19.16},{"city":"Belle Rive","state_name":"Illinois","lat":38.20515,"lng":-88.74388,"zip":"62810","miles_from_dt":19.79},{"city":"Carmi","state_name":"Illinois","lat":38.07301,"lng":-88.13357,"zip":"62821","miles_from_dt":20.12},{"city":"Emma","state_name":"Illinois","lat":37.97361,"lng":-88.12108,"zip":"62834","miles_from_dt":20.25},{"city":"Frankfort Heights","state_name":"Illinois","lat":37.90029,"lng":-88.8408,"zip":"62840","miles_from_dt":20.31},{"city":"Harrisburg","state_name":"Illinois","lat":37.7028,"lng":-88.52887,"zip":"62946","miles_from_dt":20.57},{"city":"Barnhill","state_name":"Illinois","lat":38.28023,"lng":-88.33756,"zip":"62809","miles_from_dt":21.08},{"city":"Wayne City","state_name":"Illinois","lat":38.30364,"lng":-88.54702,"zip":"62895","miles_from_dt":21.2},{"city":"Equality","state_name":"Illinois","lat":37.70876,"lng":-88.36175,"zip":"62934","miles_from_dt":21.26},{"city":"Burnt Prairie","state_name":"Illinois","lat":38.24873,"lng":-88.23561,"zip":"62820","miles_from_dt":22.1},{"city":"New Haven","state_name":"Illinois","lat":37.90503,"lng":-88.10091,"zip":"62867","miles_from_dt":22.26},{"city":"Pittsburg","state_name":"Illinois","lat":37.78158,"lng":-88.79094,"zip":"62974","miles_from_dt":22.26},{"city":"Ina","state_name":"Illinois","lat":38.15042,"lng":-88.85485,"zip":"62846","miles_from_dt":22.42},{"city":"Carrier Mills","state_name":"Illinois","lat":37.69752,"lng":-88.64882,"zip":"62917","miles_from_dt":22.56},{"city":"Benton","state_name":"Illinois","lat":38.00487,"lng":-88.92249,"zip":"62812","miles_from_dt":23.57},{"city":"Whittington","state_name":"Illinois","lat":38.09763,"lng":-88.91504,"zip":"62897","miles_from_dt":24.12},{"city":"Junction","state_name":"Illinois","lat":37.69462,"lng":-88.27428,"zip":"62954","miles_from_dt":24.13},{"city":"West Frankfort","state_name":"Illinois","lat":37.89287,"lng":-88.91183,"zip":"62896","miles_from_dt":24.15},{"city":"Maunie","state_name":"Illinois","lat":38.03543,"lng":-88.04569,"zip":"62861","miles_from_dt":24.4},{"city":"Opdyke","state_name":"Illinois","lat":38.26776,"lng":-88.8032,"zip":"62872","miles_from_dt":25.14},{"city":"Sims","state_name":"Illinois","lat":38.37486,"lng":-88.53572,"zip":"62886","miles_from_dt":26},{"city":"Fairfield","state_name":"Illinois","lat":38.36608,"lng":-88.35999,"zip":"62837","miles_from_dt":26.26},{"city":"Shawneetown","state_name":"Illinois","lat":37.73152,"lng":-88.14903,"zip":"62984","miles_from_dt":26.28},{"city":"Johnston City","state_name":"Illinois","lat":37.82637,"lng":-88.92609,"zip":"62951","miles_from_dt":26.62},{"city":"Bonnie","state_name":"Illinois","lat":38.18156,"lng":-88.92473,"zip":"62816","miles_from_dt":26.79},{"city":"Crossville","state_name":"Illinois","lat":38.16573,"lng":-88.04157,"zip":"62827","miles_from_dt":27.03},{"city":"Orient","state_name":"Illinois","lat":37.91767,"lng":-88.97802,"zip":"62874","miles_from_dt":27.21},{"city":"Buckner","state_name":"Illinois","lat":37.97507,"lng":-89.00283,"zip":"62819","miles_from_dt":28.01},{"city":"Stonefort","state_name":"Illinois","lat":37.61114,"lng":-88.65695,"zip":"62987","miles_from_dt":28.29},{"city":"Nason","state_name":"Illinois","lat":38.16171,"lng":-88.97947,"zip":"62866","miles_from_dt":28.9},{"city":"Bluford","state_name":"Illinois","lat":38.37641,"lng":-88.73054,"zip":"62814","miles_from_dt":29.09},{"city":"Freeman Spur","state_name":"Illinois","lat":37.8588,"lng":-88.99639,"zip":"62841","miles_from_dt":29.29},{"city":"Ellery","state_name":"Illinois","lat":38.34071,"lng":-88.16355,"zip":"62833","miles_from_dt":29.51},{"city":"Grayville","state_name":"Illinois","lat":38.25525,"lng":-88.05018,"zip":"62844","miles_from_dt":29.78}],"targetCityZipCode":"62829","targetCityState":"Illinois"},"__N_SSG":true}