{"pageProps":{"stateName":"Illinois","cityName":"herrick","nearbyCities":[{"city":"Cowden","state_name":"Illinois","lat":39.23327,"lng":-88.88855,"zip":"62422","miles_from_dt":5.65},{"city":"Oconee","state_name":"Illinois","lat":39.27182,"lng":-89.10509,"zip":"62553","miles_from_dt":6.63},{"city":"Ramsey","state_name":"Illinois","lat":39.14115,"lng":-89.10569,"zip":"62080","miles_from_dt":8.57},{"city":"Lakewood","state_name":"Illinois","lat":39.32553,"lng":-88.87005,"zip":"62438","miles_from_dt":9.36},{"city":"Beecher City","state_name":"Illinois","lat":39.17277,"lng":-88.82611,"zip":"62414","miles_from_dt":9.82},{"city":"Tower Hill","state_name":"Illinois","lat":39.38155,"lng":-88.95998,"zip":"62571","miles_from_dt":10.62},{"city":"Pana","state_name":"Illinois","lat":39.39974,"lng":-89.10503,"zip":"62557","miles_from_dt":13.15},{"city":"Rosamond","state_name":"Illinois","lat":39.35122,"lng":-89.19842,"zip":"62083","miles_from_dt":13.8},{"city":"Bingham","state_name":"Illinois","lat":39.12862,"lng":-89.21755,"zip":"62011","miles_from_dt":13.89},{"city":"Mode","state_name":"Illinois","lat":39.27853,"lng":-88.73474,"zip":"62444","miles_from_dt":14.3},{"city":"Brownstown","state_name":"Illinois","lat":39.02009,"lng":-88.97463,"zip":"62418","miles_from_dt":14.5},{"city":"Ohlman","state_name":"Illinois","lat":39.34186,"lng":-89.23383,"zip":"62076","miles_from_dt":15.01},{"city":"Saint Elmo","state_name":"Illinois","lat":39.02531,"lng":-88.85441,"zip":"62458","miles_from_dt":15.97},{"city":"Shelbyville","state_name":"Illinois","lat":39.41334,"lng":-88.8026,"zip":"62565","miles_from_dt":16.29},{"city":"Nokomis","state_name":"Illinois","lat":39.30143,"lng":-89.29676,"zip":"62075","miles_from_dt":16.98},{"city":"Shumway","state_name":"Illinois","lat":39.20067,"lng":-88.6759,"zip":"62461","miles_from_dt":17.18},{"city":"Fillmore","state_name":"Illinois","lat":39.1158,"lng":-89.28833,"zip":"62032","miles_from_dt":17.66},{"city":"Altamont","state_name":"Illinois","lat":39.06865,"lng":-88.72936,"zip":"62411","miles_from_dt":18.04},{"city":"Witt","state_name":"Illinois","lat":39.2441,"lng":-89.34871,"zip":"62094","miles_from_dt":19.06},{"city":"Vandalia","state_name":"Illinois","lat":38.95859,"lng":-89.13257,"zip":"62471","miles_from_dt":20.14},{"city":"Owaneco","state_name":"Illinois","lat":39.46755,"lng":-89.21982,"zip":"62555","miles_from_dt":20.38},{"city":"Strasburg","state_name":"Illinois","lat":39.34614,"lng":-88.63827,"zip":"62465","miles_from_dt":20.68},{"city":"Assumption","state_name":"Illinois","lat":39.5315,"lng":-89.02706,"zip":"62510","miles_from_dt":20.89},{"city":"Stewardson","state_name":"Illinois","lat":39.27519,"lng":-88.59683,"zip":"62463","miles_from_dt":21.52},{"city":"Irving","state_name":"Illinois","lat":39.20309,"lng":-89.40244,"zip":"62051","miles_from_dt":22},{"city":"Coffeen","state_name":"Illinois","lat":39.06597,"lng":-89.36945,"zip":"62017","miles_from_dt":23.13},{"city":"Findlay","state_name":"Illinois","lat":39.53519,"lng":-88.79603,"zip":"62534","miles_from_dt":23.58},{"city":"Effingham","state_name":"Illinois","lat":39.11843,"lng":-88.56467,"zip":"62401","miles_from_dt":24.29},{"city":"Mulberry Grove","state_name":"Illinois","lat":38.9371,"lng":-89.26916,"zip":"62262","miles_from_dt":25.04},{"city":"Windsor","state_name":"Illinois","lat":39.4397,"lng":-88.60495,"zip":"61957","miles_from_dt":25.37},{"city":"Shobonier","state_name":"Illinois","lat":38.86289,"lng":-89.06286,"zip":"62885","miles_from_dt":25.58},{"city":"Saint Peter","state_name":"Illinois","lat":38.86751,"lng":-88.88593,"zip":"62880","miles_from_dt":25.66},{"city":"Palmer","state_name":"Illinois","lat":39.46674,"lng":-89.37049,"zip":"62556","miles_from_dt":25.97},{"city":"Moweaqua","state_name":"Illinois","lat":39.61154,"lng":-88.99283,"zip":"62550","miles_from_dt":26.33},{"city":"Watson","state_name":"Illinois","lat":39.01986,"lng":-88.56556,"zip":"62473","miles_from_dt":27.19},{"city":"Hillsboro","state_name":"Illinois","lat":39.1295,"lng":-89.48572,"zip":"62049","miles_from_dt":27.3},{"city":"Mason","state_name":"Illinois","lat":38.95397,"lng":-88.62902,"zip":"62443","miles_from_dt":27.32},{"city":"Taylor Springs","state_name":"Illinois","lat":39.12111,"lng":-89.48673,"zip":"62089","miles_from_dt":27.51},{"city":"Taylorville","state_name":"Illinois","lat":39.55974,"lng":-89.29016,"zip":"62568","miles_from_dt":27.74},{"city":"Morrisonville","state_name":"Illinois","lat":39.43042,"lng":-89.44281,"zip":"62546","miles_from_dt":27.75},{"city":"Sigel","state_name":"Illinois","lat":39.23291,"lng":-88.47066,"zip":"62462","miles_from_dt":28.07},{"city":"Farina","state_name":"Illinois","lat":38.86855,"lng":-88.74889,"zip":"62838","miles_from_dt":28.19},{"city":"Donnellson","state_name":"Illinois","lat":39.01598,"lng":-89.45195,"zip":"62019","miles_from_dt":28.7},{"city":"Edgewood","state_name":"Illinois","lat":38.8999,"lng":-88.66639,"zip":"62426","miles_from_dt":28.77},{"city":"Butler","state_name":"Illinois","lat":39.22011,"lng":-89.54203,"zip":"62015","miles_from_dt":29.42},{"city":"Harvel","state_name":"Illinois","lat":39.35631,"lng":-89.52051,"zip":"62538","miles_from_dt":29.55},{"city":"Vernon","state_name":"Illinois","lat":38.80623,"lng":-89.0771,"zip":"62892","miles_from_dt":29.56}],"targetCityZipCode":"62431","targetCityState":"Illinois"},"__N_SSG":true}