{"pageProps":{"stateName":"Illinois","cityName":"new-douglas","nearbyCities":[{"city":"Livingston","state_name":"Illinois","lat":38.96793,"lng":-89.76491,"zip":"62058","miles_from_dt":4.47},{"city":"Sorento","state_name":"Illinois","lat":38.98302,"lng":-89.58556,"zip":"62086","miles_from_dt":5.59},{"city":"Alhambra","state_name":"Illinois","lat":38.87971,"lng":-89.74562,"zip":"62001","miles_from_dt":6.24},{"city":"Staunton","state_name":"Illinois","lat":39.01318,"lng":-89.79764,"zip":"62088","miles_from_dt":7.31},{"city":"Walshville","state_name":"Illinois","lat":39.05594,"lng":-89.61222,"zip":"62091","miles_from_dt":7.89},{"city":"Worden","state_name":"Illinois","lat":38.93719,"lng":-89.85507,"zip":"62097","miles_from_dt":9.34},{"city":"Mount Olive","state_name":"Illinois","lat":39.08892,"lng":-89.74044,"zip":"62069","miles_from_dt":9.67},{"city":"Hamel","state_name":"Illinois","lat":38.88935,"lng":-89.84397,"zip":"62046","miles_from_dt":9.8},{"city":"Panama","state_name":"Illinois","lat":39.03133,"lng":-89.51605,"zip":"62077","miles_from_dt":10.4},{"city":"Sawyerville","state_name":"Illinois","lat":39.07839,"lng":-89.80308,"zip":"62085","miles_from_dt":10.62},{"city":"Benld","state_name":"Illinois","lat":39.09351,"lng":-89.79856,"zip":"62009","miles_from_dt":11.33},{"city":"Wilsonville","state_name":"Illinois","lat":39.06858,"lng":-89.84573,"zip":"62093","miles_from_dt":11.69},{"city":"Eagarville","state_name":"Illinois","lat":39.10794,"lng":-89.78278,"zip":"62023","miles_from_dt":11.77},{"city":"Pocahontas","state_name":"Illinois","lat":38.81507,"lng":-89.54496,"zip":"62275","miles_from_dt":12.25},{"city":"Marine","state_name":"Illinois","lat":38.79077,"lng":-89.77624,"zip":"62061","miles_from_dt":12.45},{"city":"Pierron","state_name":"Illinois","lat":38.78673,"lng":-89.58389,"zip":"62273","miles_from_dt":12.85},{"city":"Donnellson","state_name":"Illinois","lat":39.01598,"lng":-89.45195,"zip":"62019","miles_from_dt":13.13},{"city":"Highland","state_name":"Illinois","lat":38.75469,"lng":-89.66436,"zip":"62249","miles_from_dt":13.92},{"city":"Greenville","state_name":"Illinois","lat":38.88834,"lng":-89.42533,"zip":"62246","miles_from_dt":14.67},{"city":"Gillespie","state_name":"Illinois","lat":39.13561,"lng":-89.84447,"zip":"62033","miles_from_dt":15.12},{"city":"Litchfield","state_name":"Illinois","lat":39.1765,"lng":-89.67165,"zip":"62056","miles_from_dt":15.23},{"city":"Taylor Springs","state_name":"Illinois","lat":39.12111,"lng":-89.48673,"zip":"62089","miles_from_dt":15.55},{"city":"Bunker Hill","state_name":"Illinois","lat":39.04313,"lng":-89.94999,"zip":"62014","miles_from_dt":15.56},{"city":"Edwardsville","state_name":"Illinois","lat":38.83004,"lng":-89.93298,"zip":"62025","miles_from_dt":16.01},{"city":"Hillsboro","state_name":"Illinois","lat":39.1295,"lng":-89.48572,"zip":"62049","miles_from_dt":16.01},{"city":"Dorsey","state_name":"Illinois","lat":38.97797,"lng":-89.981,"zip":"62021","miles_from_dt":16.1},{"city":"Moro","state_name":"Illinois","lat":38.92961,"lng":-89.98837,"zip":"62067","miles_from_dt":16.53},{"city":"Saint Jacob","state_name":"Illinois","lat":38.70405,"lng":-89.78288,"zip":"62281","miles_from_dt":18.19},{"city":"Coffeen","state_name":"Illinois","lat":39.06597,"lng":-89.36945,"zip":"62017","miles_from_dt":18.52},{"city":"Butler","state_name":"Illinois","lat":39.22011,"lng":-89.54203,"zip":"62015","miles_from_dt":19.74},{"city":"Bethalto","state_name":"Illinois","lat":38.91944,"lng":-90.04789,"zip":"62010","miles_from_dt":19.8},{"city":"Troy","state_name":"Illinois","lat":38.70374,"lng":-89.87242,"zip":"62294","miles_from_dt":20.17},{"city":"Glen Carbon","state_name":"Illinois","lat":38.75639,"lng":-89.96897,"zip":"62034","miles_from_dt":20.66},{"city":"Edwardsville","state_name":"Illinois","lat":38.79062,"lng":-90.00394,"zip":"62026","miles_from_dt":20.71},{"city":"Smithboro","state_name":"Illinois","lat":38.86867,"lng":-89.31107,"zip":"62284","miles_from_dt":20.95},{"city":"Shipman","state_name":"Illinois","lat":39.14209,"lng":-89.99689,"zip":"62685","miles_from_dt":21.2},{"city":"Maryville","state_name":"Illinois","lat":38.72719,"lng":-89.96253,"zip":"62062","miles_from_dt":21.81},{"city":"Cottage Hills","state_name":"Illinois","lat":38.90847,"lng":-90.08574,"zip":"62018","miles_from_dt":21.92},{"city":"Roxana","state_name":"Illinois","lat":38.84082,"lng":-90.06365,"zip":"62084","miles_from_dt":21.98},{"city":"Wood River","state_name":"Illinois","lat":38.86307,"lng":-90.07545,"zip":"62095","miles_from_dt":22.08},{"city":"Mulberry Grove","state_name":"Illinois","lat":38.9371,"lng":-89.26916,"zip":"62262","miles_from_dt":22.35},{"city":"East Alton","state_name":"Illinois","lat":38.88343,"lng":-90.08879,"zip":"62024","miles_from_dt":22.41},{"city":"Irving","state_name":"Illinois","lat":39.20309,"lng":-89.40244,"zip":"62051","miles_from_dt":22.78},{"city":"South Roxana","state_name":"Illinois","lat":38.81754,"lng":-90.06767,"zip":"62087","miles_from_dt":22.81},{"city":"Aviston","state_name":"Illinois","lat":38.62559,"lng":-89.60313,"zip":"62216","miles_from_dt":23.2},{"city":"Trenton","state_name":"Illinois","lat":38.61838,"lng":-89.69748,"zip":"62293","miles_from_dt":23.3},{"city":"Breese","state_name":"Illinois","lat":38.63855,"lng":-89.52742,"zip":"62230","miles_from_dt":23.46},{"city":"Fillmore","state_name":"Illinois","lat":39.1158,"lng":-89.28833,"zip":"62032","miles_from_dt":23.94},{"city":"Alton","state_name":"Illinois","lat":38.93988,"lng":-90.12829,"zip":"62002","miles_from_dt":23.99},{"city":"Raymond","state_name":"Illinois","lat":39.3005,"lng":-89.60377,"zip":"62560","miles_from_dt":24.15},{"city":"Keyesport","state_name":"Illinois","lat":38.77554,"lng":-89.29738,"zip":"62253","miles_from_dt":24.25},{"city":"Collinsville","state_name":"Illinois","lat":38.68214,"lng":-89.9815,"zip":"62234","miles_from_dt":24.81},{"city":"Summerfield","state_name":"Illinois","lat":38.59788,"lng":-89.75096,"zip":"62289","miles_from_dt":24.97},{"city":"Lebanon","state_name":"Illinois","lat":38.6098,"lng":-89.81901,"zip":"62254","miles_from_dt":24.97},{"city":"Carlinville","state_name":"Illinois","lat":39.28459,"lng":-89.88362,"zip":"62626","miles_from_dt":25.1},{"city":"Brighton","state_name":"Illinois","lat":39.04225,"lng":-90.15027,"zip":"62012","miles_from_dt":25.83},{"city":"Piasa","state_name":"Illinois","lat":39.11457,"lng":-90.12642,"zip":"62079","miles_from_dt":26.23},{"city":"Witt","state_name":"Illinois","lat":39.2441,"lng":-89.34871,"zip":"62094","miles_from_dt":26.81},{"city":"O'Fallon","state_name":"Illinois","lat":38.59844,"lng":-89.91294,"zip":"62269","miles_from_dt":27.6},{"city":"Beckemeyer","state_name":"Illinois","lat":38.60371,"lng":-89.43698,"zip":"62219","miles_from_dt":27.7},{"city":"Hartford","state_name":"Illinois","lat":38.77004,"lng":-90.13895,"zip":"62048","miles_from_dt":27.71},{"city":"Bingham","state_name":"Illinois","lat":39.12862,"lng":-89.21755,"zip":"62011","miles_from_dt":27.75},{"city":"Waggoner","state_name":"Illinois","lat":39.35908,"lng":-89.69778,"zip":"62572","miles_from_dt":27.82},{"city":"Granite City","state_name":"Illinois","lat":38.71592,"lng":-90.10078,"zip":"62040","miles_from_dt":27.95},{"city":"Caseyville","state_name":"Illinois","lat":38.63266,"lng":-90.00509,"zip":"62232","miles_from_dt":28.26},{"city":"Germantown","state_name":"Illinois","lat":38.54783,"lng":-89.57446,"zip":"62245","miles_from_dt":28.76},{"city":"Carlyle","state_name":"Illinois","lat":38.64402,"lng":-89.32642,"zip":"62231","miles_from_dt":28.88},{"city":"Harvel","state_name":"Illinois","lat":39.35631,"lng":-89.52051,"zip":"62538","miles_from_dt":28.97},{"city":"Saint Louis","state_name":"Missouri","lat":38.79904,"lng":-90.1822,"zip":"63138","miles_from_dt":28.99},{"city":"Fidelity","state_name":"Illinois","lat":39.15463,"lng":-90.16445,"zip":"62030","miles_from_dt":29.28},{"city":"West Alton","state_name":"Missouri","lat":38.87104,"lng":-90.22009,"zip":"63386","miles_from_dt":29.51},{"city":"Vandalia","state_name":"Illinois","lat":38.95859,"lng":-89.13257,"zip":"62471","miles_from_dt":29.67},{"city":"Godfrey","state_name":"Illinois","lat":38.96375,"lng":-90.23917,"zip":"62035","miles_from_dt":29.94}],"targetCityZipCode":"62074","targetCityState":"Illinois"},"__N_SSG":true}