{"pageProps":{"stateName":"Illinois","cityName":"patoka","nearbyCities":[{"city":"Vernon","state_name":"Illinois","lat":38.80623,"lng":-89.0771,"zip":"62892","miles_from_dt":4.21},{"city":"Shobonier","state_name":"Illinois","lat":38.86289,"lng":-89.06286,"zip":"62885","miles_from_dt":7.98},{"city":"Sandoval","state_name":"Illinois","lat":38.63474,"lng":-89.1197,"zip":"62882","miles_from_dt":8.5},{"city":"Keyesport","state_name":"Illinois","lat":38.77554,"lng":-89.29738,"zip":"62253","miles_from_dt":9.4},{"city":"Odin","state_name":"Illinois","lat":38.63463,"lng":-89.05063,"zip":"62870","miles_from_dt":9.4},{"city":"Alma","state_name":"Illinois","lat":38.74767,"lng":-88.93412,"zip":"62807","miles_from_dt":10.32},{"city":"Smithboro","state_name":"Illinois","lat":38.86867,"lng":-89.31107,"zip":"62284","miles_from_dt":12.63},{"city":"Carlyle","state_name":"Illinois","lat":38.64402,"lng":-89.32642,"zip":"62231","miles_from_dt":13.43},{"city":"Salem","state_name":"Illinois","lat":38.63544,"lng":-88.9288,"zip":"62881","miles_from_dt":13.55},{"city":"Vandalia","state_name":"Illinois","lat":38.95859,"lng":-89.13257,"zip":"62471","miles_from_dt":13.85},{"city":"Huey","state_name":"Illinois","lat":38.60427,"lng":-89.29024,"zip":"62252","miles_from_dt":13.87},{"city":"Mulberry Grove","state_name":"Illinois","lat":38.9371,"lng":-89.26916,"zip":"62262","miles_from_dt":14.61},{"city":"Saint Peter","state_name":"Illinois","lat":38.86751,"lng":-88.88593,"zip":"62880","miles_from_dt":14.95},{"city":"Hoffman","state_name":"Illinois","lat":38.54042,"lng":-89.26436,"zip":"62250","miles_from_dt":16.79},{"city":"Kinmundy","state_name":"Illinois","lat":38.76458,"lng":-88.81172,"zip":"62854","miles_from_dt":16.92},{"city":"Centralia","state_name":"Illinois","lat":38.51097,"lng":-89.1412,"zip":"62801","miles_from_dt":17.05},{"city":"Greenville","state_name":"Illinois","lat":38.88834,"lng":-89.42533,"zip":"62246","miles_from_dt":18.55},{"city":"Brownstown","state_name":"Illinois","lat":39.02009,"lng":-88.97463,"zip":"62418","miles_from_dt":19.82},{"city":"Beckemeyer","state_name":"Illinois","lat":38.60371,"lng":-89.43698,"zip":"62219","miles_from_dt":19.95},{"city":"Kell","state_name":"Illinois","lat":38.51734,"lng":-88.91571,"zip":"62853","miles_from_dt":20.08},{"city":"Walnut Hill","state_name":"Illinois","lat":38.46776,"lng":-89.03087,"zip":"62893","miles_from_dt":20.65},{"city":"Farina","state_name":"Illinois","lat":38.86855,"lng":-88.74889,"zip":"62838","miles_from_dt":21.68},{"city":"Irvington","state_name":"Illinois","lat":38.43794,"lng":-89.16665,"zip":"62848","miles_from_dt":22.19},{"city":"Iuka","state_name":"Illinois","lat":38.58803,"lng":-88.77221,"zip":"62849","miles_from_dt":22.38},{"city":"Hoyleton","state_name":"Illinois","lat":38.45461,"lng":-89.29822,"zip":"62803","miles_from_dt":22.93},{"city":"Pocahontas","state_name":"Illinois","lat":38.81507,"lng":-89.54496,"zip":"62275","miles_from_dt":23.02},{"city":"Dix","state_name":"Illinois","lat":38.44559,"lng":-88.96424,"zip":"62830","miles_from_dt":23.23},{"city":"Breese","state_name":"Illinois","lat":38.63855,"lng":-89.52742,"zip":"62230","miles_from_dt":23.27},{"city":"Saint Elmo","state_name":"Illinois","lat":39.02531,"lng":-88.85441,"zip":"62458","miles_from_dt":23.51},{"city":"Pierron","state_name":"Illinois","lat":38.78673,"lng":-89.58389,"zip":"62273","miles_from_dt":24.87},{"city":"Coffeen","state_name":"Illinois","lat":39.06597,"lng":-89.36945,"zip":"62017","miles_from_dt":25.01},{"city":"Donnellson","state_name":"Illinois","lat":39.01598,"lng":-89.45195,"zip":"62019","miles_from_dt":25.06},{"city":"Bartelso","state_name":"Illinois","lat":38.52069,"lng":-89.47738,"zip":"62218","miles_from_dt":25.13},{"city":"Richview","state_name":"Illinois","lat":38.38983,"lng":-89.2057,"zip":"62877","miles_from_dt":25.76},{"city":"Texico","state_name":"Illinois","lat":38.46011,"lng":-88.82893,"zip":"62889","miles_from_dt":26.05},{"city":"Bingham","state_name":"Illinois","lat":39.12862,"lng":-89.21755,"zip":"62011","miles_from_dt":26.06},{"city":"Fillmore","state_name":"Illinois","lat":39.1158,"lng":-89.28833,"zip":"62032","miles_from_dt":26.21},{"city":"Ramsey","state_name":"Illinois","lat":39.14115,"lng":-89.10569,"zip":"62080","miles_from_dt":26.46},{"city":"Edgewood","state_name":"Illinois","lat":38.8999,"lng":-88.66639,"zip":"62426","miles_from_dt":26.6},{"city":"Aviston","state_name":"Illinois","lat":38.62559,"lng":-89.60313,"zip":"62216","miles_from_dt":27.42},{"city":"Xenia","state_name":"Illinois","lat":38.63032,"lng":-88.64367,"zip":"62899","miles_from_dt":27.46},{"city":"Panama","state_name":"Illinois","lat":39.03133,"lng":-89.51605,"zip":"62077","miles_from_dt":28.29},{"city":"Woodlawn","state_name":"Illinois","lat":38.35041,"lng":-89.06209,"zip":"62898","miles_from_dt":28.31},{"city":"Germantown","state_name":"Illinois","lat":38.54783,"lng":-89.57446,"zip":"62245","miles_from_dt":28.31},{"city":"Highland","state_name":"Illinois","lat":38.75469,"lng":-89.66436,"zip":"62249","miles_from_dt":29.14},{"city":"Sorento","state_name":"Illinois","lat":38.98302,"lng":-89.58556,"zip":"62086","miles_from_dt":29.3},{"city":"Mason","state_name":"Illinois","lat":38.95397,"lng":-88.62902,"zip":"62443","miles_from_dt":29.97}],"targetCityZipCode":"62875","targetCityState":"Illinois"},"__N_SSG":true}