{"pageProps":{"stateName":"Illinois","cityName":"waukegan","nearbyCities":[{"city":"Waukegan","state_name":"Illinois","lat":42.35498,"lng":-87.86467,"zip":"60085","miles_from_dt":1.07},{"city":"Waukegan","state_name":"Illinois","lat":42.40444,"lng":-87.85631,"zip":"60087","miles_from_dt":2.44},{"city":"North Chicago","state_name":"Illinois","lat":42.3237,"lng":-87.86122,"zip":"60064","miles_from_dt":3.23},{"city":"North Chicago","state_name":"Illinois","lat":42.32027,"lng":-87.85965,"zip":"60086","miles_from_dt":3.48},{"city":"Gurnee","state_name":"Illinois","lat":42.37494,"lng":-87.94119,"zip":"60031","miles_from_dt":3.73},{"city":"Great Lakes","state_name":"Illinois","lat":42.30685,"lng":-87.85232,"zip":"60088","miles_from_dt":4.45},{"city":"Lake Bluff","state_name":"Illinois","lat":42.2842,"lng":-87.86392,"zip":"60044","miles_from_dt":5.94},{"city":"Wadsworth","state_name":"Illinois","lat":42.43716,"lng":-87.94663,"zip":"60083","miles_from_dt":6.11},{"city":"Zion","state_name":"Illinois","lat":42.46053,"lng":-87.86901,"zip":"60099","miles_from_dt":6.23},{"city":"Libertyville","state_name":"Illinois","lat":42.29494,"lng":-87.9466,"zip":"60048","miles_from_dt":6.56},{"city":"Winthrop Harbor","state_name":"Illinois","lat":42.48091,"lng":-87.82978,"zip":"60096","miles_from_dt":7.89},{"city":"Russell","state_name":"Illinois","lat":42.49245,"lng":-87.91205,"zip":"60075","miles_from_dt":8.73},{"city":"Lake Forest","state_name":"Illinois","lat":42.23807,"lng":-87.87006,"zip":"60045","miles_from_dt":9.12},{"city":"Grayslake","state_name":"Illinois","lat":42.33536,"lng":-88.04519,"zip":"60030","miles_from_dt":9.36},{"city":"Lake Villa","state_name":"Illinois","lat":42.41572,"lng":-88.06094,"zip":"60046","miles_from_dt":10.33},{"city":"Vernon Hills","state_name":"Illinois","lat":42.2334,"lng":-87.96046,"zip":"60061","miles_from_dt":10.55},{"city":"Northbrook","state_name":"Illinois","lat":42.2162,"lng":-87.88392,"zip":"60065","miles_from_dt":10.66},{"city":"Pleasant Prairie","state_name":"Wisconsin","lat":42.52418,"lng":-87.88869,"zip":"53158","miles_from_dt":10.68},{"city":"Mundelein","state_name":"Illinois","lat":42.26945,"lng":-88.03997,"zip":"60060","miles_from_dt":11.2},{"city":"Fort Sheridan","state_name":"Illinois","lat":42.20941,"lng":-87.80657,"zip":"60037","miles_from_dt":11.54},{"city":"Highwood","state_name":"Illinois","lat":42.20652,"lng":-87.81274,"zip":"60040","miles_from_dt":11.66},{"city":"Round Lake","state_name":"Illinois","lat":42.3516,"lng":-88.10597,"zip":"60073","miles_from_dt":12.22},{"city":"Lincolnshire","state_name":"Illinois","lat":42.19588,"lng":-87.92439,"zip":"60069","miles_from_dt":12.37},{"city":"Kenosha","state_name":"Wisconsin","lat":42.54464,"lng":-87.93765,"zip":"53142","miles_from_dt":12.55},{"city":"Highland Park","state_name":"Illinois","lat":42.18358,"lng":-87.8106,"zip":"60035","miles_from_dt":13.22},{"city":"Kenosha","state_name":"Wisconsin","lat":42.56109,"lng":-87.83038,"zip":"53143","miles_from_dt":13.32},{"city":"Antioch","state_name":"Illinois","lat":42.4674,"lng":-88.09419,"zip":"60002","miles_from_dt":13.35},{"city":"Deerfield","state_name":"Illinois","lat":42.17239,"lng":-87.87486,"zip":"60015","miles_from_dt":13.66},{"city":"Benet Lake","state_name":"Wisconsin","lat":42.50437,"lng":-88.07726,"zip":"53102","miles_from_dt":14.13},{"city":"Ingleside","state_name":"Illinois","lat":42.36939,"lng":-88.15309,"zip":"60041","miles_from_dt":14.56},{"city":"Lake Zurich","state_name":"Illinois","lat":42.20202,"lng":-88.04522,"zip":"60047","miles_from_dt":14.72},{"city":"Buffalo Grove","state_name":"Illinois","lat":42.16736,"lng":-87.96076,"zip":"60089","miles_from_dt":14.78},{"city":"Kenosha","state_name":"Wisconsin","lat":42.58387,"lng":-87.82244,"zip":"53141","miles_from_dt":14.93},{"city":"Bristol","state_name":"Wisconsin","lat":42.55731,"lng":-88.03416,"zip":"53104","miles_from_dt":15.44},{"city":"Wauconda","state_name":"Illinois","lat":42.26807,"lng":-88.13856,"zip":"60084","miles_from_dt":15.52},{"city":"Fox Lake","state_name":"Illinois","lat":42.39543,"lng":-88.17349,"zip":"60020","miles_from_dt":15.7},{"city":"Palatine","state_name":"Illinois","lat":42.14196,"lng":-87.92246,"zip":"60078","miles_from_dt":16},{"city":"Trevor","state_name":"Wisconsin","lat":42.5133,"lng":-88.13159,"zip":"53179","miles_from_dt":16.68},{"city":"Wheeling","state_name":"Illinois","lat":42.13031,"lng":-87.92268,"zip":"60090","miles_from_dt":16.79},{"city":"Northbrook","state_name":"Illinois","lat":42.12663,"lng":-87.84235,"zip":"60062","miles_from_dt":16.87},{"city":"Woodworth","state_name":"Wisconsin","lat":42.56281,"lng":-88.07223,"zip":"53194","miles_from_dt":16.88},{"city":"Glencoe","state_name":"Illinois","lat":42.13637,"lng":-87.7664,"zip":"60022","miles_from_dt":16.97},{"city":"Kenosha","state_name":"Wisconsin","lat":42.61963,"lng":-87.82987,"zip":"53140","miles_from_dt":17.33},{"city":"Kenosha","state_name":"Wisconsin","lat":42.61991,"lng":-87.92291,"zip":"53144","miles_from_dt":17.46},{"city":"Island Lake","state_name":"Illinois","lat":42.27913,"lng":-88.19777,"zip":"60042","miles_from_dt":18},{"city":"Camp Lake","state_name":"Wisconsin","lat":42.54094,"lng":-88.14002,"zip":"53109","miles_from_dt":18.2},{"city":"Mchenry","state_name":"Illinois","lat":42.35099,"lng":-88.22412,"zip":"60051","miles_from_dt":18.25},{"city":"Palatine","state_name":"Illinois","lat":42.13179,"lng":-88.02658,"zip":"60074","miles_from_dt":18.34},{"city":"Techny","state_name":"Illinois","lat":42.10815,"lng":-87.8075,"zip":"60082","miles_from_dt":18.36},{"city":"Somers","state_name":"Wisconsin","lat":42.6361,"lng":-87.90979,"zip":"53171","miles_from_dt":18.47},{"city":"Prospect Heights","state_name":"Illinois","lat":42.10406,"lng":-87.92768,"zip":"60070","miles_from_dt":18.62},{"city":"Arlington Heights","state_name":"Illinois","lat":42.11206,"lng":-87.97895,"zip":"60004","miles_from_dt":18.7},{"city":"Wilmot","state_name":"Wisconsin","lat":42.51172,"lng":-88.18412,"zip":"53192","miles_from_dt":18.86},{"city":"Spring Grove","state_name":"Illinois","lat":42.45115,"lng":-88.22173,"zip":"60081","miles_from_dt":18.91},{"city":"Glenview","state_name":"Illinois","lat":42.09221,"lng":-87.83789,"zip":"60026","miles_from_dt":19.25},{"city":"Winnetka","state_name":"Illinois","lat":42.10333,"lng":-87.75826,"zip":"60093","miles_from_dt":19.27},{"city":"Silver Lake","state_name":"Wisconsin","lat":42.5519,"lng":-88.16149,"zip":"53170","miles_from_dt":19.53},{"city":"Salem","state_name":"Wisconsin","lat":42.57858,"lng":-88.12999,"zip":"53168","miles_from_dt":19.63},{"city":"Palatine","state_name":"Illinois","lat":42.12521,"lng":-88.07503,"zip":"60055","miles_from_dt":19.95},{"city":"Arlington Heights","state_name":"Illinois","lat":42.13061,"lng":-88.09234,"zip":"60006","miles_from_dt":20.13},{"city":"Palatine","state_name":"Illinois","lat":42.09808,"lng":-88.01065,"zip":"60095","miles_from_dt":20.15},{"city":"Palatine","state_name":"Illinois","lat":42.0966,"lng":-88.01131,"zip":"60038","miles_from_dt":20.26},{"city":"Glenview","state_name":"Illinois","lat":42.07466,"lng":-87.81204,"zip":"60025","miles_from_dt":20.6},{"city":"Palatine","state_name":"Illinois","lat":42.10773,"lng":-88.06478,"zip":"60067","miles_from_dt":20.73},{"city":"Kenilworth","state_name":"Illinois","lat":42.08882,"lng":-87.71445,"zip":"60043","miles_from_dt":20.97},{"city":"Mount Prospect","state_name":"Illinois","lat":42.06618,"lng":-87.93473,"zip":"60056","miles_from_dt":21.26},{"city":"Barrington","state_name":"Illinois","lat":42.15255,"lng":-88.16519,"zip":"60010","miles_from_dt":21.38},{"city":"Cary","state_name":"Illinois","lat":42.22027,"lng":-88.23568,"zip":"60013","miles_from_dt":21.47},{"city":"Wilmette","state_name":"Illinois","lat":42.07693,"lng":-87.72812,"zip":"60091","miles_from_dt":21.49},{"city":"Fox River Grove","state_name":"Illinois","lat":42.19511,"lng":-88.21768,"zip":"60021","miles_from_dt":21.59},{"city":"Twin Lakes","state_name":"Wisconsin","lat":42.51711,"lng":-88.24305,"zip":"53181","miles_from_dt":21.66},{"city":"Bassett","state_name":"Wisconsin","lat":42.5386,"lng":-88.22784,"zip":"53101","miles_from_dt":21.73},{"city":"Arlington Heights","state_name":"Illinois","lat":42.06518,"lng":-87.98676,"zip":"60005","miles_from_dt":21.91},{"city":"Rolling Meadows","state_name":"Illinois","lat":42.0739,"lng":-88.0229,"zip":"60008","miles_from_dt":21.93},{"city":"Golf","state_name":"Illinois","lat":42.05857,"lng":-87.78496,"zip":"60029","miles_from_dt":21.93},{"city":"Mchenry","state_name":"Illinois","lat":42.32915,"lng":-88.29363,"zip":"60050","miles_from_dt":21.95},{"city":"Des Plaines","state_name":"Illinois","lat":42.05232,"lng":-87.8899,"zip":"60016","miles_from_dt":21.97},{"city":"Racine","state_name":"Wisconsin","lat":42.68738,"lng":-87.82587,"zip":"53403","miles_from_dt":22},{"city":"Barrington","state_name":"Illinois","lat":42.18603,"lng":-88.22026,"zip":"60011","miles_from_dt":22.06},{"city":"Palatine","state_name":"Illinois","lat":42.09915,"lng":-88.09751,"zip":"60094","miles_from_dt":22.09},{"city":"Racine","state_name":"Wisconsin","lat":42.69196,"lng":-87.81478,"zip":"53401","miles_from_dt":22.38},{"city":"Ringwood","state_name":"Illinois","lat":42.40647,"lng":-88.30637,"zip":"60072","miles_from_dt":22.54},{"city":"Schaumburg","state_name":"Illinois","lat":42.07148,"lng":-88.04924,"zip":"60196","miles_from_dt":22.61},{"city":"Morton Grove","state_name":"Illinois","lat":42.04224,"lng":-87.78895,"zip":"60053","miles_from_dt":23},{"city":"Sturtevant","state_name":"Wisconsin","lat":42.70047,"lng":-87.93474,"zip":"53177","miles_from_dt":23.04},{"city":"New Munster","state_name":"Wisconsin","lat":42.57724,"lng":-88.22602,"zip":"53152","miles_from_dt":23.19},{"city":"Evanston","state_name":"Illinois","lat":42.05778,"lng":-87.69537,"zip":"60204","miles_from_dt":23.32},{"city":"Evanston","state_name":"Illinois","lat":42.05665,"lng":-87.69827,"zip":"60201","miles_from_dt":23.34},{"city":"Evanston","state_name":"Illinois","lat":42.04905,"lng":-87.71748,"zip":"60203","miles_from_dt":23.48},{"city":"Richmond","state_name":"Illinois","lat":42.46403,"lng":-88.30975,"zip":"60071","miles_from_dt":23.48},{"city":"Crystal Lake","state_name":"Illinois","lat":42.27199,"lng":-88.31157,"zip":"60012","miles_from_dt":23.68},{"city":"Chicago","state_name":"Illinois","lat":42.02939,"lng":-87.80755,"zip":"60701","miles_from_dt":23.73},{"city":"Skokie","state_name":"Illinois","lat":42.03617,"lng":-87.75633,"zip":"60077","miles_from_dt":23.76},{"city":"Niles","state_name":"Illinois","lat":42.02834,"lng":-87.81131,"zip":"60714","miles_from_dt":23.78},{"city":"Schaumburg","state_name":"Illinois","lat":42.06541,"lng":-88.08657,"zip":"60195","miles_from_dt":23.83},{"city":"Schaumburg","state_name":"Illinois","lat":42.05287,"lng":-88.0526,"zip":"60173","miles_from_dt":23.85},{"city":"Des Plaines","state_name":"Illinois","lat":42.02498,"lng":-87.89961,"zip":"60019","miles_from_dt":23.88},{"city":"Des Plaines","state_name":"Illinois","lat":42.02445,"lng":-87.90286,"zip":"60017","miles_from_dt":23.93},{"city":"Evanston","state_name":"Illinois","lat":42.05457,"lng":-87.67412,"zip":"60208","miles_from_dt":23.96},{"city":"Skokie","state_name":"Illinois","lat":42.03412,"lng":-87.72943,"zip":"60076","miles_from_dt":24.27},{"city":"Union Grove","state_name":"Wisconsin","lat":42.69815,"lng":-88.04096,"zip":"53182","miles_from_dt":24.29},{"city":"Park Ridge","state_name":"Illinois","lat":42.01276,"lng":-87.84435,"zip":"60068","miles_from_dt":24.7},{"city":"Racine","state_name":"Wisconsin","lat":42.7253,"lng":-87.80891,"zip":"53408","miles_from_dt":24.7},{"city":"Racine","state_name":"Wisconsin","lat":42.72712,"lng":-87.82588,"zip":"53405","miles_from_dt":24.73},{"city":"Racine","state_name":"Wisconsin","lat":42.73014,"lng":-87.86549,"zip":"53406","miles_from_dt":24.84},{"city":"Racine","state_name":"Wisconsin","lat":42.72608,"lng":-87.78338,"zip":"53407","miles_from_dt":24.94},{"city":"Powers Lake","state_name":"Wisconsin","lat":42.55316,"lng":-88.29399,"zip":"53159","miles_from_dt":25.14},{"city":"Evanston","state_name":"Illinois","lat":42.03043,"lng":-87.68958,"zip":"60202","miles_from_dt":25.19},{"city":"Wonder Lake","state_name":"Illinois","lat":42.39343,"lng":-88.36164,"zip":"60097","miles_from_dt":25.28},{"city":"Crystal Lake","state_name":"Illinois","lat":42.23126,"lng":-88.32679,"zip":"60014","miles_from_dt":25.36},{"city":"Hoffman Estates","state_name":"Illinois","lat":42.05192,"lng":-88.11656,"zip":"60169","miles_from_dt":25.39},{"city":"Kansasville","state_name":"Wisconsin","lat":42.68795,"lng":-88.12,"zip":"53139","miles_from_dt":25.41},{"city":"Elk Grove Village","state_name":"Illinois","lat":42.01431,"lng":-87.99828,"zip":"60007","miles_from_dt":25.45},{"city":"Schaumburg","state_name":"Illinois","lat":42.03662,"lng":-88.0833,"zip":"60159","miles_from_dt":25.53},{"city":"Hoffman Estates","state_name":"Illinois","lat":42.07265,"lng":-88.16797,"zip":"60192","miles_from_dt":25.65},{"city":"Crystal Lake","state_name":"Illinois","lat":42.22837,"lng":-88.33123,"zip":"60039","miles_from_dt":25.65},{"city":"Elk Grove Village","state_name":"Illinois","lat":42.00838,"lng":-87.99153,"zip":"60009","miles_from_dt":25.76},{"city":"Des Plaines","state_name":"Illinois","lat":41.99629,"lng":-87.89846,"zip":"60018","miles_from_dt":25.85},{"city":"Schaumburg","state_name":"Illinois","lat":42.04543,"lng":-88.12663,"zip":"60168","miles_from_dt":26.04},{"city":"Chicago","state_name":"Illinois","lat":41.99473,"lng":-87.8131,"zip":"60631","miles_from_dt":26.07},{"city":"Lincolnwood","state_name":"Illinois","lat":42.00543,"lng":-87.73296,"zip":"60712","miles_from_dt":26.12},{"city":"Schaumburg","state_name":"Illinois","lat":42.03339,"lng":-88.11125,"zip":"60194","miles_from_dt":26.37},{"city":"Genoa City","state_name":"Wisconsin","lat":42.52979,"lng":-88.33857,"zip":"53128","miles_from_dt":26.43},{"city":"Chicago","state_name":"Illinois","lat":42.00859,"lng":-87.69457,"zip":"60645","miles_from_dt":26.51},{"city":"Chicago","state_name":"Illinois","lat":41.99365,"lng":-87.76128,"zip":"60646","miles_from_dt":26.57},{"city":"Algonquin","state_name":"Illinois","lat":42.16406,"lng":-88.30928,"zip":"60102","miles_from_dt":26.7},{"city":"Racine","state_name":"Wisconsin","lat":42.7572,"lng":-87.81246,"zip":"53404","miles_from_dt":26.86},{"city":"Chicago","state_name":"Illinois","lat":42.00904,"lng":-87.66955,"zip":"60626","miles_from_dt":26.94},{"city":"Hoffman Estates","state_name":"Illinois","lat":42.07971,"lng":-88.22425,"zip":"60179","miles_from_dt":27.11},{"city":"Schaumburg","state_name":"Illinois","lat":42.01195,"lng":-88.09552,"zip":"60193","miles_from_dt":27.33},{"city":"Chicago","state_name":"Illinois","lat":41.97424,"lng":-87.82709,"zip":"60656","miles_from_dt":27.41},{"city":"Carpentersville","state_name":"Illinois","lat":42.12296,"lng":-88.2883,"zip":"60110","miles_from_dt":27.47},{"city":"Chicago","state_name":"Illinois","lat":41.97241,"lng":-87.89506,"zip":"60666","miles_from_dt":27.49},{"city":"Lake In The Hills","state_name":"Illinois","lat":42.19121,"lng":-88.34788,"zip":"60156","miles_from_dt":27.5},{"city":"Chicago","state_name":"Illinois","lat":41.98946,"lng":-87.70668,"zip":"60659","miles_from_dt":27.56},{"city":"Chicago","state_name":"Illinois","lat":41.97148,"lng":-87.89757,"zip":"60688","miles_from_dt":27.56},{"city":"Chicago","state_name":"Illinois","lat":41.97222,"lng":-87.75758,"zip":"60630","miles_from_dt":28.05},{"city":"Pell Lake","state_name":"Wisconsin","lat":42.5377,"lng":-88.36855,"zip":"53157","miles_from_dt":28.05},{"city":"Chicago","state_name":"Illinois","lat":41.99113,"lng":-87.66609,"zip":"60660","miles_from_dt":28.15},{"city":"Harwood Heights","state_name":"Illinois","lat":41.96384,"lng":-87.81672,"zip":"60706","miles_from_dt":28.17},{"city":"Schiller Park","state_name":"Illinois","lat":41.9583,"lng":-87.8697,"zip":"60176","miles_from_dt":28.43},{"city":"Itasca","state_name":"Illinois","lat":41.97351,"lng":-88.02071,"zip":"60143","miles_from_dt":28.47},{"city":"Bensenville","state_name":"Illinois","lat":41.9611,"lng":-87.94194,"zip":"60106","miles_from_dt":28.49},{"city":"Wood Dale","state_name":"Illinois","lat":41.96,"lng":-87.94219,"zip":"60399","miles_from_dt":28.56},{"city":"Wood Dale","state_name":"Illinois","lat":41.9647,"lng":-87.98087,"zip":"60191","miles_from_dt":28.58},{"city":"Chicago","state_name":"Illinois","lat":41.97318,"lng":-87.69963,"zip":"60625","miles_from_dt":28.74},{"city":"Bensenville","state_name":"Illinois","lat":41.95686,"lng":-87.94182,"zip":"60105","miles_from_dt":28.78},{"city":"Dundee","state_name":"Illinois","lat":42.10793,"lng":-88.30614,"zip":"60118","miles_from_dt":28.83},{"city":"Streamwood","state_name":"Illinois","lat":42.02148,"lng":-88.1783,"zip":"60107","miles_from_dt":28.85},{"city":"Medinah","state_name":"Illinois","lat":41.974,"lng":-88.05476,"zip":"60157","miles_from_dt":28.97},{"city":"Hebron","state_name":"Illinois","lat":42.45869,"lng":-88.42665,"zip":"60034","miles_from_dt":29.19},{"city":"Burlington","state_name":"Wisconsin","lat":42.66412,"lng":-88.28045,"zip":"53105","miles_from_dt":29.22},{"city":"Roselle","state_name":"Illinois","lat":41.97976,"lng":-88.08937,"zip":"60172","miles_from_dt":29.24},{"city":"Chicago","state_name":"Illinois","lat":41.97253,"lng":-87.66372,"zip":"60640","miles_from_dt":29.39},{"city":"Chicago","state_name":"Illinois","lat":41.94627,"lng":-87.80639,"zip":"60634","miles_from_dt":29.43},{"city":"Franksville","state_name":"Wisconsin","lat":42.78848,"lng":-87.9966,"zip":"53126","miles_from_dt":29.6},{"city":"Racine","state_name":"Wisconsin","lat":42.7989,"lng":-87.82385,"zip":"53402","miles_from_dt":29.68},{"city":"Franklin Park","state_name":"Illinois","lat":41.9378,"lng":-87.88304,"zip":"60131","miles_from_dt":29.85},{"city":"Chicago","state_name":"Illinois","lat":41.94667,"lng":-87.74693,"zip":"60641","miles_from_dt":29.89},{"city":"Elgin","state_name":"Illinois","lat":42.03317,"lng":-88.2374,"zip":"60120","miles_from_dt":29.99}],"targetCityZipCode":"60079","targetCityState":"Illinois"},"__N_SSG":true}