{"pageProps":{"stateName":"Ohio","cityName":"brilliant","nearbyCities":[{"city":"Mingo Junction","state_name":"Ohio","lat":40.30138,"lng":-80.67199,"zip":"43938","miles_from_dt":3.02},{"city":"Wellsburg","state_name":"West Virginia","lat":40.25008,"lng":-80.58037,"zip":"26070","miles_from_dt":3.05},{"city":"Beech Bottom","state_name":"West Virginia","lat":40.21662,"lng":-80.65965,"zip":"26030","miles_from_dt":4},{"city":"Follansbee","state_name":"West Virginia","lat":40.3344,"lng":-80.58494,"zip":"26037","miles_from_dt":5.05},{"city":"Windsor Heights","state_name":"West Virginia","lat":40.19748,"lng":-80.64567,"zip":"26075","miles_from_dt":5.09},{"city":"Short Creek","state_name":"West Virginia","lat":40.18622,"lng":-80.66453,"zip":"26058","miles_from_dt":6.07},{"city":"Rayland","state_name":"Ohio","lat":40.2242,"lng":-80.73269,"zip":"43943","miles_from_dt":6.23},{"city":"Colliers","state_name":"West Virginia","lat":40.3482,"lng":-80.55522,"zip":"26035","miles_from_dt":6.71},{"city":"Steubenville","state_name":"Ohio","lat":40.35815,"lng":-80.70548,"zip":"43953","miles_from_dt":7.2},{"city":"Bethany","state_name":"West Virginia","lat":40.18646,"lng":-80.55024,"zip":"26032","miles_from_dt":7.22},{"city":"West Liberty","state_name":"West Virginia","lat":40.16889,"lng":-80.59813,"zip":"26074","miles_from_dt":7.23},{"city":"Tiltonsville","state_name":"Ohio","lat":40.17155,"lng":-80.69698,"zip":"43963","miles_from_dt":7.65},{"city":"Smithfield","state_name":"Ohio","lat":40.26847,"lng":-80.78002,"zip":"43948","miles_from_dt":7.85},{"city":"Yorkville","state_name":"Ohio","lat":40.15811,"lng":-80.71301,"zip":"43971","miles_from_dt":8.87},{"city":"Steubenville","state_name":"Ohio","lat":40.39763,"lng":-80.66278,"zip":"43952","miles_from_dt":8.93},{"city":"Piney Fork","state_name":"Ohio","lat":40.25258,"lng":-80.81345,"zip":"43941","miles_from_dt":9.69},{"city":"Dillonvale","state_name":"Ohio","lat":40.22396,"lng":-80.80546,"zip":"43917","miles_from_dt":9.74},{"city":"Avella","state_name":"Pennsylvania","lat":40.25404,"lng":-80.43757,"zip":"15312","miles_from_dt":10.32},{"city":"West Middletown","state_name":"Pennsylvania","lat":40.2432,"lng":-80.42519,"zip":"15379","miles_from_dt":11.07},{"city":"Weirton","state_name":"West Virginia","lat":40.42189,"lng":-80.56123,"zip":"26062","miles_from_dt":11.09},{"city":"Mount Pleasant","state_name":"Ohio","lat":40.16723,"lng":-80.79993,"zip":"43939","miles_from_dt":11.4},{"city":"Martins Ferry","state_name":"Ohio","lat":40.1247,"lng":-80.75225,"zip":"43935","miles_from_dt":11.91},{"city":"Bloomingdale","state_name":"Ohio","lat":40.37039,"lng":-80.8214,"zip":"43910","miles_from_dt":12.17},{"city":"Valley Grove","state_name":"West Virginia","lat":40.10465,"lng":-80.54649,"zip":"26060","miles_from_dt":12.29},{"city":"Adena","state_name":"Ohio","lat":40.21691,"lng":-80.86637,"zip":"43901","miles_from_dt":12.95},{"city":"Burgettstown","state_name":"Pennsylvania","lat":40.39373,"lng":-80.43583,"zip":"15021","miles_from_dt":13.38},{"city":"Richmond","state_name":"Ohio","lat":40.43623,"lng":-80.76853,"zip":"43944","miles_from_dt":13.53},{"city":"West Alexander","state_name":"Pennsylvania","lat":40.10493,"lng":-80.48744,"zip":"15376","miles_from_dt":13.73},{"city":"Langeloth","state_name":"Pennsylvania","lat":40.36353,"lng":-80.4008,"zip":"15054","miles_from_dt":13.77},{"city":"Triadelphia","state_name":"West Virginia","lat":40.07156,"lng":-80.59379,"zip":"26059","miles_from_dt":13.87},{"city":"Wheeling","state_name":"West Virginia","lat":40.0693,"lng":-80.6508,"zip":"26003","miles_from_dt":13.92},{"city":"Atlasburg","state_name":"Pennsylvania","lat":40.34216,"lng":-80.38289,"zip":"15004","miles_from_dt":14.03},{"city":"Slovan","state_name":"Pennsylvania","lat":40.35949,"lng":-80.38501,"zip":"15078","miles_from_dt":14.4},{"city":"Harrisville","state_name":"Ohio","lat":40.18205,"lng":-80.88728,"zip":"43974","miles_from_dt":14.84},{"city":"Colerain","state_name":"Ohio","lat":40.07001,"lng":-80.74028,"zip":"43916","miles_from_dt":14.98},{"city":"Toronto","state_name":"Ohio","lat":40.48695,"lng":-80.66928,"zip":"43964","miles_from_dt":15.07},{"city":"Taylorstown","state_name":"Pennsylvania","lat":40.15564,"lng":-80.38548,"zip":"15365","miles_from_dt":15.24},{"city":"Bridgeport","state_name":"Ohio","lat":40.08708,"lng":-80.79255,"zip":"43912","miles_from_dt":15.26},{"city":"Barton","state_name":"Ohio","lat":40.11159,"lng":-80.8408,"zip":"43905","miles_from_dt":15.58},{"city":"Lansing","state_name":"Ohio","lat":40.0752,"lng":-80.79123,"zip":"43934","miles_from_dt":15.91},{"city":"Hopedale","state_name":"Ohio","lat":40.36981,"lng":-80.90655,"zip":"43976","miles_from_dt":16.06},{"city":"Claysville","state_name":"Pennsylvania","lat":40.10845,"lng":-80.40926,"zip":"15323","miles_from_dt":16.23},{"city":"Joffre","state_name":"Pennsylvania","lat":40.38056,"lng":-80.35975,"zip":"15053","miles_from_dt":16.24},{"city":"Maynard","state_name":"Ohio","lat":40.1309,"lng":-80.87904,"zip":"43937","miles_from_dt":16.25},{"city":"Hickory","state_name":"Pennsylvania","lat":40.28654,"lng":-80.32258,"zip":"15340","miles_from_dt":16.36},{"city":"Empire","state_name":"Ohio","lat":40.51068,"lng":-80.62252,"zip":"43926","miles_from_dt":16.58},{"city":"Blaine","state_name":"Ohio","lat":40.06774,"lng":-80.81552,"zip":"43909","miles_from_dt":17.04},{"city":"East Springfield","state_name":"Ohio","lat":40.44583,"lng":-80.86242,"zip":"43925","miles_from_dt":17.17},{"city":"Stratton","state_name":"Ohio","lat":40.52343,"lng":-80.63025,"zip":"43961","miles_from_dt":17.45},{"city":"New Manchester","state_name":"West Virginia","lat":40.5211,"lng":-80.57022,"zip":"26056","miles_from_dt":17.59},{"city":"New Cumberland","state_name":"West Virginia","lat":40.53223,"lng":-80.5837,"zip":"26047","miles_from_dt":18.24},{"city":"Bulger","state_name":"Pennsylvania","lat":40.40805,"lng":-80.33053,"zip":"15019","miles_from_dt":18.51},{"city":"Westland","state_name":"Pennsylvania","lat":40.27771,"lng":-80.27433,"zip":"15378","miles_from_dt":18.88},{"city":"Fairpoint","state_name":"Ohio","lat":40.12334,"lng":-80.9335,"zip":"43927","miles_from_dt":18.93},{"city":"Irondale","state_name":"Ohio","lat":40.53145,"lng":-80.74699,"zip":"43932","miles_from_dt":19.01},{"city":"Wolf Run","state_name":"Ohio","lat":40.46564,"lng":-80.88599,"zip":"43970","miles_from_dt":19.02},{"city":"Benwood","state_name":"West Virginia","lat":40.00236,"lng":-80.71985,"zip":"26031","miles_from_dt":19.08},{"city":"Midway","state_name":"Pennsylvania","lat":40.37695,"lng":-80.29113,"zip":"15060","miles_from_dt":19.42},{"city":"Neffs","state_name":"Ohio","lat":40.02863,"lng":-80.82541,"zip":"43940","miles_from_dt":19.59},{"city":"Saint Clairsville","state_name":"Ohio","lat":40.09164,"lng":-80.92193,"zip":"43950","miles_from_dt":19.71},{"city":"Bellaire","state_name":"Ohio","lat":40.0132,"lng":-80.80118,"zip":"43906","miles_from_dt":19.89},{"city":"Southview","state_name":"Pennsylvania","lat":40.33277,"lng":-80.2623,"zip":"15361","miles_from_dt":19.97},{"city":"New Athens","state_name":"Ohio","lat":40.18401,"lng":-80.99466,"zip":"43981","miles_from_dt":20.11},{"city":"Dallas","state_name":"West Virginia","lat":39.98406,"lng":-80.54339,"zip":"26036","miles_from_dt":20.31},{"city":"Jewett","state_name":"Ohio","lat":40.3784,"lng":-80.99036,"zip":"43986","miles_from_dt":20.36},{"city":"Mcmechen","state_name":"West Virginia","lat":39.98389,"lng":-80.73104,"zip":"26040","miles_from_dt":20.46},{"city":"Cadiz","state_name":"Ohio","lat":40.25697,"lng":-81.0205,"zip":"43907","miles_from_dt":20.58},{"city":"Bergholz","state_name":"Ohio","lat":40.50867,"lng":-80.87349,"zip":"43908","miles_from_dt":20.81},{"city":"Georgetown","state_name":"Pennsylvania","lat":40.55585,"lng":-80.48994,"zip":"15043","miles_from_dt":21.06},{"city":"McDonald","state_name":"Pennsylvania","lat":40.35571,"lng":-80.24713,"zip":"15057","miles_from_dt":21.14},{"city":"Washington","state_name":"Pennsylvania","lat":40.16411,"lng":-80.25304,"zip":"15301","miles_from_dt":21.32},{"city":"Bannock","state_name":"Ohio","lat":40.10164,"lng":-80.9749,"zip":"43972","miles_from_dt":21.58},{"city":"Glen Dale","state_name":"West Virginia","lat":39.96329,"lng":-80.72595,"zip":"26038","miles_from_dt":21.78},{"city":"Houston","state_name":"Pennsylvania","lat":40.24533,"lng":-80.22061,"zip":"15342","miles_from_dt":21.79},{"city":"Amsterdam","state_name":"Ohio","lat":40.47042,"lng":-80.95131,"zip":"43903","miles_from_dt":21.8},{"city":"Meadow Lands","state_name":"Pennsylvania","lat":40.21807,"lng":-80.22469,"zip":"15347","miles_from_dt":21.81},{"city":"Hammondsville","state_name":"Ohio","lat":40.56978,"lng":-80.77372,"zip":"43930","miles_from_dt":21.97},{"city":"Clinton","state_name":"Pennsylvania","lat":40.51043,"lng":-80.35662,"zip":"15026","miles_from_dt":22.01},{"city":"West Finley","state_name":"Pennsylvania","lat":39.97973,"lng":-80.45083,"zip":"15377","miles_from_dt":22.23},{"city":"Glencoe","state_name":"Ohio","lat":40.01088,"lng":-80.88172,"zip":"43928","miles_from_dt":22.28},{"city":"Imperial","state_name":"Pennsylvania","lat":40.46019,"lng":-80.28727,"zip":"15126","miles_from_dt":22.39},{"city":"Hookstown","state_name":"Pennsylvania","lat":40.5617,"lng":-80.44038,"zip":"15050","miles_from_dt":22.48},{"city":"Chester","state_name":"West Virginia","lat":40.59404,"lng":-80.55258,"zip":"26034","miles_from_dt":22.71},{"city":"Newell","state_name":"West Virginia","lat":40.60108,"lng":-80.62646,"zip":"26050","miles_from_dt":22.81},{"city":"Muse","state_name":"Pennsylvania","lat":40.29377,"lng":-80.20056,"zip":"15350","miles_from_dt":22.83},{"city":"Lafferty","state_name":"Ohio","lat":40.11475,"lng":-81.01405,"zip":"43951","miles_from_dt":22.91},{"city":"Strabane","state_name":"Pennsylvania","lat":40.25159,"lng":-80.19761,"zip":"15363","miles_from_dt":22.97},{"city":"New Rumley","state_name":"Ohio","lat":40.39926,"lng":-81.03393,"zip":"43984","miles_from_dt":23.03},{"city":"Shadyside","state_name":"Ohio","lat":39.95448,"lng":-80.78755,"zip":"43947","miles_from_dt":23.32},{"city":"Sturgeon","state_name":"Pennsylvania","lat":40.38031,"lng":-80.21061,"zip":"15082","miles_from_dt":23.48},{"city":"Cecil","state_name":"Pennsylvania","lat":40.32167,"lng":-80.18716,"zip":"15321","miles_from_dt":23.74},{"city":"Warnock","state_name":"Ohio","lat":40.02309,"lng":-80.94371,"zip":"43967","miles_from_dt":23.76},{"city":"Canonsburg","state_name":"Pennsylvania","lat":40.27105,"lng":-80.16535,"zip":"15317","miles_from_dt":24.64},{"city":"Wellsville","state_name":"Ohio","lat":40.63365,"lng":-80.68729,"zip":"43968","miles_from_dt":25.23},{"city":"Hendersonville","state_name":"Pennsylvania","lat":40.29892,"lng":-80.1547,"zip":"15339","miles_from_dt":25.27},{"city":"Prosperity","state_name":"Pennsylvania","lat":40.02813,"lng":-80.27205,"zip":"15329","miles_from_dt":25.33},{"city":"Cuddy","state_name":"Pennsylvania","lat":40.34802,"lng":-80.16235,"zip":"15031","miles_from_dt":25.35},{"city":"Oakdale","state_name":"Pennsylvania","lat":40.41486,"lng":-80.18981,"zip":"15071","miles_from_dt":25.36},{"city":"Graysville","state_name":"Pennsylvania","lat":39.9505,"lng":-80.37521,"zip":"15337","miles_from_dt":25.92},{"city":"Moundsville","state_name":"West Virginia","lat":39.89764,"lng":-80.7107,"zip":"26041","miles_from_dt":26.06},{"city":"Morgan","state_name":"Pennsylvania","lat":40.35538,"lng":-80.14849,"zip":"15064","miles_from_dt":26.18},{"city":"Scio","state_name":"Ohio","lat":40.40486,"lng":-81.09925,"zip":"43988","miles_from_dt":26.38},{"city":"Flushing","state_name":"Ohio","lat":40.14519,"lng":-81.10451,"zip":"43977","miles_from_dt":26.47},{"city":"Pittsburgh","state_name":"Pennsylvania","lat":40.45246,"lng":-80.18405,"zip":"15275","miles_from_dt":26.75},{"city":"Belmont","state_name":"Ohio","lat":40.00926,"lng":-81.00596,"zip":"43718","miles_from_dt":26.79},{"city":"Jacobsburg","state_name":"Ohio","lat":39.93917,"lng":-80.89588,"zip":"43933","miles_from_dt":26.81},{"city":"Shippingport","state_name":"Pennsylvania","lat":40.62517,"lng":-80.4173,"zip":"15077","miles_from_dt":26.95},{"city":"Lawrence","state_name":"Pennsylvania","lat":40.30642,"lng":-80.12296,"zip":"15055","miles_from_dt":26.99},{"city":"Bridgeville","state_name":"Pennsylvania","lat":40.34348,"lng":-80.12865,"zip":"15017","miles_from_dt":27.04},{"city":"Morristown","state_name":"Ohio","lat":40.06393,"lng":-81.06942,"zip":"43759","miles_from_dt":27.21},{"city":"Nineveh","state_name":"Pennsylvania","lat":39.96223,"lng":-80.31107,"zip":"15353","miles_from_dt":27.21},{"city":"Salineville","state_name":"Ohio","lat":40.63156,"lng":-80.84797,"zip":"43945","miles_from_dt":27.4},{"city":"Holloway","state_name":"Ohio","lat":40.16168,"lng":-81.13155,"zip":"43985","miles_from_dt":27.49},{"city":"Aliquippa","state_name":"Pennsylvania","lat":40.59161,"lng":-80.32078,"zip":"15001","miles_from_dt":27.56},{"city":"Coraopolis","state_name":"Pennsylvania","lat":40.50006,"lng":-80.20031,"zip":"15108","miles_from_dt":27.72},{"city":"Presto","state_name":"Pennsylvania","lat":40.38474,"lng":-80.12231,"zip":"15142","miles_from_dt":28.02},{"city":"East Liverpool","state_name":"Ohio","lat":40.67608,"lng":-80.57965,"zip":"43920","miles_from_dt":28.12},{"city":"Amity","state_name":"Pennsylvania","lat":40.04608,"lng":-80.18592,"zip":"15311","miles_from_dt":28.22},{"city":"Pittsburgh","state_name":"Pennsylvania","lat":40.50277,"lng":-80.18917,"zip":"15231","miles_from_dt":28.31},{"city":"Wind Ridge","state_name":"Pennsylvania","lat":39.8725,"lng":-80.4692,"zip":"15380","miles_from_dt":28.78},{"city":"Sycamore","state_name":"Pennsylvania","lat":39.94557,"lng":-80.2849,"zip":"15364","miles_from_dt":28.98},{"city":"Crescent","state_name":"Pennsylvania","lat":40.55618,"lng":-80.22868,"zip":"15046","miles_from_dt":28.98},{"city":"Eighty Four","state_name":"Pennsylvania","lat":40.18227,"lng":-80.09492,"zip":"15330","miles_from_dt":29.02},{"city":"Carnegie","state_name":"Pennsylvania","lat":40.40882,"lng":-80.10863,"zip":"15106","miles_from_dt":29.21},{"city":"Midland","state_name":"Pennsylvania","lat":40.68056,"lng":-80.49182,"zip":"15059","miles_from_dt":29.24},{"city":"Industry","state_name":"Pennsylvania","lat":40.6669,"lng":-80.43318,"zip":"15052","miles_from_dt":29.28},{"city":"Pittsburgh","state_name":"Pennsylvania","lat":40.33293,"lng":-80.08291,"zip":"15241","miles_from_dt":29.3},{"city":"Deersville","state_name":"Ohio","lat":40.2978,"lng":-81.18821,"zip":"44693","miles_from_dt":29.48},{"city":"South Heights","state_name":"Pennsylvania","lat":40.57471,"lng":-80.23614,"zip":"15081","miles_from_dt":29.59},{"city":"Mechanicstown","state_name":"Ohio","lat":40.6231,"lng":-80.9556,"zip":"44651","miles_from_dt":29.73},{"city":"Leetsdale","state_name":"Pennsylvania","lat":40.56512,"lng":-80.21407,"zip":"15056","miles_from_dt":29.97}],"targetCityZipCode":"43913","targetCityState":"Ohio"},"__N_SSG":true}