{"pageProps":{"stateName":"Ohio","cityName":"clyde","nearbyCities":[{"city":"Vickery","state_name":"Ohio","lat":41.40318,"lng":-82.93116,"zip":"43464","miles_from_dt":6.72},{"city":"Green Springs","state_name":"Ohio","lat":41.23772,"lng":-83.05455,"zip":"44836","miles_from_dt":6.98},{"city":"Flat Rock","state_name":"Ohio","lat":41.23367,"lng":-82.85957,"zip":"44828","miles_from_dt":7.25},{"city":"Bellevue","state_name":"Ohio","lat":41.24445,"lng":-82.84474,"zip":"44811","miles_from_dt":7.35},{"city":"Fremont","state_name":"Ohio","lat":41.35749,"lng":-83.11265,"zip":"43420","miles_from_dt":8.74},{"city":"Castalia","state_name":"Ohio","lat":41.37952,"lng":-82.80422,"zip":"44824","miles_from_dt":9.4},{"city":"Old Fort","state_name":"Ohio","lat":41.24254,"lng":-83.14626,"zip":"44861","miles_from_dt":10.79},{"city":"Republic","state_name":"Ohio","lat":41.14755,"lng":-82.98963,"zip":"44867","miles_from_dt":11.19},{"city":"Monroeville","state_name":"Ohio","lat":41.23025,"lng":-82.70821,"zip":"44847","miles_from_dt":14.07},{"city":"Gypsum","state_name":"Ohio","lat":41.50463,"lng":-82.88033,"zip":"43433","miles_from_dt":14.16},{"city":"Sandusky","state_name":"Ohio","lat":41.40623,"lng":-82.7171,"zip":"44870","miles_from_dt":14.25},{"city":"Port Clinton","state_name":"Ohio","lat":41.51568,"lng":-82.96522,"zip":"43452","miles_from_dt":14.34},{"city":"Lacarne","state_name":"Ohio","lat":41.51758,"lng":-83.04275,"zip":"43439","miles_from_dt":15.12},{"city":"Bettsville","state_name":"Ohio","lat":41.24697,"lng":-83.23947,"zip":"44815","miles_from_dt":15.24},{"city":"Burgoon","state_name":"Ohio","lat":41.27717,"lng":-83.24994,"zip":"43407","miles_from_dt":15.34},{"city":"Lindsey","state_name":"Ohio","lat":41.42911,"lng":-83.21496,"zip":"43442","miles_from_dt":15.76},{"city":"Sandusky","state_name":"Ohio","lat":41.44977,"lng":-82.70587,"zip":"44871","miles_from_dt":16.36},{"city":"Tiffin","state_name":"Ohio","lat":41.12395,"lng":-83.17459,"zip":"44883","miles_from_dt":16.98},{"city":"Attica","state_name":"Ohio","lat":41.06508,"lng":-82.87533,"zip":"44807","miles_from_dt":17.3},{"city":"Lakeside Marblehead","state_name":"Ohio","lat":41.52662,"lng":-82.78145,"zip":"43440","miles_from_dt":17.66},{"city":"Milan","state_name":"Ohio","lat":41.31589,"lng":-82.60832,"zip":"44846","miles_from_dt":18.21},{"city":"Oak Harbor","state_name":"Ohio","lat":41.5357,"lng":-83.14151,"zip":"43449","miles_from_dt":18.38},{"city":"Helena","state_name":"Ohio","lat":41.32634,"lng":-83.31197,"zip":"43435","miles_from_dt":18.46},{"city":"Kansas","state_name":"Ohio","lat":41.25126,"lng":-83.31139,"zip":"44841","miles_from_dt":18.8},{"city":"Willard","state_name":"Ohio","lat":41.0818,"lng":-82.71248,"zip":"44890","miles_from_dt":20.18},{"city":"Rocky Ridge","state_name":"Ohio","lat":41.53105,"lng":-83.21258,"zip":"43458","miles_from_dt":20.3},{"city":"Elmore","state_name":"Ohio","lat":41.48532,"lng":-83.27055,"zip":"43416","miles_from_dt":20.34},{"city":"Norwalk","state_name":"Ohio","lat":41.21785,"lng":-82.58212,"zip":"44857","miles_from_dt":20.54},{"city":"Gibsonburg","state_name":"Ohio","lat":41.38998,"lng":-83.33964,"zip":"43431","miles_from_dt":20.63},{"city":"Melmore","state_name":"Ohio","lat":41.03115,"lng":-83.13346,"zip":"44845","miles_from_dt":21.18},{"city":"Willard","state_name":"Ohio","lat":41.05676,"lng":-82.7219,"zip":"44888","miles_from_dt":21.26},{"city":"Bascom","state_name":"Ohio","lat":41.13215,"lng":-83.29391,"zip":"44809","miles_from_dt":21.29},{"city":"Bloomville","state_name":"Ohio","lat":41.0002,"lng":-82.99645,"zip":"44818","miles_from_dt":21.33},{"city":"Huron","state_name":"Ohio","lat":41.3725,"lng":-82.55656,"zip":"44839","miles_from_dt":21.35},{"city":"Graytown","state_name":"Ohio","lat":41.56115,"lng":-83.24934,"zip":"43432","miles_from_dt":23.11},{"city":"Woodville","state_name":"Ohio","lat":41.45947,"lng":-83.36474,"zip":"43469","miles_from_dt":23.58},{"city":"New Haven","state_name":"Ohio","lat":41.03539,"lng":-82.68403,"zip":"44850","miles_from_dt":23.62},{"city":"North Fairfield","state_name":"Ohio","lat":41.10414,"lng":-82.58664,"zip":"44855","miles_from_dt":23.93},{"city":"Kelleys Island","state_name":"Ohio","lat":41.60343,"lng":-82.70268,"zip":"43438","miles_from_dt":24.32},{"city":"Chatfield","state_name":"Ohio","lat":40.95443,"lng":-82.94194,"zip":"44825","miles_from_dt":24.41},{"city":"Risingsun","state_name":"Ohio","lat":41.26788,"lng":-83.42508,"zip":"43457","miles_from_dt":24.46},{"city":"Put In Bay","state_name":"Ohio","lat":41.64934,"lng":-82.82497,"zip":"43456","miles_from_dt":24.55},{"city":"Bradner","state_name":"Ohio","lat":41.33605,"lng":-83.4372,"zip":"43406","miles_from_dt":25},{"city":"Fostoria","state_name":"Ohio","lat":41.16603,"lng":-83.40081,"zip":"44830","miles_from_dt":25.06},{"city":"New Riegel","state_name":"Ohio","lat":41.05501,"lng":-83.30399,"zip":"44853","miles_from_dt":25.1},{"city":"Berlin Heights","state_name":"Ohio","lat":41.32162,"lng":-82.4714,"zip":"44814","miles_from_dt":25.34},{"city":"Collins","state_name":"Ohio","lat":41.23993,"lng":-82.47931,"zip":"44826","miles_from_dt":25.36},{"city":"New Washington","state_name":"Ohio","lat":40.94723,"lng":-82.85748,"zip":"44854","miles_from_dt":25.44},{"city":"Martin","state_name":"Ohio","lat":41.58644,"lng":-83.29488,"zip":"43445","miles_from_dt":25.99},{"city":"Plymouth","state_name":"Ohio","lat":40.99165,"lng":-82.68168,"zip":"44865","miles_from_dt":26.16},{"city":"Genoa","state_name":"Ohio","lat":41.5238,"lng":-83.37329,"zip":"43430","miles_from_dt":26.22},{"city":"Sycamore","state_name":"Ohio","lat":40.94759,"lng":-83.13734,"zip":"44882","miles_from_dt":26.57},{"city":"McCutchenville","state_name":"Ohio","lat":40.9926,"lng":-83.25839,"zip":"44844","miles_from_dt":26.81},{"city":"Middle Bass","state_name":"Ohio","lat":41.68483,"lng":-82.80863,"zip":"43446","miles_from_dt":27.14},{"city":"Clay Center","state_name":"Ohio","lat":41.57179,"lng":-83.36352,"zip":"43408","miles_from_dt":27.84},{"city":"West Millgrove","state_name":"Ohio","lat":41.24328,"lng":-83.49098,"zip":"43467","miles_from_dt":28.1},{"city":"Tiro","state_name":"Ohio","lat":40.9205,"lng":-82.788,"zip":"44887","miles_from_dt":28.17},{"city":"Williston","state_name":"Ohio","lat":41.59974,"lng":-83.34661,"zip":"43468","miles_from_dt":28.5},{"city":"Pemberville","state_name":"Ohio","lat":41.40013,"lng":-83.49324,"zip":"43450","miles_from_dt":28.55},{"city":"Luckey","state_name":"Ohio","lat":41.46099,"lng":-83.46906,"zip":"43443","miles_from_dt":28.58},{"city":"Wayne","state_name":"Ohio","lat":41.29234,"lng":-83.51394,"zip":"43466","miles_from_dt":28.95},{"city":"Isle Saint George","state_name":"Ohio","lat":41.71522,"lng":-82.82098,"zip":"43436","miles_from_dt":28.99},{"city":"Curtice","state_name":"Ohio","lat":41.62933,"lng":-83.31961,"zip":"43412","miles_from_dt":29.05},{"city":"Lemoyne","state_name":"Ohio","lat":41.49804,"lng":-83.47193,"zip":"43441","miles_from_dt":29.75}],"targetCityZipCode":"43410","targetCityState":"Ohio"},"__N_SSG":true}