{"pageProps":{"stateName":"Ohio","cityName":"east-fultonham","nearbyCities":[{"city":"Fultonham","state_name":"Ohio","lat":39.8554,"lng":-82.14063,"zip":"43738","miles_from_dt":1.14},{"city":"White Cottage","state_name":"Ohio","lat":39.87757,"lng":-82.08877,"zip":"43791","miles_from_dt":2.27},{"city":"Roseville","state_name":"Ohio","lat":39.81896,"lng":-82.08543,"zip":"43777","miles_from_dt":3.03},{"city":"Mount Perry","state_name":"Ohio","lat":39.8858,"lng":-82.19577,"zip":"43760","miles_from_dt":4.61},{"city":"Zanesville","state_name":"Ohio","lat":39.94082,"lng":-82.00679,"zip":"43702","miles_from_dt":8.44},{"city":"Gratiot","state_name":"Ohio","lat":39.9515,"lng":-82.21706,"zip":"43740","miles_from_dt":8.48},{"city":"Hopewell","state_name":"Ohio","lat":39.97146,"lng":-82.17287,"zip":"43746","miles_from_dt":8.57},{"city":"Crooksville","state_name":"Ohio","lat":39.72768,"lng":-82.0675,"zip":"43731","miles_from_dt":9.16},{"city":"Philo","state_name":"Ohio","lat":39.83586,"lng":-81.94135,"zip":"43771","miles_from_dt":9.54},{"city":"Somerset","state_name":"Ohio","lat":39.80389,"lng":-82.28878,"zip":"43783","miles_from_dt":9.67},{"city":"Glenford","state_name":"Ohio","lat":39.90693,"lng":-82.29025,"zip":"43739","miles_from_dt":9.79},{"city":"Zanesville","state_name":"Ohio","lat":39.95986,"lng":-81.99498,"zip":"43701","miles_from_dt":9.82},{"city":"Brownsville","state_name":"Ohio","lat":39.94927,"lng":-82.26015,"zip":"43721","miles_from_dt":9.95},{"city":"New Lexington","state_name":"Ohio","lat":39.71485,"lng":-82.19239,"zip":"43764","miles_from_dt":10.38},{"city":"Duncan Falls","state_name":"Ohio","lat":39.88144,"lng":-81.90489,"zip":"43734","miles_from_dt":11.54},{"city":"Moxahala","state_name":"Ohio","lat":39.66829,"lng":-82.14798,"zip":"43761","miles_from_dt":12.93},{"city":"Blue Rock","state_name":"Ohio","lat":39.79272,"lng":-81.86886,"zip":"43720","miles_from_dt":13.98},{"city":"Nashport","state_name":"Ohio","lat":40.06116,"lng":-82.14812,"zip":"43830","miles_from_dt":14.35},{"city":"Junction City","state_name":"Ohio","lat":39.69788,"lng":-82.30899,"zip":"43748","miles_from_dt":14.79},{"city":"Thornville","state_name":"Ohio","lat":39.89594,"lng":-82.39497,"zip":"43076","miles_from_dt":14.94},{"city":"Heath","state_name":"Ohio","lat":40.00895,"lng":-82.33057,"zip":"43056","miles_from_dt":15.49},{"city":"Corning","state_name":"Ohio","lat":39.6294,"lng":-82.09435,"zip":"43730","miles_from_dt":15.58},{"city":"Rushville","state_name":"Ohio","lat":39.77446,"lng":-82.40565,"zip":"43150","miles_from_dt":16.21},{"city":"Shawnee","state_name":"Ohio","lat":39.62129,"lng":-82.2185,"zip":"43782","miles_from_dt":16.93},{"city":"Chandlersville","state_name":"Ohio","lat":39.8714,"lng":-81.79884,"zip":"43727","miles_from_dt":17.07},{"city":"Jacksontown","state_name":"Ohio","lat":39.96783,"lng":-82.40667,"zip":"43030","miles_from_dt":17.16},{"city":"Malta","state_name":"Ohio","lat":39.62482,"lng":-81.9432,"zip":"43758","miles_from_dt":18.4},{"city":"Bremen","state_name":"Ohio","lat":39.69254,"lng":-82.40993,"zip":"43107","miles_from_dt":19.09},{"city":"New Straitsville","state_name":"Ohio","lat":39.59492,"lng":-82.2501,"zip":"43766","miles_from_dt":19.21},{"city":"Norwich","state_name":"Ohio","lat":40.00653,"lng":-81.80198,"zip":"43767","miles_from_dt":19.85},{"city":"Buckeye Lake","state_name":"Ohio","lat":39.93348,"lng":-82.4817,"zip":"43008","miles_from_dt":20.02},{"city":"Dresden","state_name":"Ohio","lat":40.13559,"lng":-82.00695,"zip":"43821","miles_from_dt":20.3},{"city":"Pleasantville","state_name":"Ohio","lat":39.81809,"lng":-82.49887,"zip":"43148","miles_from_dt":20.35},{"city":"Trinway","state_name":"Ohio","lat":40.13749,"lng":-82.01182,"zip":"43842","miles_from_dt":20.35},{"city":"Mcconnelsville","state_name":"Ohio","lat":39.68993,"lng":-81.79574,"zip":"43756","miles_from_dt":20.62},{"city":"Newark","state_name":"Ohio","lat":40.05958,"lng":-82.40378,"zip":"43058","miles_from_dt":20.71},{"city":"Adamsville","state_name":"Ohio","lat":40.09346,"lng":-81.85687,"zip":"43802","miles_from_dt":21.59},{"city":"Frazeysburg","state_name":"Ohio","lat":40.17409,"lng":-82.16958,"zip":"43822","miles_from_dt":22.22},{"city":"Hebron","state_name":"Ohio","lat":39.96653,"lng":-82.51529,"zip":"43025","miles_from_dt":22.42},{"city":"Millersport","state_name":"Ohio","lat":39.89917,"lng":-82.53844,"zip":"43046","miles_from_dt":22.5},{"city":"Newark","state_name":"Ohio","lat":40.05817,"lng":-82.45232,"zip":"43093","miles_from_dt":22.6},{"city":"Newark","state_name":"Ohio","lat":40.1168,"lng":-82.37672,"zip":"43055","miles_from_dt":22.69},{"city":"Thurston","state_name":"Ohio","lat":39.84303,"lng":-82.54675,"zip":"43157","miles_from_dt":22.75},{"city":"Murray City","state_name":"Ohio","lat":39.52797,"lng":-82.19155,"zip":"43144","miles_from_dt":22.85},{"city":"Glouster","state_name":"Ohio","lat":39.51802,"lng":-82.06705,"zip":"45732","miles_from_dt":23.37},{"city":"New Concord","state_name":"Ohio","lat":40.03156,"lng":-81.74007,"zip":"43762","miles_from_dt":23.55},{"city":"Cumberland","state_name":"Ohio","lat":39.84409,"lng":-81.65883,"zip":"43732","miles_from_dt":24.49},{"city":"Conesville","state_name":"Ohio","lat":40.18285,"lng":-81.93232,"zip":"43811","miles_from_dt":24.74},{"city":"Carbon Hill","state_name":"Ohio","lat":39.50212,"lng":-82.24257,"zip":"43111","miles_from_dt":25.18},{"city":"Trimble","state_name":"Ohio","lat":39.48624,"lng":-82.08076,"zip":"45782","miles_from_dt":25.48},{"city":"Saint Louisville","state_name":"Ohio","lat":40.18479,"lng":-82.35509,"zip":"43071","miles_from_dt":26.01},{"city":"Jacksonville","state_name":"Ohio","lat":39.47709,"lng":-82.08023,"zip":"45740","miles_from_dt":26.11},{"city":"Baltimore","state_name":"Ohio","lat":39.86513,"lng":-82.61826,"zip":"43105","miles_from_dt":26.55},{"city":"Kirkersville","state_name":"Ohio","lat":39.96098,"lng":-82.59984,"zip":"43033","miles_from_dt":26.58},{"city":"Granville","state_name":"Ohio","lat":40.07603,"lng":-82.53061,"zip":"43023","miles_from_dt":26.66},{"city":"Sugar Grove","state_name":"Ohio","lat":39.6251,"lng":-82.52618,"zip":"43155","miles_from_dt":26.84},{"city":"Buchtel","state_name":"Ohio","lat":39.46295,"lng":-82.18401,"zip":"45716","miles_from_dt":27.22},{"city":"Chesterhill","state_name":"Ohio","lat":39.49188,"lng":-81.89676,"zip":"43728","miles_from_dt":27.68},{"city":"Logan","state_name":"Ohio","lat":39.52225,"lng":-82.41335,"zip":"43138","miles_from_dt":27.76},{"city":"Stockport","state_name":"Ohio","lat":39.53292,"lng":-81.80554,"zip":"43787","miles_from_dt":27.77},{"city":"Lancaster","state_name":"Ohio","lat":39.70013,"lng":-82.60992,"zip":"43130","miles_from_dt":28.21},{"city":"Haydenville","state_name":"Ohio","lat":39.47559,"lng":-82.32183,"zip":"43127","miles_from_dt":28.28},{"city":"Nelsonville","state_name":"Ohio","lat":39.45116,"lng":-82.24336,"zip":"45764","miles_from_dt":28.59},{"city":"Ava","state_name":"Ohio","lat":39.84262,"lng":-81.57738,"zip":"43711","miles_from_dt":28.82},{"city":"Millfield","state_name":"Ohio","lat":39.42642,"lng":-82.0964,"zip":"45761","miles_from_dt":29.55}],"targetCityZipCode":"43735","targetCityState":"Ohio"},"__N_SSG":true}