{"pageProps":{"stateName":"Ohio","cityName":"gibsonburg","nearbyCities":[{"city":"Helena","state_name":"Ohio","lat":41.32634,"lng":-83.31197,"zip":"43435","miles_from_dt":4.62},{"city":"Woodville","state_name":"Ohio","lat":41.45947,"lng":-83.36474,"zip":"43469","miles_from_dt":4.97},{"city":"Bradner","state_name":"Ohio","lat":41.33605,"lng":-83.4372,"zip":"43406","miles_from_dt":6.29},{"city":"Lindsey","state_name":"Ohio","lat":41.42911,"lng":-83.21496,"zip":"43442","miles_from_dt":7.02},{"city":"Elmore","state_name":"Ohio","lat":41.48532,"lng":-83.27055,"zip":"43416","miles_from_dt":7.49},{"city":"Pemberville","state_name":"Ohio","lat":41.40013,"lng":-83.49324,"zip":"43450","miles_from_dt":8.01},{"city":"Luckey","state_name":"Ohio","lat":41.46099,"lng":-83.46906,"zip":"43443","miles_from_dt":8.32},{"city":"Burgoon","state_name":"Ohio","lat":41.27717,"lng":-83.24994,"zip":"43407","miles_from_dt":9.08},{"city":"Genoa","state_name":"Ohio","lat":41.5238,"lng":-83.37329,"zip":"43430","miles_from_dt":9.4},{"city":"Risingsun","state_name":"Ohio","lat":41.26788,"lng":-83.42508,"zip":"43457","miles_from_dt":9.53},{"city":"Kansas","state_name":"Ohio","lat":41.25126,"lng":-83.31139,"zip":"44841","miles_from_dt":9.69},{"city":"Lemoyne","state_name":"Ohio","lat":41.49804,"lng":-83.47193,"zip":"43441","miles_from_dt":10.14},{"city":"Bettsville","state_name":"Ohio","lat":41.24697,"lng":-83.23947,"zip":"44815","miles_from_dt":11.16},{"city":"Wayne","state_name":"Ohio","lat":41.29234,"lng":-83.51394,"zip":"43466","miles_from_dt":11.3},{"city":"Rocky Ridge","state_name":"Ohio","lat":41.53105,"lng":-83.21258,"zip":"43458","miles_from_dt":11.76},{"city":"Stony Ridge","state_name":"Ohio","lat":41.51141,"lng":-83.50511,"zip":"43463","miles_from_dt":12},{"city":"Fremont","state_name":"Ohio","lat":41.35749,"lng":-83.11265,"zip":"43420","miles_from_dt":12.01},{"city":"Clay Center","state_name":"Ohio","lat":41.57179,"lng":-83.36352,"zip":"43408","miles_from_dt":12.61},{"city":"Graytown","state_name":"Ohio","lat":41.56115,"lng":-83.24934,"zip":"43432","miles_from_dt":12.71},{"city":"West Millgrove","state_name":"Ohio","lat":41.24328,"lng":-83.49098,"zip":"43467","miles_from_dt":12.83},{"city":"Millbury","state_name":"Ohio","lat":41.56654,"lng":-83.43429,"zip":"43447","miles_from_dt":13.14},{"city":"Martin","state_name":"Ohio","lat":41.58644,"lng":-83.29488,"zip":"43445","miles_from_dt":13.76},{"city":"Old Fort","state_name":"Ohio","lat":41.24254,"lng":-83.14626,"zip":"44861","miles_from_dt":14.31},{"city":"Oak Harbor","state_name":"Ohio","lat":41.5357,"lng":-83.14151,"zip":"43449","miles_from_dt":14.38},{"city":"Williston","state_name":"Ohio","lat":41.59974,"lng":-83.34661,"zip":"43468","miles_from_dt":14.48},{"city":"Walbridge","state_name":"Ohio","lat":41.56593,"lng":-83.50489,"zip":"43465","miles_from_dt":14.87},{"city":"Dunbridge","state_name":"Ohio","lat":41.45165,"lng":-83.61724,"zip":"43414","miles_from_dt":15.03},{"city":"Perrysburg","state_name":"Ohio","lat":41.52095,"lng":-83.57503,"zip":"43551","miles_from_dt":15.2},{"city":"Portage","state_name":"Ohio","lat":41.31551,"lng":-83.61614,"zip":"43451","miles_from_dt":15.27},{"city":"Bowling Green","state_name":"Ohio","lat":41.37784,"lng":-83.63653,"zip":"43403","miles_from_dt":15.45},{"city":"Fostoria","state_name":"Ohio","lat":41.16603,"lng":-83.40081,"zip":"44830","miles_from_dt":15.78},{"city":"Northwood","state_name":"Ohio","lat":41.60424,"lng":-83.47348,"zip":"43619","miles_from_dt":16.34},{"city":"Bowling Green","state_name":"Ohio","lat":41.40957,"lng":-83.65389,"zip":"43402","miles_from_dt":16.38},{"city":"Curtice","state_name":"Ohio","lat":41.62933,"lng":-83.31961,"zip":"43412","miles_from_dt":16.55},{"city":"Jerry City","state_name":"Ohio","lat":41.25396,"lng":-83.60176,"zip":"43437","miles_from_dt":16.55},{"city":"Bloomdale","state_name":"Ohio","lat":41.1987,"lng":-83.54676,"zip":"44817","miles_from_dt":17.04},{"city":"Lacarne","state_name":"Ohio","lat":41.51758,"lng":-83.04275,"zip":"43439","miles_from_dt":17.75},{"city":"Bascom","state_name":"Ohio","lat":41.13215,"lng":-83.29391,"zip":"44809","miles_from_dt":17.95},{"city":"Toledo","state_name":"Ohio","lat":41.60596,"lng":-83.537,"zip":"43654","miles_from_dt":18.08},{"city":"Green Springs","state_name":"Ohio","lat":41.23772,"lng":-83.05455,"zip":"44836","miles_from_dt":18.18},{"city":"Perrysburg","state_name":"Ohio","lat":41.55391,"lng":-83.62606,"zip":"43552","miles_from_dt":18.68},{"city":"Rossford","state_name":"Ohio","lat":41.60392,"lng":-83.56328,"zip":"43460","miles_from_dt":18.78},{"city":"Oregon","state_name":"Ohio","lat":41.65727,"lng":-83.40931,"zip":"43616","miles_from_dt":18.8},{"city":"Cygnet","state_name":"Ohio","lat":41.24205,"lng":-83.65476,"zip":"43413","miles_from_dt":19.31},{"city":"Haskins","state_name":"Ohio","lat":41.46663,"lng":-83.70098,"zip":"43525","miles_from_dt":19.5},{"city":"Toledo","state_name":"Ohio","lat":41.64734,"lng":-83.50722,"zip":"43605","miles_from_dt":19.77},{"city":"Toledo","state_name":"Ohio","lat":41.63895,"lng":-83.54468,"zip":"43660","miles_from_dt":20.21},{"city":"Tiffin","state_name":"Ohio","lat":41.12395,"lng":-83.17459,"zip":"44883","miles_from_dt":20.27},{"city":"Toledo","state_name":"Ohio","lat":41.64221,"lng":-83.54216,"zip":"43681","miles_from_dt":20.33},{"city":"Toledo","state_name":"Ohio","lat":41.64259,"lng":-83.544,"zip":"43682","miles_from_dt":20.4},{"city":"Toledo","state_name":"Ohio","lat":41.64478,"lng":-83.54344,"zip":"43697","miles_from_dt":20.52},{"city":"Toledo","state_name":"Ohio","lat":41.62849,"lng":-83.57824,"zip":"43609","miles_from_dt":20.59},{"city":"Toledo","state_name":"Ohio","lat":41.64925,"lng":-83.53679,"zip":"43659","miles_from_dt":20.61},{"city":"Clyde","state_name":"Ohio","lat":41.30792,"lng":-82.95807,"zip":"43410","miles_from_dt":20.63},{"city":"Toledo","state_name":"Ohio","lat":41.65089,"lng":-83.53523,"zip":"43667","miles_from_dt":20.67},{"city":"Toledo","state_name":"Ohio","lat":41.65097,"lng":-83.53648,"zip":"43652","miles_from_dt":20.7},{"city":"Toledo","state_name":"Ohio","lat":41.65445,"lng":-83.53039,"zip":"43666","miles_from_dt":20.76},{"city":"Toledo","state_name":"Ohio","lat":41.64729,"lng":-83.54763,"zip":"43601","miles_from_dt":20.78},{"city":"Toledo","state_name":"Ohio","lat":41.65217,"lng":-83.53977,"zip":"43604","miles_from_dt":20.86},{"city":"Toledo","state_name":"Ohio","lat":41.65807,"lng":-83.52738,"zip":"43603","miles_from_dt":20.91},{"city":"Tontogany","state_name":"Ohio","lat":41.42044,"lng":-83.74011,"zip":"43565","miles_from_dt":20.91},{"city":"Toledo","state_name":"Ohio","lat":41.60336,"lng":-83.62715,"zip":"43614","miles_from_dt":20.96},{"city":"Rudolph","state_name":"Ohio","lat":41.28352,"lng":-83.71887,"zip":"43462","miles_from_dt":21.05},{"city":"Vickery","state_name":"Ohio","lat":41.40318,"lng":-82.93116,"zip":"43464","miles_from_dt":21.25},{"city":"Port Clinton","state_name":"Ohio","lat":41.51568,"lng":-82.96522,"zip":"43452","miles_from_dt":21.29},{"city":"Harbor View","state_name":"Ohio","lat":41.69319,"lng":-83.44474,"zip":"43434","miles_from_dt":21.62},{"city":"Maumee","state_name":"Ohio","lat":41.57433,"lng":-83.68542,"zip":"43537","miles_from_dt":22},{"city":"Arcadia","state_name":"Ohio","lat":41.10708,"lng":-83.53538,"zip":"44804","miles_from_dt":22.02},{"city":"Toledo","state_name":"Ohio","lat":41.66519,"lng":-83.5547,"zip":"43620","miles_from_dt":22.03},{"city":"Toledo","state_name":"Ohio","lat":41.63106,"lng":-83.61875,"zip":"43699","miles_from_dt":22.06},{"city":"Toledo","state_name":"Ohio","lat":41.68008,"lng":-83.53062,"zip":"43608","miles_from_dt":22.34},{"city":"Toledo","state_name":"Ohio","lat":41.64761,"lng":-83.60582,"zip":"43607","miles_from_dt":22.51},{"city":"North Baltimore","state_name":"Ohio","lat":41.18863,"lng":-83.68366,"zip":"45872","miles_from_dt":22.66},{"city":"Toledo","state_name":"Ohio","lat":41.65288,"lng":-83.60469,"zip":"43661","miles_from_dt":22.76},{"city":"Toledo","state_name":"Ohio","lat":41.67683,"lng":-83.56178,"zip":"43657","miles_from_dt":22.9},{"city":"Waterville","state_name":"Ohio","lat":41.49467,"lng":-83.75838,"zip":"43566","miles_from_dt":22.91},{"city":"Toledo","state_name":"Ohio","lat":41.70241,"lng":-83.49154,"zip":"43611","miles_from_dt":22.95},{"city":"Toledo","state_name":"Ohio","lat":41.67775,"lng":-83.5614,"zip":"43610","miles_from_dt":22.95},{"city":"Van Buren","state_name":"Ohio","lat":41.14606,"lng":-83.64101,"zip":"45889","miles_from_dt":23.01},{"city":"New Riegel","state_name":"Ohio","lat":41.05501,"lng":-83.30399,"zip":"44853","miles_from_dt":23.19},{"city":"Weston","state_name":"Ohio","lat":41.3513,"lng":-83.78844,"zip":"43569","miles_from_dt":23.48},{"city":"Toledo","state_name":"Ohio","lat":41.67178,"lng":-83.61085,"zip":"43606","miles_from_dt":24},{"city":"Alvada","state_name":"Ohio","lat":41.04534,"lng":-83.41912,"zip":"44802","miles_from_dt":24.14},{"city":"Toledo","state_name":"Ohio","lat":41.70946,"lng":-83.54899,"zip":"43612","miles_from_dt":24.57},{"city":"Republic","state_name":"Ohio","lat":41.14755,"lng":-82.98963,"zip":"44867","miles_from_dt":24.74},{"city":"Toledo","state_name":"Ohio","lat":41.65045,"lng":-83.67255,"zip":"43615","miles_from_dt":24.93},{"city":"Toledo","state_name":"Ohio","lat":41.65254,"lng":-83.67132,"zip":"43635","miles_from_dt":24.99},{"city":"Gypsum","state_name":"Ohio","lat":41.50463,"lng":-82.88033,"zip":"43433","miles_from_dt":25.13},{"city":"Monclova","state_name":"Ohio","lat":41.56642,"lng":-83.76531,"zip":"43542","miles_from_dt":25.23},{"city":"Toledo","state_name":"Ohio","lat":41.70628,"lng":-83.60374,"zip":"43613","miles_from_dt":25.77},{"city":"Milton Center","state_name":"Ohio","lat":41.30075,"lng":-83.82953,"zip":"43541","miles_from_dt":26.21},{"city":"Grand Rapids","state_name":"Ohio","lat":41.42058,"lng":-83.84352,"zip":"43522","miles_from_dt":26.27},{"city":"Whitehouse","state_name":"Ohio","lat":41.51574,"lng":-83.81796,"zip":"43571","miles_from_dt":26.31},{"city":"Custar","state_name":"Ohio","lat":41.26384,"lng":-83.82376,"zip":"43511","miles_from_dt":26.65},{"city":"Holland","state_name":"Ohio","lat":41.62908,"lng":-83.74923,"zip":"43528","miles_from_dt":26.9},{"city":"Hoytville","state_name":"Ohio","lat":41.18998,"lng":-83.78431,"zip":"43529","miles_from_dt":26.95},{"city":"Melmore","state_name":"Ohio","lat":41.03115,"lng":-83.13346,"zip":"44845","miles_from_dt":26.99},{"city":"Toledo","state_name":"Ohio","lat":41.70419,"lng":-83.65095,"zip":"43623","miles_from_dt":27.03},{"city":"Toledo","state_name":"Ohio","lat":41.70475,"lng":-83.6508,"zip":"43656","miles_from_dt":27.06},{"city":"Flat Rock","state_name":"Ohio","lat":41.23367,"lng":-82.85957,"zip":"44828","miles_from_dt":27.21},{"city":"Toledo","state_name":"Ohio","lat":41.66416,"lng":-83.72808,"zip":"43617","miles_from_dt":27.64},{"city":"Bellevue","state_name":"Ohio","lat":41.24445,"lng":-82.84474,"zip":"44811","miles_from_dt":27.64},{"city":"McCutchenville","state_name":"Ohio","lat":40.9926,"lng":-83.25839,"zip":"44844","miles_from_dt":27.75},{"city":"Castalia","state_name":"Ohio","lat":41.37952,"lng":-82.80422,"zip":"44824","miles_from_dt":27.84},{"city":"Erie","state_name":"Michigan","lat":41.78428,"lng":-83.48816,"zip":"48133","miles_from_dt":28.28},{"city":"Neapolis","state_name":"Ohio","lat":41.49214,"lng":-83.87634,"zip":"43547","miles_from_dt":28.75},{"city":"Findlay","state_name":"Ohio","lat":41.04436,"lng":-83.64804,"zip":"45839","miles_from_dt":28.76},{"city":"Lambertville","state_name":"Michigan","lat":41.75325,"lng":-83.62803,"zip":"48144","miles_from_dt":29.19},{"city":"Vanlue","state_name":"Ohio","lat":40.97752,"lng":-83.49105,"zip":"45890","miles_from_dt":29.54},{"city":"Luna Pier","state_name":"Michigan","lat":41.81495,"lng":-83.43776,"zip":"48157","miles_from_dt":29.77},{"city":"Sylvania","state_name":"Ohio","lat":41.70067,"lng":-83.73799,"zip":"43560","miles_from_dt":29.77},{"city":"Findlay","state_name":"Ohio","lat":41.02626,"lng":-83.64943,"zip":"45840","miles_from_dt":29.84}],"targetCityZipCode":"43431","targetCityState":"Ohio"},"__N_SSG":true}