{"pageProps":{"stateName":"Ohio","cityName":"lisbon","nearbyCities":[{"city":"Elkton","state_name":"Ohio","lat":40.77068,"lng":-80.70455,"zip":"44415","miles_from_dt":2.86},{"city":"West Point","state_name":"Ohio","lat":40.70796,"lng":-80.70221,"zip":"44492","miles_from_dt":3.87},{"city":"Leetonia","state_name":"Ohio","lat":40.84748,"lng":-80.75365,"zip":"44431","miles_from_dt":6.75},{"city":"Hanoverton","state_name":"Ohio","lat":40.7524,"lng":-80.89963,"zip":"44423","miles_from_dt":7.78},{"city":"Rogers","state_name":"Ohio","lat":40.77581,"lng":-80.60485,"zip":"44455","miles_from_dt":7.9},{"city":"Wellsville","state_name":"Ohio","lat":40.63365,"lng":-80.68729,"zip":"43968","miles_from_dt":8.69},{"city":"Winona","state_name":"Ohio","lat":40.82192,"lng":-80.88864,"zip":"44493","miles_from_dt":8.75},{"city":"Summitville","state_name":"Ohio","lat":40.67315,"lng":-80.88919,"zip":"43962","miles_from_dt":8.96},{"city":"Salineville","state_name":"Ohio","lat":40.63156,"lng":-80.84797,"zip":"43945","miles_from_dt":9.6},{"city":"New Waterford","state_name":"Ohio","lat":40.84834,"lng":-80.61732,"zip":"44445","miles_from_dt":9.79},{"city":"Columbiana","state_name":"Ohio","lat":40.88487,"lng":-80.68569,"zip":"44408","miles_from_dt":9.94},{"city":"East Liverpool","state_name":"Ohio","lat":40.67608,"lng":-80.57965,"zip":"43920","miles_from_dt":10.36},{"city":"Washingtonville","state_name":"Ohio","lat":40.90041,"lng":-80.76801,"zip":"44490","miles_from_dt":10.43},{"city":"Negley","state_name":"Ohio","lat":40.75802,"lng":-80.55264,"zip":"44441","miles_from_dt":10.45},{"city":"Kensington","state_name":"Ohio","lat":40.71672,"lng":-80.95686,"zip":"44427","miles_from_dt":11.02},{"city":"Newell","state_name":"West Virginia","lat":40.60108,"lng":-80.62646,"zip":"26050","miles_from_dt":12.18},{"city":"Salem","state_name":"Ohio","lat":40.90221,"lng":-80.87026,"zip":"44460","miles_from_dt":12.22},{"city":"East Palestine","state_name":"Ohio","lat":40.84803,"lng":-80.5549,"zip":"44413","miles_from_dt":12.34},{"city":"Hammondsville","state_name":"Ohio","lat":40.56978,"lng":-80.77372,"zip":"43930","miles_from_dt":12.47},{"city":"East Rochester","state_name":"Ohio","lat":40.7623,"lng":-80.99919,"zip":"44625","miles_from_dt":13.03},{"city":"Greenford","state_name":"Ohio","lat":40.94502,"lng":-80.79206,"zip":"44422","miles_from_dt":13.64},{"city":"North Georgetown","state_name":"Ohio","lat":40.83555,"lng":-80.98706,"zip":"44665","miles_from_dt":13.7},{"city":"Mechanicstown","state_name":"Ohio","lat":40.6231,"lng":-80.9556,"zip":"44651","miles_from_dt":13.83},{"city":"North Lima","state_name":"Ohio","lat":40.94711,"lng":-80.66232,"zip":"44452","miles_from_dt":14.4},{"city":"Midland","state_name":"Pennsylvania","lat":40.68056,"lng":-80.49182,"zip":"15059","miles_from_dt":14.45},{"city":"New Springfield","state_name":"Ohio","lat":40.92351,"lng":-80.59473,"zip":"44443","miles_from_dt":14.54},{"city":"Augusta","state_name":"Ohio","lat":40.69589,"lng":-81.02685,"zip":"44607","miles_from_dt":14.93},{"city":"Chester","state_name":"West Virginia","lat":40.59404,"lng":-80.55258,"zip":"26034","miles_from_dt":14.99},{"city":"Irondale","state_name":"Ohio","lat":40.53145,"lng":-80.74699,"zip":"43932","miles_from_dt":15.06},{"city":"Damascus","state_name":"Ohio","lat":40.90536,"lng":-80.95381,"zip":"44619","miles_from_dt":15.09},{"city":"Darlington","state_name":"Pennsylvania","lat":40.79433,"lng":-80.46289,"zip":"16115","miles_from_dt":15.45},{"city":"Petersburg","state_name":"Ohio","lat":40.9197,"lng":-80.53976,"zip":"44454","miles_from_dt":16.15},{"city":"Homeworth","state_name":"Ohio","lat":40.83385,"lng":-81.04685,"zip":"44634","miles_from_dt":16.54},{"city":"Beloit","state_name":"Ohio","lat":40.9121,"lng":-80.9879,"zip":"44609","miles_from_dt":16.7},{"city":"Stratton","state_name":"Ohio","lat":40.52343,"lng":-80.63025,"zip":"43961","miles_from_dt":16.87},{"city":"New Cumberland","state_name":"West Virginia","lat":40.53223,"lng":-80.5837,"zip":"26047","miles_from_dt":17.41},{"city":"Enon Valley","state_name":"Pennsylvania","lat":40.892,"lng":-80.47344,"zip":"16120","miles_from_dt":17.57},{"city":"Industry","state_name":"Pennsylvania","lat":40.6669,"lng":-80.43318,"zip":"15052","miles_from_dt":17.66},{"city":"Bergholz","state_name":"Ohio","lat":40.50867,"lng":-80.87349,"zip":"43908","miles_from_dt":17.83},{"city":"Empire","state_name":"Ohio","lat":40.51068,"lng":-80.62252,"zip":"43926","miles_from_dt":17.83},{"city":"Minerva","state_name":"Ohio","lat":40.74313,"lng":-81.09343,"zip":"44657","miles_from_dt":17.95},{"city":"Canfield","state_name":"Ohio","lat":41.01132,"lng":-80.77194,"zip":"44406","miles_from_dt":18.08},{"city":"New Middletown","state_name":"Ohio","lat":40.96591,"lng":-80.54963,"zip":"44442","miles_from_dt":18.29},{"city":"New Manchester","state_name":"West Virginia","lat":40.5211,"lng":-80.57022,"zip":"26056","miles_from_dt":18.43},{"city":"Sebring","state_name":"Ohio","lat":40.92045,"lng":-81.02375,"zip":"44672","miles_from_dt":18.5},{"city":"Toronto","state_name":"Ohio","lat":40.48695,"lng":-80.66928,"zip":"43964","miles_from_dt":18.64},{"city":"Youngstown","state_name":"Ohio","lat":40.99838,"lng":-80.60868,"zip":"44514","miles_from_dt":18.72},{"city":"Georgetown","state_name":"Pennsylvania","lat":40.55585,"lng":-80.48994,"zip":"15043","miles_from_dt":19.18},{"city":"Youngstown","state_name":"Ohio","lat":41.02467,"lng":-80.67596,"zip":"44513","miles_from_dt":19.38},{"city":"Youngstown","state_name":"Ohio","lat":41.0249,"lng":-80.66757,"zip":"44512","miles_from_dt":19.49},{"city":"Shippingport","state_name":"Pennsylvania","lat":40.62517,"lng":-80.4173,"zip":"15077","miles_from_dt":19.54},{"city":"Ellsworth","state_name":"Ohio","lat":41.02529,"lng":-80.85869,"zip":"44416","miles_from_dt":19.83},{"city":"Bessemer","state_name":"Pennsylvania","lat":40.96812,"lng":-80.50099,"zip":"16112","miles_from_dt":19.98},{"city":"New Galilee","state_name":"Pennsylvania","lat":40.87237,"lng":-80.3968,"zip":"16141","miles_from_dt":20.43},{"city":"Beaver","state_name":"Pennsylvania","lat":40.69933,"lng":-80.36464,"zip":"15009","miles_from_dt":20.6},{"city":"Beaver Falls","state_name":"Pennsylvania","lat":40.76829,"lng":-80.35873,"zip":"15010","miles_from_dt":20.65},{"city":"Wolf Run","state_name":"Ohio","lat":40.46564,"lng":-80.88599,"zip":"43970","miles_from_dt":20.84},{"city":"Hookstown","state_name":"Pennsylvania","lat":40.5617,"lng":-80.44038,"zip":"15050","miles_from_dt":20.87},{"city":"Carrollton","state_name":"Ohio","lat":40.5669,"lng":-81.0739,"zip":"44615","miles_from_dt":21.12},{"city":"North Benton","state_name":"Ohio","lat":40.97957,"lng":-81.02446,"zip":"44449","miles_from_dt":21.35},{"city":"Paris","state_name":"Ohio","lat":40.79613,"lng":-81.15619,"zip":"44669","miles_from_dt":21.47},{"city":"Berlin Center","state_name":"Ohio","lat":41.02457,"lng":-80.94658,"zip":"44401","miles_from_dt":21.54},{"city":"Richmond","state_name":"Ohio","lat":40.43623,"lng":-80.76853,"zip":"43944","miles_from_dt":21.65},{"city":"East Springfield","state_name":"Ohio","lat":40.44583,"lng":-80.86242,"zip":"43925","miles_from_dt":21.77},{"city":"Hillsville","state_name":"Pennsylvania","lat":41.00603,"lng":-80.50449,"zip":"16132","miles_from_dt":21.91},{"city":"Amsterdam","state_name":"Ohio","lat":40.47042,"lng":-80.95131,"zip":"43903","miles_from_dt":21.95},{"city":"Youngstown","state_name":"Ohio","lat":41.06927,"lng":-80.69617,"zip":"44511","miles_from_dt":22.24},{"city":"Struthers","state_name":"Ohio","lat":41.04793,"lng":-80.58973,"zip":"44471","miles_from_dt":22.25},{"city":"Malvern","state_name":"Ohio","lat":40.68691,"lng":-81.17639,"zip":"44644","miles_from_dt":22.73},{"city":"New Castle","state_name":"Pennsylvania","lat":40.96173,"lng":-80.41616,"zip":"16102","miles_from_dt":22.86},{"city":"Robertsville","state_name":"Ohio","lat":40.76305,"lng":-81.18788,"zip":"44670","miles_from_dt":22.92},{"city":"Alliance","state_name":"Ohio","lat":40.91978,"lng":-81.1278,"zip":"44601","miles_from_dt":22.95},{"city":"Youngstown","state_name":"Ohio","lat":41.07436,"lng":-80.65542,"zip":"44507","miles_from_dt":22.96},{"city":"Koppel","state_name":"Pennsylvania","lat":40.83425,"lng":-80.32369,"zip":"16136","miles_from_dt":23.18},{"city":"North Jackson","state_name":"Ohio","lat":41.08104,"lng":-80.86887,"zip":"44451","miles_from_dt":23.67},{"city":"Youngstown","state_name":"Ohio","lat":41.08365,"lng":-80.64253,"zip":"44502","miles_from_dt":23.74},{"city":"Maximo","state_name":"Ohio","lat":40.87603,"lng":-81.17413,"zip":"44650","miles_from_dt":23.81},{"city":"West Pittsburg","state_name":"Pennsylvania","lat":40.9283,"lng":-80.36235,"zip":"16160","miles_from_dt":23.83},{"city":"Wampum","state_name":"Pennsylvania","lat":40.88902,"lng":-80.33509,"zip":"16157","miles_from_dt":23.85},{"city":"Lowellville","state_name":"Ohio","lat":41.05775,"lng":-80.54241,"zip":"44436","miles_from_dt":23.91},{"city":"Monaca","state_name":"Pennsylvania","lat":40.66013,"lng":-80.31082,"zip":"15061","miles_from_dt":23.95},{"city":"Campbell","state_name":"Ohio","lat":41.07787,"lng":-80.59136,"zip":"44405","miles_from_dt":24.14},{"city":"Youngstown","state_name":"Ohio","lat":41.1029,"lng":-80.76201,"zip":"44515","miles_from_dt":24.38},{"city":"Youngstown","state_name":"Ohio","lat":41.09739,"lng":-80.6617,"zip":"44501","miles_from_dt":24.45},{"city":"Youngstown","state_name":"Ohio","lat":41.09356,"lng":-80.62583,"zip":"44506","miles_from_dt":24.62},{"city":"Youngstown","state_name":"Ohio","lat":41.09918,"lng":-80.64912,"zip":"44503","miles_from_dt":24.7},{"city":"Steubenville","state_name":"Ohio","lat":40.39763,"lng":-80.66278,"zip":"43952","miles_from_dt":24.74},{"city":"Weirton","state_name":"West Virginia","lat":40.42189,"lng":-80.56123,"zip":"26062","miles_from_dt":24.74},{"city":"Youngstown","state_name":"Ohio","lat":41.10986,"lng":-80.69655,"zip":"44509","miles_from_dt":25.02},{"city":"Deerfield","state_name":"Ohio","lat":41.0326,"lng":-81.05092,"zip":"44411","miles_from_dt":25.04},{"city":"Aliquippa","state_name":"Pennsylvania","lat":40.59161,"lng":-80.32078,"zip":"15001","miles_from_dt":25.12},{"city":"Youngstown","state_name":"Ohio","lat":41.10726,"lng":-80.64875,"zip":"44555","miles_from_dt":25.25},{"city":"Villa Maria","state_name":"Pennsylvania","lat":41.06771,"lng":-80.51073,"zip":"16155","miles_from_dt":25.3},{"city":"Edinburg","state_name":"Pennsylvania","lat":41.03744,"lng":-80.45212,"zip":"16116","miles_from_dt":25.3},{"city":"Youngstown","state_name":"Ohio","lat":41.12246,"lng":-80.67424,"zip":"44510","miles_from_dt":26.04},{"city":"New Brighton","state_name":"Pennsylvania","lat":40.75119,"lng":-80.25269,"zip":"15066","miles_from_dt":26.18},{"city":"Youngstown","state_name":"Ohio","lat":41.12327,"lng":-80.65363,"zip":"44504","miles_from_dt":26.28},{"city":"Limaville","state_name":"Ohio","lat":40.98455,"lng":-81.14858,"zip":"44640","miles_from_dt":26.37},{"city":"Bloomingdale","state_name":"Ohio","lat":40.37039,"lng":-80.8214,"zip":"43910","miles_from_dt":26.43},{"city":"Clinton","state_name":"Pennsylvania","lat":40.51043,"lng":-80.35662,"zip":"15026","miles_from_dt":26.53},{"city":"East Canton","state_name":"Ohio","lat":40.76706,"lng":-81.25814,"zip":"44730","miles_from_dt":26.61},{"city":"Lake Milton","state_name":"Ohio","lat":41.09648,"lng":-80.98156,"zip":"44429","miles_from_dt":26.79},{"city":"Louisville","state_name":"Ohio","lat":40.86528,"lng":-81.23977,"zip":"44641","miles_from_dt":26.81},{"city":"New Bedford","state_name":"Pennsylvania","lat":41.09355,"lng":-80.51078,"zip":"16140","miles_from_dt":26.86},{"city":"Waynesburg","state_name":"Ohio","lat":40.68458,"lng":-81.25757,"zip":"44688","miles_from_dt":26.95},{"city":"Youngstown","state_name":"Ohio","lat":41.12735,"lng":-80.61687,"zip":"44505","miles_from_dt":26.99},{"city":"Dellroy","state_name":"Ohio","lat":40.5811,"lng":-81.21592,"zip":"44620","miles_from_dt":27.03},{"city":"Steubenville","state_name":"Ohio","lat":40.35815,"lng":-80.70548,"zip":"43953","miles_from_dt":27.13},{"city":"New Castle","state_name":"Pennsylvania","lat":40.99992,"lng":-80.35011,"zip":"16107","miles_from_dt":27.2},{"city":"New Castle","state_name":"Pennsylvania","lat":40.99983,"lng":-80.35011,"zip":"16103","miles_from_dt":27.2},{"city":"Ellwood City","state_name":"Pennsylvania","lat":40.8743,"lng":-80.2568,"zip":"16117","miles_from_dt":27.32},{"city":"Hopedale","state_name":"Ohio","lat":40.36981,"lng":-80.90655,"zip":"43976","miles_from_dt":27.46},{"city":"Conway","state_name":"Pennsylvania","lat":40.66706,"lng":-80.23988,"zip":"15027","miles_from_dt":27.46},{"city":"Mineral Ridge","state_name":"Ohio","lat":41.1482,"lng":-80.78439,"zip":"44440","miles_from_dt":27.55},{"city":"Diamond","state_name":"Ohio","lat":41.09671,"lng":-81.0229,"zip":"44412","miles_from_dt":27.84},{"city":"Rochester","state_name":"Pennsylvania","lat":40.72837,"lng":-80.21937,"zip":"15074","miles_from_dt":27.97},{"city":"McDonald","state_name":"Ohio","lat":41.15536,"lng":-80.73,"zip":"44437","miles_from_dt":28.01},{"city":"New Rumley","state_name":"Ohio","lat":40.39926,"lng":-81.03393,"zip":"43984","miles_from_dt":28.38},{"city":"Jewett","state_name":"Ohio","lat":40.3784,"lng":-80.99036,"zip":"43986","miles_from_dt":28.54},{"city":"New Castle","state_name":"Pennsylvania","lat":40.98826,"lng":-80.29541,"zip":"16108","miles_from_dt":29.01},{"city":"Curllsville","state_name":"Pennsylvania","lat":40.98826,"lng":-80.29541,"zip":"16221","miles_from_dt":29.01},{"city":"Freedom","state_name":"Pennsylvania","lat":40.68786,"lng":-80.20411,"zip":"15042","miles_from_dt":29.05},{"city":"Pulaski","state_name":"Pennsylvania","lat":41.10528,"lng":-80.45434,"zip":"16143","miles_from_dt":29.05},{"city":"New Castle","state_name":"Pennsylvania","lat":40.98776,"lng":-80.28814,"zip":"16101","miles_from_dt":29.31},{"city":"Fombell","state_name":"Pennsylvania","lat":40.82389,"lng":-80.19844,"zip":"16123","miles_from_dt":29.45},{"city":"Girard","state_name":"Ohio","lat":41.17384,"lng":-80.67726,"zip":"44420","miles_from_dt":29.52},{"city":"Colliers","state_name":"West Virginia","lat":40.3482,"lng":-80.55522,"zip":"26035","miles_from_dt":29.57},{"city":"Atwater","state_name":"Ohio","lat":41.02741,"lng":-81.18354,"zip":"44201","miles_from_dt":29.65},{"city":"South Heights","state_name":"Pennsylvania","lat":40.57471,"lng":-80.23614,"zip":"15081","miles_from_dt":29.65},{"city":"Burgettstown","state_name":"Pennsylvania","lat":40.39373,"lng":-80.43583,"zip":"15021","miles_from_dt":29.65},{"city":"Magnolia","state_name":"Ohio","lat":40.64304,"lng":-81.2998,"zip":"44643","miles_from_dt":29.72},{"city":"Follansbee","state_name":"West Virginia","lat":40.3344,"lng":-80.58494,"zip":"26037","miles_from_dt":29.97}],"targetCityZipCode":"44432","targetCityState":"Ohio"},"__N_SSG":true}