{"pageProps":{"stateName":"Ohio","cityName":"mcarthur","nearbyCities":[{"city":"Zaleski","state_name":"Ohio","lat":39.28811,"lng":-82.39604,"zip":"45698","miles_from_dt":4.42},{"city":"Creola","state_name":"Ohio","lat":39.35905,"lng":-82.49522,"zip":"45622","miles_from_dt":5.77},{"city":"Hamden","state_name":"Ohio","lat":39.17891,"lng":-82.49037,"zip":"45634","miles_from_dt":6.78},{"city":"New Plymouth","state_name":"Ohio","lat":39.36671,"lng":-82.37774,"zip":"45654","miles_from_dt":8.18},{"city":"Wilkesville","state_name":"Ohio","lat":39.1529,"lng":-82.36334,"zip":"45695","miles_from_dt":10.49},{"city":"South Bloomingville","state_name":"Ohio","lat":39.39211,"lng":-82.61433,"zip":"43152","miles_from_dt":10.84},{"city":"Wellston","state_name":"Ohio","lat":39.11582,"lng":-82.5426,"zip":"45692","miles_from_dt":11.64},{"city":"Ray","state_name":"Ohio","lat":39.20549,"lng":-82.67579,"zip":"45672","miles_from_dt":11.74},{"city":"New Marshfield","state_name":"Ohio","lat":39.31931,"lng":-82.26247,"zip":"45766","miles_from_dt":11.87},{"city":"Carbondale","state_name":"Ohio","lat":39.37932,"lng":-82.27099,"zip":"45717","miles_from_dt":13.12},{"city":"Coalton","state_name":"Ohio","lat":39.11138,"lng":-82.60996,"zip":"45621","miles_from_dt":13.45},{"city":"Union Furnace","state_name":"Ohio","lat":39.44968,"lng":-82.35546,"zip":"43158","miles_from_dt":13.6},{"city":"Londonderry","state_name":"Ohio","lat":39.29597,"lng":-82.73803,"zip":"45647","miles_from_dt":14.05},{"city":"Albany","state_name":"Ohio","lat":39.19763,"lng":-82.22574,"zip":"45710","miles_from_dt":14.54},{"city":"Haydenville","state_name":"Ohio","lat":39.47559,"lng":-82.32183,"zip":"43127","miles_from_dt":16.04},{"city":"Logan","state_name":"Ohio","lat":39.52225,"lng":-82.41335,"zip":"43138","miles_from_dt":17.28},{"city":"Nelsonville","state_name":"Ohio","lat":39.45116,"lng":-82.24336,"zip":"45764","miles_from_dt":17.37},{"city":"Laurelville","state_name":"Ohio","lat":39.4711,"lng":-82.69736,"zip":"43135","miles_from_dt":17.86},{"city":"Richmond Dale","state_name":"Ohio","lat":39.20399,"lng":-82.81148,"zip":"45673","miles_from_dt":18.63},{"city":"Rockbridge","state_name":"Ohio","lat":39.53742,"lng":-82.57188,"zip":"43149","miles_from_dt":18.69},{"city":"Langsville","state_name":"Ohio","lat":39.06648,"lng":-82.2527,"zip":"45741","miles_from_dt":18.85},{"city":"Vinton","state_name":"Ohio","lat":39.00901,"lng":-82.36843,"zip":"45686","miles_from_dt":19.36},{"city":"Adelphi","state_name":"Ohio","lat":39.46466,"lng":-82.74563,"zip":"43101","miles_from_dt":19.37},{"city":"The Plains","state_name":"Ohio","lat":39.36972,"lng":-82.13112,"zip":"45780","miles_from_dt":19.62},{"city":"Jackson","state_name":"Ohio","lat":39.02345,"lng":-82.65032,"zip":"45640","miles_from_dt":19.79},{"city":"Carbon Hill","state_name":"Ohio","lat":39.50212,"lng":-82.24257,"zip":"43111","miles_from_dt":19.99},{"city":"Buchtel","state_name":"Ohio","lat":39.46295,"lng":-82.18401,"zip":"45716","miles_from_dt":20.28},{"city":"Chauncey","state_name":"Ohio","lat":39.39951,"lng":-82.1285,"zip":"45719","miles_from_dt":20.51},{"city":"Hallsville","state_name":"Ohio","lat":39.45557,"lng":-82.78811,"zip":"45633","miles_from_dt":20.73},{"city":"Athens","state_name":"Ohio","lat":39.31205,"lng":-82.08079,"zip":"45701","miles_from_dt":21.38},{"city":"Rutland","state_name":"Ohio","lat":39.0876,"lng":-82.15596,"zip":"45775","miles_from_dt":21.62},{"city":"Millfield","state_name":"Ohio","lat":39.42642,"lng":-82.0964,"zip":"45761","miles_from_dt":22.86},{"city":"Kingston","state_name":"Ohio","lat":39.45245,"lng":-82.84176,"zip":"45644","miles_from_dt":22.99},{"city":"Murray City","state_name":"Ohio","lat":39.52797,"lng":-82.19155,"zip":"43144","miles_from_dt":23.11},{"city":"Thurman","state_name":"Ohio","lat":38.9333,"lng":-82.4527,"zip":"45685","miles_from_dt":23.72},{"city":"Sugar Grove","state_name":"Ohio","lat":39.6251,"lng":-82.52618,"zip":"43155","miles_from_dt":24.18},{"city":"Tarlton","state_name":"Ohio","lat":39.55389,"lng":-82.77621,"zip":"43156","miles_from_dt":24.94},{"city":"New Straitsville","state_name":"Ohio","lat":39.59492,"lng":-82.2501,"zip":"43766","miles_from_dt":25.09},{"city":"Shade","state_name":"Ohio","lat":39.18732,"lng":-82.0228,"zip":"45776","miles_from_dt":25.14},{"city":"Jacksonville","state_name":"Ohio","lat":39.47709,"lng":-82.08023,"zip":"45740","miles_from_dt":25.35},{"city":"Trimble","state_name":"Ohio","lat":39.48624,"lng":-82.08076,"zip":"45782","miles_from_dt":25.67},{"city":"Chillicothe","state_name":"Ohio","lat":39.30996,"lng":-82.9555,"zip":"45601","miles_from_dt":25.75},{"city":"Pomeroy","state_name":"Ohio","lat":39.1062,"lng":-82.04578,"zip":"45769","miles_from_dt":25.97},{"city":"Beaver","state_name":"Ohio","lat":39.0318,"lng":-82.84885,"zip":"45613","miles_from_dt":26.15},{"city":"Bidwell","state_name":"Ohio","lat":38.92858,"lng":-82.27819,"zip":"45614","miles_from_dt":26.28},{"city":"Middleport","state_name":"Ohio","lat":39.01395,"lng":-82.12244,"zip":"45760","miles_from_dt":26.29},{"city":"Shawnee","state_name":"Ohio","lat":39.62129,"lng":-82.2185,"zip":"43782","miles_from_dt":27.51},{"city":"Glouster","state_name":"Ohio","lat":39.51802,"lng":-82.06705,"zip":"45732","miles_from_dt":27.55},{"city":"Rio Grande","state_name":"Ohio","lat":38.87798,"lng":-82.38017,"zip":"45674","miles_from_dt":27.99},{"city":"Oak Hill","state_name":"Ohio","lat":38.87565,"lng":-82.59143,"zip":"45656","miles_from_dt":28.34},{"city":"Cheshire","state_name":"Ohio","lat":38.95564,"lng":-82.14052,"zip":"45620","miles_from_dt":28.59},{"city":"Bremen","state_name":"Ohio","lat":39.69254,"lng":-82.40993,"zip":"43107","miles_from_dt":28.91},{"city":"Stoutsville","state_name":"Ohio","lat":39.60327,"lng":-82.82622,"zip":"43154","miles_from_dt":29.27},{"city":"Amanda","state_name":"Ohio","lat":39.64076,"lng":-82.76118,"zip":"43102","miles_from_dt":29.36},{"city":"Guysville","state_name":"Ohio","lat":39.25183,"lng":-81.9229,"zip":"45735","miles_from_dt":29.77}],"targetCityZipCode":"45651","targetCityState":"Ohio"},"__N_SSG":true}