{"pageProps":{"stateName":"Ohio","cityName":"stout","nearbyCities":[{"city":"Blue Creek","state_name":"Ohio","lat":38.76018,"lng":-83.30864,"zip":"45616","miles_from_dt":6.08},{"city":"Lynx","state_name":"Ohio","lat":38.74415,"lng":-83.42099,"zip":"45650","miles_from_dt":9.07},{"city":"Friendship","state_name":"Ohio","lat":38.69758,"lng":-83.09275,"zip":"45630","miles_from_dt":10.13},{"city":"West Portsmouth","state_name":"Ohio","lat":38.74507,"lng":-83.11198,"zip":"45663","miles_from_dt":10.17},{"city":"Quincy","state_name":"Kentucky","lat":38.63464,"lng":-83.09328,"zip":"41166","miles_from_dt":10.37},{"city":"Garrison","state_name":"Kentucky","lat":38.54381,"lng":-83.13357,"zip":"41141","miles_from_dt":11.98},{"city":"Vanceburg","state_name":"Kentucky","lat":38.52483,"lng":-83.38988,"zip":"41179","miles_from_dt":12.03},{"city":"Otway","state_name":"Ohio","lat":38.85166,"lng":-83.21011,"zip":"45657","miles_from_dt":12.69},{"city":"South Portsmouth","state_name":"Kentucky","lat":38.69841,"lng":-83.0139,"zip":"41174","miles_from_dt":14.36},{"city":"McDermott","state_name":"Ohio","lat":38.82911,"lng":-83.08018,"zip":"45652","miles_from_dt":15.05},{"city":"South Shore","state_name":"Kentucky","lat":38.64574,"lng":-82.97791,"zip":"41175","miles_from_dt":16.35},{"city":"West Union","state_name":"Ohio","lat":38.80921,"lng":-83.53406,"zip":"45693","miles_from_dt":16.63},{"city":"Tollesboro","state_name":"Kentucky","lat":38.54493,"lng":-83.56175,"zip":"41189","miles_from_dt":17.81},{"city":"Manchester","state_name":"Ohio","lat":38.70534,"lng":-83.6142,"zip":"45144","miles_from_dt":18.3},{"city":"Bentonville","state_name":"Ohio","lat":38.75015,"lng":-83.61235,"zip":"45105","miles_from_dt":18.8},{"city":"Carter","state_name":"Kentucky","lat":38.4274,"lng":-83.11977,"zip":"41128","miles_from_dt":19.13},{"city":"Rarden","state_name":"Ohio","lat":38.97339,"lng":-83.23775,"zip":"45671","miles_from_dt":20.66},{"city":"Portsmouth","state_name":"Ohio","lat":38.78938,"lng":-82.92114,"zip":"45662","miles_from_dt":20.82},{"city":"Lucasville","state_name":"Ohio","lat":38.87414,"lng":-82.97045,"zip":"45699","miles_from_dt":21.53},{"city":"Emerson","state_name":"Kentucky","lat":38.36026,"lng":-83.28796,"zip":"41135","miles_from_dt":21.75},{"city":"Peebles","state_name":"Ohio","lat":38.98626,"lng":-83.358,"zip":"45660","miles_from_dt":21.87},{"city":"Greenup","state_name":"Kentucky","lat":38.53461,"lng":-82.91208,"zip":"41144","miles_from_dt":22.05},{"city":"Lucasville","state_name":"Ohio","lat":38.92161,"lng":-83.01393,"zip":"45648","miles_from_dt":22.17},{"city":"Cherry Fork","state_name":"Ohio","lat":38.88502,"lng":-83.61623,"zip":"45618","miles_from_dt":23.3},{"city":"Wakefield","state_name":"Ohio","lat":38.96828,"lng":-83.02155,"zip":"45687","miles_from_dt":24.48},{"city":"Wallingford","state_name":"Kentucky","lat":38.39441,"lng":-83.56269,"zip":"41093","miles_from_dt":24.78},{"city":"Decatur","state_name":"Ohio","lat":38.80818,"lng":-83.70728,"zip":"45115","miles_from_dt":24.94},{"city":"Aberdeen","state_name":"Ohio","lat":38.69164,"lng":-83.74024,"zip":"45101","miles_from_dt":25.02},{"city":"Franklin Furnace","state_name":"Ohio","lat":38.65221,"lng":-82.81051,"zip":"45629","miles_from_dt":25.33},{"city":"Haverhill","state_name":"Ohio","lat":38.58416,"lng":-82.81401,"zip":"45636","miles_from_dt":25.88},{"city":"Seaman","state_name":"Ohio","lat":38.97634,"lng":-83.56788,"zip":"45679","miles_from_dt":25.99},{"city":"Piketon","state_name":"Ohio","lat":39.04096,"lng":-83.10479,"zip":"45661","miles_from_dt":26.89},{"city":"Wheelersburg","state_name":"Ohio","lat":38.74807,"lng":-82.78345,"zip":"45694","miles_from_dt":27.19},{"city":"Olive Hill","state_name":"Kentucky","lat":38.28914,"lng":-83.16231,"zip":"41164","miles_from_dt":27.37},{"city":"Maysville","state_name":"Kentucky","lat":38.59913,"lng":-83.77576,"zip":"41056","miles_from_dt":27.44},{"city":"Winchester","state_name":"Ohio","lat":38.9352,"lng":-83.66525,"zip":"45697","miles_from_dt":27.53},{"city":"Latham","state_name":"Ohio","lat":39.07686,"lng":-83.31627,"zip":"45646","miles_from_dt":27.77},{"city":"Sinking Spring","state_name":"Ohio","lat":39.07447,"lng":-83.38688,"zip":"45172","miles_from_dt":28.14},{"city":"Jasper","state_name":"Ohio","lat":39.04692,"lng":-83.05408,"zip":"45642","miles_from_dt":28.32},{"city":"Grayson","state_name":"Kentucky","lat":38.33916,"lng":-82.97704,"zip":"41143","miles_from_dt":28.35},{"city":"Minford","state_name":"Ohio","lat":38.88976,"lng":-82.82306,"zip":"45653","miles_from_dt":28.66},{"city":"Soldier","state_name":"Kentucky","lat":38.26011,"lng":-83.29949,"zip":"41173","miles_from_dt":28.67},{"city":"Argillite","state_name":"Kentucky","lat":38.44911,"lng":-82.83032,"zip":"41121","miles_from_dt":28.83},{"city":"Washington","state_name":"Kentucky","lat":38.61585,"lng":-83.80616,"zip":"41096","miles_from_dt":28.87},{"city":"Ripley","state_name":"Ohio","lat":38.77234,"lng":-83.79943,"zip":"45167","miles_from_dt":28.96},{"city":"Russellville","state_name":"Ohio","lat":38.85266,"lng":-83.76783,"zip":"45168","miles_from_dt":29.15},{"city":"Scioto Furnace","state_name":"Ohio","lat":38.79555,"lng":-82.75511,"zip":"45677","miles_from_dt":29.43},{"city":"Stockdale","state_name":"Ohio","lat":38.95295,"lng":-82.86252,"zip":"45683","miles_from_dt":29.48},{"city":"Grahn","state_name":"Kentucky","lat":38.27774,"lng":-83.07308,"zip":"41142","miles_from_dt":29.6}],"targetCityZipCode":"45684","targetCityState":"Ohio"},"__N_SSG":true}