{"pageProps":{"stateName":"Ohio","cityName":"wilmot","nearbyCities":[{"city":"Dundee","state_name":"Ohio","lat":40.61249,"lng":-81.66157,"zip":"44624","miles_from_dt":2.64},{"city":"Winesburg","state_name":"Ohio","lat":40.61353,"lng":-81.69391,"zip":"44690","miles_from_dt":3.06},{"city":"Beach City","state_name":"Ohio","lat":40.65241,"lng":-81.59714,"zip":"44608","miles_from_dt":3.42},{"city":"Mount Eaton","state_name":"Ohio","lat":40.6948,"lng":-81.70191,"zip":"44659","miles_from_dt":3.69},{"city":"Brewster","state_name":"Ohio","lat":40.71338,"lng":-81.60026,"zip":"44613","miles_from_dt":5.41},{"city":"Mount Hope","state_name":"Ohio","lat":40.62382,"lng":-81.77487,"zip":"44660","miles_from_dt":6.21},{"city":"Navarre","state_name":"Ohio","lat":40.71036,"lng":-81.55468,"zip":"44662","miles_from_dt":6.98},{"city":"Strasburg","state_name":"Ohio","lat":40.60174,"lng":-81.54512,"zip":"44680","miles_from_dt":7.02},{"city":"Kidron","state_name":"Ohio","lat":40.74234,"lng":-81.74703,"zip":"44636","miles_from_dt":7.74},{"city":"Walnut Creek","state_name":"Ohio","lat":40.53941,"lng":-81.71189,"zip":"44687","miles_from_dt":8.11},{"city":"Dalton","state_name":"Ohio","lat":40.7722,"lng":-81.68925,"zip":"44618","miles_from_dt":8.5},{"city":"Apple Creek","state_name":"Ohio","lat":40.73313,"lng":-81.79625,"zip":"44606","miles_from_dt":9.06},{"city":"Fredericksburg","state_name":"Ohio","lat":40.66665,"lng":-81.83393,"zip":"44627","miles_from_dt":9.1},{"city":"Berlin","state_name":"Ohio","lat":40.56078,"lng":-81.80139,"zip":"44610","miles_from_dt":9.6},{"city":"Sugarcreek","state_name":"Ohio","lat":40.50018,"lng":-81.6625,"zip":"44681","miles_from_dt":10.39},{"city":"Massillon","state_name":"Ohio","lat":40.75416,"lng":-81.514,"zip":"44648","miles_from_dt":10.56},{"city":"Bolivar","state_name":"Ohio","lat":40.63488,"lng":-81.46098,"zip":"44612","miles_from_dt":10.63},{"city":"Massillon","state_name":"Ohio","lat":40.79537,"lng":-81.56575,"zip":"44647","miles_from_dt":11.19},{"city":"Dover","state_name":"Ohio","lat":40.54883,"lng":-81.48375,"zip":"44622","miles_from_dt":11.72},{"city":"Charm","state_name":"Ohio","lat":40.50603,"lng":-81.78447,"zip":"44617","miles_from_dt":11.88},{"city":"Canton","state_name":"Ohio","lat":40.7297,"lng":-81.45083,"zip":"44701","miles_from_dt":12.36},{"city":"North Lawrence","state_name":"Ohio","lat":40.84232,"lng":-81.63202,"zip":"44666","miles_from_dt":13.32},{"city":"Millersburg","state_name":"Ohio","lat":40.53861,"lng":-81.87162,"zip":"44654","miles_from_dt":13.46},{"city":"Zoar","state_name":"Ohio","lat":40.60807,"lng":-81.41175,"zip":"44697","miles_from_dt":13.49},{"city":"Orrville","state_name":"Ohio","lat":40.83386,"lng":-81.76495,"zip":"44667","miles_from_dt":13.74},{"city":"Massillon","state_name":"Ohio","lat":40.81055,"lng":-81.49835,"zip":"44646","miles_from_dt":13.98},{"city":"Baltic","state_name":"Ohio","lat":40.4545,"lng":-81.73704,"zip":"43804","miles_from_dt":14.1},{"city":"Holmesville","state_name":"Ohio","lat":40.63182,"lng":-81.93601,"zip":"44633","miles_from_dt":14.46},{"city":"Canton","state_name":"Ohio","lat":40.75382,"lng":-81.4198,"zip":"44706","miles_from_dt":14.58},{"city":"East Sparta","state_name":"Ohio","lat":40.68994,"lng":-81.38404,"zip":"44626","miles_from_dt":14.86},{"city":"Sandyville","state_name":"Ohio","lat":40.64511,"lng":-81.36565,"zip":"44671","miles_from_dt":15.58},{"city":"Canton","state_name":"Ohio","lat":40.78962,"lng":-81.42659,"zip":"44710","miles_from_dt":15.64},{"city":"Canton","state_name":"Ohio","lat":40.791,"lng":-81.42362,"zip":"44750","miles_from_dt":15.83},{"city":"Canton","state_name":"Ohio","lat":40.81708,"lng":-81.43486,"zip":"44708","miles_from_dt":16.55},{"city":"Somerdale","state_name":"Ohio","lat":40.56478,"lng":-81.36408,"zip":"44678","miles_from_dt":16.76},{"city":"Canal Fulton","state_name":"Ohio","lat":40.88689,"lng":-81.58747,"zip":"44614","miles_from_dt":16.76},{"city":"New Philadelphia","state_name":"Ohio","lat":40.46066,"lng":-81.44961,"zip":"44663","miles_from_dt":17.23},{"city":"Stone Creek","state_name":"Ohio","lat":40.40511,"lng":-81.60025,"zip":"43840","miles_from_dt":17.26},{"city":"Canton","state_name":"Ohio","lat":40.85122,"lng":-81.44806,"zip":"44718","miles_from_dt":17.82},{"city":"Canton","state_name":"Ohio","lat":40.84795,"lng":-81.44136,"zip":"44735","miles_from_dt":17.87},{"city":"Marshallville","state_name":"Ohio","lat":40.90796,"lng":-81.71845,"zip":"44645","miles_from_dt":18},{"city":"Canton","state_name":"Ohio","lat":40.79992,"lng":-81.37665,"zip":"44702","miles_from_dt":18.18},{"city":"Canton","state_name":"Ohio","lat":40.76031,"lng":-81.34715,"zip":"44707","miles_from_dt":18.18},{"city":"Mineral City","state_name":"Ohio","lat":40.57027,"lng":-81.33104,"zip":"44656","miles_from_dt":18.27},{"city":"Canton","state_name":"Ohio","lat":40.81093,"lng":-81.38134,"zip":"44703","miles_from_dt":18.42},{"city":"Smithville","state_name":"Ohio","lat":40.87254,"lng":-81.85983,"zip":"44677","miles_from_dt":18.49},{"city":"Canton","state_name":"Ohio","lat":40.81186,"lng":-81.37337,"zip":"44799","miles_from_dt":18.8},{"city":"Canton","state_name":"Ohio","lat":40.83022,"lng":-81.38645,"zip":"44711","miles_from_dt":19.04},{"city":"Magnolia","state_name":"Ohio","lat":40.64304,"lng":-81.2998,"zip":"44643","miles_from_dt":19.05},{"city":"Canton","state_name":"Ohio","lat":40.84218,"lng":-81.38634,"zip":"44709","miles_from_dt":19.6},{"city":"Canton","state_name":"Ohio","lat":40.80001,"lng":-81.34329,"zip":"44704","miles_from_dt":19.65},{"city":"Shreve","state_name":"Ohio","lat":40.6891,"lng":-82.03266,"zip":"44676","miles_from_dt":19.65},{"city":"Wooster","state_name":"Ohio","lat":40.80714,"lng":-81.97971,"zip":"44691","miles_from_dt":19.86},{"city":"Clinton","state_name":"Ohio","lat":40.93848,"lng":-81.58397,"zip":"44216","miles_from_dt":20.28},{"city":"Bakersville","state_name":"Ohio","lat":40.35531,"lng":-81.64397,"zip":"43803","miles_from_dt":20.4},{"city":"Canton","state_name":"Ohio","lat":40.83606,"lng":-81.35905,"zip":"44714","miles_from_dt":20.41},{"city":"Fresno","state_name":"Ohio","lat":40.36407,"lng":-81.76116,"zip":"43824","miles_from_dt":20.45},{"city":"Canton","state_name":"Ohio","lat":40.89443,"lng":-81.42211,"zip":"44767","miles_from_dt":21.01},{"city":"North Canton","state_name":"Ohio","lat":40.90112,"lng":-81.43259,"zip":"44720","miles_from_dt":21.06},{"city":"Midvale","state_name":"Ohio","lat":40.43711,"lng":-81.37105,"zip":"44653","miles_from_dt":21.26},{"city":"Waynesburg","state_name":"Ohio","lat":40.68458,"lng":-81.25757,"zip":"44688","miles_from_dt":21.38},{"city":"Canton","state_name":"Ohio","lat":40.83347,"lng":-81.3327,"zip":"44705","miles_from_dt":21.4},{"city":"Doylestown","state_name":"Ohio","lat":40.96237,"lng":-81.69064,"zip":"44230","miles_from_dt":21.56},{"city":"Sterling","state_name":"Ohio","lat":40.93667,"lng":-81.83502,"zip":"44276","miles_from_dt":21.72},{"city":"Green","state_name":"Ohio","lat":40.93254,"lng":-81.46354,"zip":"44232","miles_from_dt":22.06},{"city":"Tuscarawas","state_name":"Ohio","lat":40.39765,"lng":-81.40323,"zip":"44682","miles_from_dt":22.15},{"city":"Big Prairie","state_name":"Ohio","lat":40.60785,"lng":-82.08141,"zip":"44611","miles_from_dt":22.24},{"city":"Rittman","state_name":"Ohio","lat":40.96317,"lng":-81.77696,"zip":"44270","miles_from_dt":22.39},{"city":"East Canton","state_name":"Ohio","lat":40.76706,"lng":-81.25814,"zip":"44730","miles_from_dt":22.68},{"city":"Killbuck","state_name":"Ohio","lat":40.47996,"lng":-82.03347,"zip":"44637","miles_from_dt":22.82},{"city":"Greentown","state_name":"Ohio","lat":40.92695,"lng":-81.40408,"zip":"44630","miles_from_dt":23.38},{"city":"Gnadenhutten","state_name":"Ohio","lat":40.35107,"lng":-81.44553,"zip":"44629","miles_from_dt":23.61},{"city":"Keene","state_name":"Ohio","lat":40.34169,"lng":-81.8657,"zip":"43828","miles_from_dt":23.87},{"city":"Dellroy","state_name":"Ohio","lat":40.5811,"lng":-81.21592,"zip":"44620","miles_from_dt":23.95},{"city":"Sherrodsville","state_name":"Ohio","lat":40.50245,"lng":-81.24975,"zip":"44675","miles_from_dt":23.99},{"city":"Akron","state_name":"Ohio","lat":40.98402,"lng":-81.53169,"zip":"44319","miles_from_dt":23.99},{"city":"Blissfield","state_name":"Ohio","lat":40.39177,"lng":-81.97223,"zip":"43805","miles_from_dt":24.21},{"city":"Nashville","state_name":"Ohio","lat":40.5874,"lng":-82.11662,"zip":"44661","miles_from_dt":24.29},{"city":"Canton","state_name":"Ohio","lat":40.89443,"lng":-81.32694,"zip":"44721","miles_from_dt":24.33},{"city":"Middlebranch","state_name":"Ohio","lat":40.90088,"lng":-81.33015,"zip":"44652","miles_from_dt":24.52},{"city":"Uniontown","state_name":"Ohio","lat":40.9596,"lng":-81.42361,"zip":"44685","miles_from_dt":24.71},{"city":"Creston","state_name":"Ohio","lat":40.95561,"lng":-81.9133,"zip":"44217","miles_from_dt":24.82},{"city":"Lakeville","state_name":"Ohio","lat":40.6502,"lng":-82.13521,"zip":"44638","miles_from_dt":24.86},{"city":"Dennison","state_name":"Ohio","lat":40.42878,"lng":-81.28955,"zip":"44621","miles_from_dt":24.88},{"city":"Barberton","state_name":"Ohio","lat":41.02013,"lng":-81.62896,"zip":"44203","miles_from_dt":25.55},{"city":"Malvern","state_name":"Ohio","lat":40.68691,"lng":-81.17639,"zip":"44644","miles_from_dt":25.64},{"city":"Robertsville","state_name":"Ohio","lat":40.76305,"lng":-81.18788,"zip":"44670","miles_from_dt":26.08},{"city":"Port Washington","state_name":"Ohio","lat":40.29773,"lng":-81.47846,"zip":"43837","miles_from_dt":26.21},{"city":"Wadsworth","state_name":"Ohio","lat":41.0276,"lng":-81.72765,"zip":"44282","miles_from_dt":26.23},{"city":"Newcomerstown","state_name":"Ohio","lat":40.27333,"lng":-81.57931,"zip":"43832","miles_from_dt":26.4},{"city":"Louisville","state_name":"Ohio","lat":40.86528,"lng":-81.23977,"zip":"44641","miles_from_dt":26.65},{"city":"Glenmont","state_name":"Ohio","lat":40.538,"lng":-82.1551,"zip":"44628","miles_from_dt":27.07},{"city":"Uhrichsville","state_name":"Ohio","lat":40.35505,"lng":-81.3218,"zip":"44683","miles_from_dt":27.16},{"city":"Burbank","state_name":"Ohio","lat":40.95081,"lng":-81.99935,"zip":"44214","miles_from_dt":27.23},{"city":"West Lafayette","state_name":"Ohio","lat":40.25692,"lng":-81.73144,"zip":"43845","miles_from_dt":27.42},{"city":"Akron","state_name":"Ohio","lat":41.04048,"lng":-81.55838,"zip":"44314","miles_from_dt":27.44},{"city":"Leesville","state_name":"Ohio","lat":40.45166,"lng":-81.20963,"zip":"44639","miles_from_dt":27.49},{"city":"Akron","state_name":"Ohio","lat":41.01462,"lng":-81.4412,"zip":"44312","miles_from_dt":27.65},{"city":"Akron","state_name":"Ohio","lat":41.04398,"lng":-81.52449,"zip":"44301","miles_from_dt":28.08},{"city":"Akron","state_name":"Ohio","lat":41.04507,"lng":-81.5262,"zip":"44317","miles_from_dt":28.13},{"city":"Lakemore","state_name":"Ohio","lat":41.02159,"lng":-81.43331,"zip":"44250","miles_from_dt":28.26},{"city":"Akron","state_name":"Ohio","lat":41.03773,"lng":-81.48309,"zip":"44315","miles_from_dt":28.31},{"city":"Paris","state_name":"Ohio","lat":40.79613,"lng":-81.15619,"zip":"44669","miles_from_dt":28.39},{"city":"Akron","state_name":"Ohio","lat":41.03927,"lng":-81.48316,"zip":"44306","miles_from_dt":28.4},{"city":"Wadsworth","state_name":"Ohio","lat":41.05851,"lng":-81.73854,"zip":"44281","miles_from_dt":28.42},{"city":"Seville","state_name":"Ohio","lat":41.0291,"lng":-81.87739,"zip":"44273","miles_from_dt":28.44},{"city":"Coshocton","state_name":"Ohio","lat":40.27268,"lng":-81.88347,"zip":"43812","miles_from_dt":28.57},{"city":"Hartville","state_name":"Ohio","lat":40.96401,"lng":-81.3048,"zip":"44632","miles_from_dt":28.61},{"city":"Brinkhaven","state_name":"Ohio","lat":40.4591,"lng":-82.14554,"zip":"43006","miles_from_dt":28.67},{"city":"Jeromesville","state_name":"Ohio","lat":40.79231,"lng":-82.17973,"zip":"44840","miles_from_dt":28.88},{"city":"Stillwater","state_name":"Ohio","lat":40.32091,"lng":-81.3095,"zip":"44679","miles_from_dt":29.37},{"city":"Akron","state_name":"Ohio","lat":41.06427,"lng":-81.52047,"zip":"44311","miles_from_dt":29.49},{"city":"Bowerston","state_name":"Ohio","lat":40.43868,"lng":-81.1754,"zip":"44695","miles_from_dt":29.5},{"city":"Westfield Center","state_name":"Ohio","lat":41.02814,"lng":-81.92764,"zip":"44251","miles_from_dt":29.53},{"city":"Akron","state_name":"Ohio","lat":41.06564,"lng":-81.52082,"zip":"44396","miles_from_dt":29.57},{"city":"Loudonville","state_name":"Ohio","lat":40.64903,"lng":-82.22498,"zip":"44842","miles_from_dt":29.58},{"city":"Akron","state_name":"Ohio","lat":41.07049,"lng":-81.546,"zip":"44307","miles_from_dt":29.6},{"city":"Akron","state_name":"Ohio","lat":41.07818,"lng":-81.58379,"zip":"44320","miles_from_dt":29.78},{"city":"Maximo","state_name":"Ohio","lat":40.87603,"lng":-81.17413,"zip":"44650","miles_from_dt":29.95}],"targetCityZipCode":"44689","targetCityState":"Ohio"},"__N_SSG":true}