{"pageProps":{"stateName":"Georgia","cityName":"barwick","nearbyCities":[{"city":"Dixie","state_name":"Georgia","lat":30.82051,"lng":-83.68809,"zip":"31629","miles_from_dt":4.58},{"city":"Pavo","state_name":"Georgia","lat":30.9754,"lng":-83.70931,"zip":"31778","miles_from_dt":6.63},{"city":"Boston","state_name":"Georgia","lat":30.77609,"lng":-83.80208,"zip":"31626","miles_from_dt":8.56},{"city":"Thomasville","state_name":"Georgia","lat":30.87291,"lng":-83.89945,"zip":"31757","miles_from_dt":10.5},{"city":"Quitman","state_name":"Georgia","lat":30.77061,"lng":-83.55859,"zip":"31643","miles_from_dt":12.33},{"city":"Morven","state_name":"Georgia","lat":30.90627,"lng":-83.51589,"zip":"31638","miles_from_dt":12.44},{"city":"Coolidge","state_name":"Georgia","lat":31.01133,"lng":-83.87502,"zip":"31738","miles_from_dt":12.79},{"city":"Berlin","state_name":"Georgia","lat":31.05492,"lng":-83.61559,"zip":"31722","miles_from_dt":13.64},{"city":"Barney","state_name":"Georgia","lat":30.9918,"lng":-83.52556,"zip":"31625","miles_from_dt":14.03},{"city":"Thomasville","state_name":"Georgia","lat":30.83761,"lng":-83.97801,"zip":"31799","miles_from_dt":15.43},{"city":"Thomasville","state_name":"Georgia","lat":30.83761,"lng":-83.97854,"zip":"31758","miles_from_dt":15.47},{"city":"Moultrie","state_name":"Georgia","lat":31.10891,"lng":-83.68099,"zip":"31788","miles_from_dt":15.97},{"city":"Moultrie","state_name":"Georgia","lat":31.15565,"lng":-83.7939,"zip":"31776","miles_from_dt":19.46},{"city":"Ochlocknee","state_name":"Georgia","lat":30.97795,"lng":-84.04624,"zip":"31773","miles_from_dt":20.35},{"city":"Thomasville","state_name":"Georgia","lat":30.77079,"lng":-84.04238,"zip":"31792","miles_from_dt":20.42},{"city":"Ellenton","state_name":"Georgia","lat":31.1753,"lng":-83.58736,"zip":"31747","miles_from_dt":21.89},{"city":"Cecil","state_name":"Georgia","lat":31.03923,"lng":-83.39238,"zip":"31627","miles_from_dt":22.49},{"city":"Valdosta","state_name":"Georgia","lat":30.86734,"lng":-83.34269,"zip":"31602","miles_from_dt":22.61},{"city":"Moultrie","state_name":"Georgia","lat":31.19329,"lng":-83.84047,"zip":"31768","miles_from_dt":22.69},{"city":"Hahira","state_name":"Georgia","lat":30.9876,"lng":-83.36006,"zip":"31632","miles_from_dt":22.79},{"city":"Adel","state_name":"Georgia","lat":31.11861,"lng":-83.43731,"zip":"31620","miles_from_dt":23.62},{"city":"Meigs","state_name":"Georgia","lat":31.09514,"lng":-84.0346,"zip":"31765","miles_from_dt":23.71},{"city":"Funston","state_name":"Georgia","lat":31.20044,"lng":-83.87287,"zip":"31753","miles_from_dt":23.81},{"city":"Valdosta","state_name":"Georgia","lat":30.74772,"lng":-83.33968,"zip":"31601","miles_from_dt":24.54},{"city":"Monticello","state_name":"Florida","lat":30.54402,"lng":-83.87248,"zip":"32345","miles_from_dt":24.79},{"city":"Hartsfield","state_name":"Georgia","lat":31.17558,"lng":-83.96224,"zip":"31756","miles_from_dt":24.83},{"city":"Norman Park","state_name":"Georgia","lat":31.24332,"lng":-83.64775,"zip":"31771","miles_from_dt":25.43},{"city":"Valdosta","state_name":"Georgia","lat":30.84749,"lng":-83.29051,"zip":"31698","miles_from_dt":25.8},{"city":"Valdosta","state_name":"Georgia","lat":30.87206,"lng":-83.28537,"zip":"31603","miles_from_dt":26.01},{"city":"Valdosta","state_name":"Georgia","lat":30.88111,"lng":-83.28047,"zip":"31604","miles_from_dt":26.29},{"city":"Sparks","state_name":"Georgia","lat":31.21033,"lng":-83.43158,"zip":"31647","miles_from_dt":28.58},{"city":"Valdosta","state_name":"Georgia","lat":30.93334,"lng":-83.23482,"zip":"31605","miles_from_dt":29.23},{"city":"Greenville","state_name":"Florida","lat":30.45851,"lng":-83.6294,"zip":"32331","miles_from_dt":29.56},{"city":"Cairo","state_name":"Georgia","lat":30.94911,"lng":-84.21674,"zip":"39827","miles_from_dt":29.71}],"targetCityZipCode":"31720","targetCityState":"Georgia"},"__N_SSG":true}