{"pageProps":{"stateName":"Georgia","cityName":"edison","nearbyCities":[{"city":"Bluffton","state_name":"Georgia","lat":31.52882,"lng":-84.86552,"zip":"39824","miles_from_dt":7.74},{"city":"Morgan","state_name":"Georgia","lat":31.55954,"lng":-84.60553,"zip":"39866","miles_from_dt":8.12},{"city":"Coleman","state_name":"Georgia","lat":31.66293,"lng":-84.87726,"zip":"39836","miles_from_dt":10.26},{"city":"Arlington","state_name":"Georgia","lat":31.42631,"lng":-84.68361,"zip":"39813","miles_from_dt":10.39},{"city":"Shellman","state_name":"Georgia","lat":31.73469,"lng":-84.61554,"zip":"39886","miles_from_dt":13.69},{"city":"Cuthbert","state_name":"Georgia","lat":31.78874,"lng":-84.75986,"zip":"39840","miles_from_dt":15.21},{"city":"Leary","state_name":"Georgia","lat":31.45694,"lng":-84.51615,"zip":"39862","miles_from_dt":15.42},{"city":"Fort Gaines","state_name":"Georgia","lat":31.63432,"lng":-85.00086,"zip":"39851","miles_from_dt":15.89},{"city":"Damascus","state_name":"Georgia","lat":31.29031,"lng":-84.69124,"zip":"39841","miles_from_dt":19.4},{"city":"Blakely","state_name":"Georgia","lat":31.34004,"lng":-84.94641,"zip":"39823","miles_from_dt":19.81},{"city":"Shorterville","state_name":"Alabama","lat":31.52131,"lng":-85.10355,"zip":"36373","miles_from_dt":21.54},{"city":"Morris","state_name":"Georgia","lat":31.84076,"lng":-84.93684,"zip":"39867","miles_from_dt":21.97},{"city":"Dawson","state_name":"Georgia","lat":31.75837,"lng":-84.44314,"zip":"39842","miles_from_dt":21.98},{"city":"Sasser","state_name":"Georgia","lat":31.72189,"lng":-84.34304,"zip":"39885","miles_from_dt":25.82},{"city":"Newton","state_name":"Georgia","lat":31.31944,"lng":-84.41071,"zip":"39870","miles_from_dt":26.05},{"city":"Albany","state_name":"Georgia","lat":31.5087,"lng":-84.30331,"zip":"31721","miles_from_dt":26.25},{"city":"Georgetown","state_name":"Georgia","lat":31.86713,"lng":-85.04881,"zip":"39854","miles_from_dt":27.36},{"city":"Weston","state_name":"Georgia","lat":31.95501,"lng":-84.61709,"zip":"31832","miles_from_dt":27.64},{"city":"Abbeville","state_name":"Alabama","lat":31.60296,"lng":-85.21229,"zip":"36310","miles_from_dt":27.8},{"city":"Parrott","state_name":"Georgia","lat":31.9183,"lng":-84.50647,"zip":"39877","miles_from_dt":27.83},{"city":"Colquitt","state_name":"Georgia","lat":31.15321,"lng":-84.67283,"zip":"39837","miles_from_dt":28.9},{"city":"Columbia","state_name":"Alabama","lat":31.32367,"lng":-85.14931,"zip":"36319","miles_from_dt":29.34}],"targetCityZipCode":"39846","targetCityState":"Georgia"},"__N_SSG":true}