{"pageProps":{"stateName":"Georgia","cityName":"hull","nearbyCities":[{"city":"Nicholson","state_name":"Georgia","lat":34.08802,"lng":-83.41203,"zip":"30565","miles_from_dt":5.73},{"city":"Athens","state_name":"Georgia","lat":34.00032,"lng":-83.34851,"zip":"30601","miles_from_dt":5.87},{"city":"Ila","state_name":"Georgia","lat":34.17269,"lng":-83.29241,"zip":"30647","miles_from_dt":6.48},{"city":"Colbert","state_name":"Georgia","lat":34.03115,"lng":-83.21364,"zip":"30628","miles_from_dt":6.6},{"city":"Danielsville","state_name":"Georgia","lat":34.17896,"lng":-83.24612,"zip":"30633","miles_from_dt":7.8},{"city":"Athens","state_name":"Georgia","lat":34.01895,"lng":-83.44774,"zip":"30607","miles_from_dt":8.83},{"city":"Athens","state_name":"Georgia","lat":33.95962,"lng":-83.37699,"zip":"30608","miles_from_dt":9.09},{"city":"Athens","state_name":"Georgia","lat":33.95929,"lng":-83.37689,"zip":"30603","miles_from_dt":9.11},{"city":"Winterville","state_name":"Georgia","lat":33.94703,"lng":-83.25775,"zip":"30683","miles_from_dt":9.7},{"city":"Athens","state_name":"Georgia","lat":33.95563,"lng":-83.3931,"zip":"30612","miles_from_dt":9.75},{"city":"Athens","state_name":"Georgia","lat":33.94252,"lng":-83.37256,"zip":"30602","miles_from_dt":10.09},{"city":"Athens","state_name":"Georgia","lat":33.93289,"lng":-83.37223,"zip":"30609","miles_from_dt":10.71},{"city":"Commerce","state_name":"Georgia","lat":34.22691,"lng":-83.38433,"zip":"30530","miles_from_dt":10.92},{"city":"Comer","state_name":"Georgia","lat":34.07779,"lng":-83.11625,"zip":"30629","miles_from_dt":11.26},{"city":"Athens","state_name":"Georgia","lat":34.00684,"lng":-83.49323,"zip":"30604","miles_from_dt":11.53},{"city":"Athens","state_name":"Georgia","lat":33.93873,"lng":-83.43305,"zip":"30606","miles_from_dt":11.95},{"city":"Athens","state_name":"Georgia","lat":33.90551,"lng":-83.32405,"zip":"30605","miles_from_dt":12.05},{"city":"Commerce","state_name":"Georgia","lat":34.2052,"lng":-83.46061,"zip":"30599","miles_from_dt":12.1},{"city":"Commerce","state_name":"Georgia","lat":34.2155,"lng":-83.482,"zip":"30529","miles_from_dt":13.47},{"city":"Jefferson","state_name":"Georgia","lat":34.10731,"lng":-83.57684,"zip":"30549","miles_from_dt":15.27},{"city":"Crawford","state_name":"Georgia","lat":33.89894,"lng":-83.14366,"zip":"30630","miles_from_dt":15.81},{"city":"Royston","state_name":"Georgia","lat":34.26383,"lng":-83.14624,"zip":"30662","miles_from_dt":15.85},{"city":"Arnoldsville","state_name":"Georgia","lat":33.85752,"lng":-83.2403,"zip":"30619","miles_from_dt":15.89},{"city":"Bogart","state_name":"Georgia","lat":33.92041,"lng":-83.53076,"zip":"30622","miles_from_dt":16.68},{"city":"Franklin Springs","state_name":"Georgia","lat":34.28283,"lng":-83.15232,"zip":"30639","miles_from_dt":16.72},{"city":"Bowman","state_name":"Georgia","lat":34.18097,"lng":-83.03885,"zip":"30624","miles_from_dt":17.16},{"city":"Statham","state_name":"Georgia","lat":33.95891,"lng":-83.58266,"zip":"30666","miles_from_dt":17.61},{"city":"Carnesville","state_name":"Georgia","lat":34.36202,"lng":-83.29355,"zip":"30521","miles_from_dt":19.46},{"city":"Maysville","state_name":"Georgia","lat":34.2683,"lng":-83.56787,"zip":"30558","miles_from_dt":19.55},{"city":"Watkinsville","state_name":"Georgia","lat":33.7929,"lng":-83.38186,"zip":"30677","miles_from_dt":20.19},{"city":"Homer","state_name":"Georgia","lat":34.35737,"lng":-83.46095,"zip":"30547","miles_from_dt":20.91},{"city":"High Shoals","state_name":"Georgia","lat":33.82076,"lng":-83.50247,"zip":"30645","miles_from_dt":20.94},{"city":"Carlton","state_name":"Georgia","lat":33.98264,"lng":-82.96265,"zip":"30627","miles_from_dt":21.17},{"city":"Lexington","state_name":"Georgia","lat":33.87577,"lng":-83.03319,"zip":"30648","miles_from_dt":21.35},{"city":"Bishop","state_name":"Georgia","lat":33.80194,"lng":-83.4791,"zip":"30621","miles_from_dt":21.43},{"city":"Stephens","state_name":"Georgia","lat":33.78526,"lng":-83.16634,"zip":"30667","miles_from_dt":21.99},{"city":"Canon","state_name":"Georgia","lat":34.33833,"lng":-83.08661,"zip":"30520","miles_from_dt":22},{"city":"Farmington","state_name":"Georgia","lat":33.77004,"lng":-83.42241,"zip":"30638","miles_from_dt":22.28},{"city":"Pendergrass","state_name":"Georgia","lat":34.18326,"lng":-83.6814,"zip":"30567","miles_from_dt":22.31},{"city":"Dewy Rose","state_name":"Georgia","lat":34.20307,"lng":-82.94522,"zip":"30634","miles_from_dt":22.69},{"city":"Winder","state_name":"Georgia","lat":33.99725,"lng":-83.69743,"zip":"30680","miles_from_dt":22.81},{"city":"Maxeys","state_name":"Georgia","lat":33.77287,"lng":-83.10717,"zip":"30671","miles_from_dt":24.24},{"city":"Gillsville","state_name":"Georgia","lat":34.29781,"lng":-83.64971,"zip":"30543","miles_from_dt":24.46},{"city":"Talmo","state_name":"Georgia","lat":34.20353,"lng":-83.71556,"zip":"30575","miles_from_dt":24.61},{"city":"Good Hope","state_name":"Georgia","lat":33.77872,"lng":-83.56456,"zip":"30641","miles_from_dt":25.32},{"city":"Bowersville","state_name":"Georgia","lat":34.37535,"lng":-83.03748,"zip":"30516","miles_from_dt":25.73},{"city":"Hoschton","state_name":"Georgia","lat":34.09311,"lng":-83.7646,"zip":"30548","miles_from_dt":25.94},{"city":"Bostwick","state_name":"Georgia","lat":33.73113,"lng":-83.51592,"zip":"30623","miles_from_dt":26.74},{"city":"Baldwin","state_name":"Georgia","lat":34.45674,"lng":-83.47474,"zip":"30511","miles_from_dt":27.57},{"city":"Bethlehem","state_name":"Georgia","lat":33.92917,"lng":-83.75958,"zip":"30620","miles_from_dt":27.69},{"city":"Monroe","state_name":"Georgia","lat":33.86302,"lng":-83.71903,"zip":"30656","miles_from_dt":27.73},{"city":"Braselton","state_name":"Georgia","lat":34.13047,"lng":-83.7975,"zip":"30517","miles_from_dt":28.02},{"city":"Lavonia","state_name":"Georgia","lat":34.44473,"lng":-83.08771,"zip":"30553","miles_from_dt":28.23},{"city":"Martin","state_name":"Georgia","lat":34.48143,"lng":-83.18484,"zip":"30557","miles_from_dt":28.61},{"city":"Gainesville","state_name":"Georgia","lat":34.26082,"lng":-83.76622,"zip":"30507","miles_from_dt":28.82},{"city":"Eastanollee","state_name":"Georgia","lat":34.5035,"lng":-83.26888,"zip":"30538","miles_from_dt":29.29},{"city":"Elberton","state_name":"Georgia","lat":34.10346,"lng":-82.80145,"zip":"30635","miles_from_dt":29.35},{"city":"Alto","state_name":"Georgia","lat":34.44194,"lng":-83.58446,"zip":"30510","miles_from_dt":29.4},{"city":"Rayle","state_name":"Georgia","lat":33.78237,"lng":-82.94369,"zip":"30660","miles_from_dt":29.5},{"city":"Lula","state_name":"Georgia","lat":34.40093,"lng":-83.65926,"zip":"30554","miles_from_dt":29.71},{"city":"Monroe","state_name":"Georgia","lat":33.78214,"lng":-83.69072,"zip":"30655","miles_from_dt":29.9}],"targetCityZipCode":"30646","targetCityState":"Georgia"},"__N_SSG":true}