{"pageProps":{"stateName":"Georgia","cityName":"naylor","nearbyCities":[{"city":"Stockton","state_name":"Georgia","lat":30.94349,"lng":-83.00781,"zip":"31649","miles_from_dt":5.34},{"city":"Moody Afb","state_name":"Georgia","lat":30.96666,"lng":-83.19237,"zip":"31699","miles_from_dt":6.17},{"city":"Valdosta","state_name":"Georgia","lat":30.93334,"lng":-83.23482,"zip":"31605","miles_from_dt":8.2},{"city":"Valdosta","state_name":"Georgia","lat":30.7963,"lng":-83.18647,"zip":"31606","miles_from_dt":10.75},{"city":"Valdosta","state_name":"Georgia","lat":30.88111,"lng":-83.28047,"zip":"31604","miles_from_dt":11.46},{"city":"Ray City","state_name":"Georgia","lat":31.06245,"lng":-83.21846,"zip":"31645","miles_from_dt":11.54},{"city":"Valdosta","state_name":"Georgia","lat":30.87206,"lng":-83.28537,"zip":"31603","miles_from_dt":11.94},{"city":"Lakeland","state_name":"Georgia","lat":31.103,"lng":-83.04317,"zip":"31635","miles_from_dt":12.21},{"city":"Valdosta","state_name":"Georgia","lat":30.84749,"lng":-83.29051,"zip":"31698","miles_from_dt":12.9},{"city":"Lake Park","state_name":"Georgia","lat":30.7337,"lng":-83.1096,"zip":"31636","miles_from_dt":13.67},{"city":"Du Pont","state_name":"Georgia","lat":30.92354,"lng":-82.85667,"zip":"31630","miles_from_dt":14.27},{"city":"Valdosta","state_name":"Georgia","lat":30.86734,"lng":-83.34269,"zip":"31602","miles_from_dt":15.27},{"city":"Hahira","state_name":"Georgia","lat":30.9876,"lng":-83.36006,"zip":"31632","miles_from_dt":16.1},{"city":"Statenville","state_name":"Georgia","lat":30.70834,"lng":-83.00838,"zip":"31648","miles_from_dt":16.27},{"city":"Cecil","state_name":"Georgia","lat":31.03923,"lng":-83.39238,"zip":"31627","miles_from_dt":19.04},{"city":"Valdosta","state_name":"Georgia","lat":30.74772,"lng":-83.33968,"zip":"31601","miles_from_dt":19.22},{"city":"Nashville","state_name":"Georgia","lat":31.21239,"lng":-83.19248,"zip":"31639","miles_from_dt":20.15},{"city":"Homerville","state_name":"Georgia","lat":31.02867,"lng":-82.7321,"zip":"31634","miles_from_dt":22.65},{"city":"Adel","state_name":"Georgia","lat":31.11861,"lng":-83.43731,"zip":"31620","miles_from_dt":23.96},{"city":"Morven","state_name":"Georgia","lat":30.90627,"lng":-83.51589,"zip":"31638","miles_from_dt":24.96},{"city":"Jennings","state_name":"Florida","lat":30.56417,"lng":-83.1519,"zip":"32053","miles_from_dt":25.54},{"city":"Barney","state_name":"Georgia","lat":30.9918,"lng":-83.52556,"zip":"31625","miles_from_dt":25.79},{"city":"Pearson","state_name":"Georgia","lat":31.25989,"lng":-82.88273,"zip":"31642","miles_from_dt":25.92},{"city":"Pinetta","state_name":"Florida","lat":30.58662,"lng":-83.32242,"zip":"32350","miles_from_dt":27.31},{"city":"Sparks","state_name":"Georgia","lat":31.21033,"lng":-83.43158,"zip":"31647","miles_from_dt":27.61},{"city":"Argyle","state_name":"Georgia","lat":31.07137,"lng":-82.644,"zip":"31623","miles_from_dt":28.53},{"city":"Quitman","state_name":"Georgia","lat":30.77061,"lng":-83.55859,"zip":"31643","miles_from_dt":29.61}],"targetCityZipCode":"31641","targetCityState":"Georgia"},"__N_SSG":true}