{"pageProps":{"stateName":"Georgia","cityName":"saint-simons-island","nearbyCities":[{"city":"Sea Island","state_name":"Georgia","lat":31.20199,"lng":-81.3373,"zip":"31561","miles_from_dt":2.57},{"city":"Brunswick","state_name":"Georgia","lat":31.24098,"lng":-81.47449,"zip":"31524","miles_from_dt":7.07},{"city":"Brunswick","state_name":"Georgia","lat":31.17745,"lng":-81.48729,"zip":"31520","miles_from_dt":8.79},{"city":"Brunswick","state_name":"Georgia","lat":31.15896,"lng":-81.48589,"zip":"31521","miles_from_dt":9.38},{"city":"Darien","state_name":"Georgia","lat":31.39057,"lng":-81.39054,"zip":"31305","miles_from_dt":10.85},{"city":"Brunswick","state_name":"Georgia","lat":31.3114,"lng":-81.5229,"zip":"31525","miles_from_dt":11.2},{"city":"Jekyll Island","state_name":"Georgia","lat":31.07155,"lng":-81.42225,"zip":"31527","miles_from_dt":12},{"city":"Meridian","state_name":"Georgia","lat":31.42175,"lng":-81.42368,"zip":"31319","miles_from_dt":13.42},{"city":"Brunswick","state_name":"Georgia","lat":31.21113,"lng":-81.61519,"zip":"31523","miles_from_dt":15.48},{"city":"Sapelo Island","state_name":"Georgia","lat":31.44909,"lng":-81.25132,"zip":"31327","miles_from_dt":15.92},{"city":"Crescent","state_name":"Georgia","lat":31.49963,"lng":-81.3731,"zip":"31304","miles_from_dt":18.2},{"city":"Townsend","state_name":"Georgia","lat":31.5159,"lng":-81.42042,"zip":"31331","miles_from_dt":19.67},{"city":"Waverly","state_name":"Georgia","lat":31.06868,"lng":-81.64783,"zip":"31565","miles_from_dt":20.81},{"city":"Waynesville","state_name":"Georgia","lat":31.18357,"lng":-81.8084,"zip":"31566","miles_from_dt":27.07},{"city":"Hortense","state_name":"Georgia","lat":31.34455,"lng":-81.82697,"zip":"31543","miles_from_dt":28.89}],"targetCityZipCode":"31522","targetCityState":"Georgia"},"__N_SSG":true}