{"pageProps":{"stateName":"Georgia","cityName":"smithville","nearbyCities":[{"city":"Bronwood","state_name":"Georgia","lat":31.82092,"lng":-84.32423,"zip":"39826","miles_from_dt":7},{"city":"Leslie","state_name":"Georgia","lat":31.9772,"lng":-84.08135,"zip":"31764","miles_from_dt":11.22},{"city":"Plains","state_name":"Georgia","lat":32.02898,"lng":-84.39024,"zip":"31780","miles_from_dt":12.14},{"city":"Americus","state_name":"Georgia","lat":32.05071,"lng":-84.14011,"zip":"31709","miles_from_dt":12.21},{"city":"Leesburg","state_name":"Georgia","lat":31.73889,"lng":-84.14711,"zip":"31763","miles_from_dt":12.63},{"city":"Americus","state_name":"Georgia","lat":32.08261,"lng":-84.29768,"zip":"31719","miles_from_dt":12.9},{"city":"Sasser","state_name":"Georgia","lat":31.72189,"lng":-84.34304,"zip":"39885","miles_from_dt":13.45},{"city":"De Soto","state_name":"Georgia","lat":31.90089,"lng":-84.00604,"zip":"31743","miles_from_dt":14.31},{"city":"Dawson","state_name":"Georgia","lat":31.75837,"lng":-84.44314,"zip":"39842","miles_from_dt":15},{"city":"Parrott","state_name":"Georgia","lat":31.9183,"lng":-84.50647,"zip":"39877","miles_from_dt":15.16},{"city":"Cobb","state_name":"Georgia","lat":31.97195,"lng":-83.96446,"zip":"31735","miles_from_dt":17.47},{"city":"Preston","state_name":"Georgia","lat":32.05687,"lng":-84.5229,"zip":"31824","miles_from_dt":19.36},{"city":"Oakfield","state_name":"Georgia","lat":31.72213,"lng":-83.96504,"zip":"31772","miles_from_dt":20.74},{"city":"Albany","state_name":"Georgia","lat":31.59825,"lng":-84.19996,"zip":"31702","miles_from_dt":20.99},{"city":"Andersonville","state_name":"Georgia","lat":32.18766,"lng":-84.12258,"zip":"31711","miles_from_dt":21.18},{"city":"Albany","state_name":"Georgia","lat":31.58736,"lng":-84.20689,"zip":"31707","miles_from_dt":21.68},{"city":"Weston","state_name":"Georgia","lat":31.95501,"lng":-84.61709,"zip":"31832","miles_from_dt":21.93},{"city":"Albany","state_name":"Georgia","lat":31.59339,"lng":-84.14105,"zip":"31708","miles_from_dt":22.06},{"city":"Albany","state_name":"Georgia","lat":31.57908,"lng":-84.15624,"zip":"31706","miles_from_dt":22.78},{"city":"Albany","state_name":"Georgia","lat":31.57707,"lng":-84.15307,"zip":"31703","miles_from_dt":22.96},{"city":"Albany","state_name":"Georgia","lat":31.57376,"lng":-84.15508,"zip":"31701","miles_from_dt":23.15},{"city":"Warwick","state_name":"Georgia","lat":31.77351,"lng":-83.87659,"zip":"31796","miles_from_dt":23.6},{"city":"Shellman","state_name":"Georgia","lat":31.73469,"lng":-84.61554,"zip":"39886","miles_from_dt":24.36},{"city":"Ellaville","state_name":"Georgia","lat":32.26147,"lng":-84.30043,"zip":"31806","miles_from_dt":25.09},{"city":"Albany","state_name":"Georgia","lat":31.551,"lng":-84.05634,"zip":"31704","miles_from_dt":26.6},{"city":"Albany","state_name":"Georgia","lat":31.5087,"lng":-84.30331,"zip":"31721","miles_from_dt":27.14},{"city":"Byromville","state_name":"Georgia","lat":32.18917,"lng":-83.93377,"zip":"31007","miles_from_dt":27.21},{"city":"Lilly","state_name":"Georgia","lat":32.14456,"lng":-83.87812,"zip":"31051","miles_from_dt":27.55},{"city":"Cordele","state_name":"Georgia","lat":31.95392,"lng":-83.78295,"zip":"31010","miles_from_dt":27.66},{"city":"Cordele","state_name":"Georgia","lat":31.93729,"lng":-83.77444,"zip":"31015","miles_from_dt":28.03},{"city":"Richland","state_name":"Georgia","lat":32.1081,"lng":-84.6693,"zip":"31825","miles_from_dt":28.52},{"city":"Albany","state_name":"Georgia","lat":31.51169,"lng":-84.05333,"zip":"31705","miles_from_dt":29.14}],"targetCityZipCode":"31787","targetCityState":"Georgia"},"__N_SSG":true}