{"pageProps":{"stateName":"Minnesota","cityName":"hollandale","nearbyCities":[{"city":"Geneva","state_name":"Minnesota","lat":43.82187,"lng":-93.26875,"zip":"56035","miles_from_dt":5.21},{"city":"Clarks Grove","state_name":"Minnesota","lat":43.76378,"lng":-93.34855,"zip":"56016","miles_from_dt":6.96},{"city":"Hayward","state_name":"Minnesota","lat":43.65236,"lng":-93.22809,"zip":"56043","miles_from_dt":7.47},{"city":"Albert Lea","state_name":"Minnesota","lat":43.66085,"lng":-93.3238,"zip":"56007","miles_from_dt":8.91},{"city":"Ellendale","state_name":"Minnesota","lat":43.87485,"lng":-93.29124,"zip":"56026","miles_from_dt":8.93},{"city":"Blooming Prairie","state_name":"Minnesota","lat":43.88164,"lng":-93.0716,"zip":"55917","miles_from_dt":10.88},{"city":"Austin","state_name":"Minnesota","lat":43.6827,"lng":-92.99148,"zip":"55912","miles_from_dt":12.14},{"city":"Lansing","state_name":"Minnesota","lat":43.74341,"lng":-92.96618,"zip":"55950","miles_from_dt":12.23},{"city":"Hartland","state_name":"Minnesota","lat":43.80408,"lng":-93.48387,"zip":"56042","miles_from_dt":14.06},{"city":"Glenville","state_name":"Minnesota","lat":43.5513,"lng":-93.22152,"zip":"56036","miles_from_dt":14.4},{"city":"Hope","state_name":"Minnesota","lat":43.9678,"lng":-93.26889,"zip":"56046","miles_from_dt":14.67},{"city":"Waltham","state_name":"Minnesota","lat":43.81582,"lng":-92.886,"zip":"55982","miles_from_dt":16.64},{"city":"Freeborn","state_name":"Minnesota","lat":43.77583,"lng":-93.56078,"zip":"56032","miles_from_dt":17.61},{"city":"New Richland","state_name":"Minnesota","lat":43.89677,"lng":-93.5125,"zip":"56072","miles_from_dt":17.86},{"city":"Brownsdale","state_name":"Minnesota","lat":43.74236,"lng":-92.84673,"zip":"55918","miles_from_dt":18.19},{"city":"Twin Lakes","state_name":"Minnesota","lat":43.55631,"lng":-93.4508,"zip":"56089","miles_from_dt":18.54},{"city":"Alden","state_name":"Minnesota","lat":43.66125,"lng":-93.55904,"zip":"56009","miles_from_dt":18.78},{"city":"Conger","state_name":"Minnesota","lat":43.6146,"lng":-93.53019,"zip":"56020","miles_from_dt":18.94},{"city":"Lyle","state_name":"Minnesota","lat":43.52772,"lng":-92.96521,"zip":"55953","miles_from_dt":20.16},{"city":"Owatonna","state_name":"Minnesota","lat":44.05966,"lng":-93.22639,"zip":"55060","miles_from_dt":20.72},{"city":"Claremont","state_name":"Minnesota","lat":44.0354,"lng":-93.01838,"zip":"55924","miles_from_dt":21.29},{"city":"Northwood","state_name":"Iowa","lat":43.4458,"lng":-93.25445,"zip":"50459","miles_from_dt":21.79},{"city":"Rose Creek","state_name":"Minnesota","lat":43.59681,"lng":-92.83118,"zip":"55970","miles_from_dt":22.04},{"city":"Hayfield","state_name":"Minnesota","lat":43.89417,"lng":-92.80775,"zip":"55940","miles_from_dt":22.12},{"city":"Sargeant","state_name":"Minnesota","lat":43.80794,"lng":-92.772,"zip":"55973","miles_from_dt":22.13},{"city":"Emmons","state_name":"Minnesota","lat":43.52519,"lng":-93.53003,"zip":"56029","miles_from_dt":22.82},{"city":"Dexter","state_name":"Minnesota","lat":43.74279,"lng":-92.70689,"zip":"55926","miles_from_dt":25.18},{"city":"Dodge Center","state_name":"Minnesota","lat":44.0335,"lng":-92.87291,"zip":"55927","miles_from_dt":25.29},{"city":"Wells","state_name":"Minnesota","lat":43.72261,"lng":-93.71593,"zip":"56097","miles_from_dt":25.48},{"city":"Carpenter","state_name":"Iowa","lat":43.41507,"lng":-93.01718,"zip":"50426","miles_from_dt":25.68},{"city":"Waseca","state_name":"Minnesota","lat":44.06342,"lng":-93.51683,"zip":"56093","miles_from_dt":25.98},{"city":"Waldorf","state_name":"Minnesota","lat":43.91813,"lng":-93.68831,"zip":"56091","miles_from_dt":26.31},{"city":"Saint Ansgar","state_name":"Iowa","lat":43.42265,"lng":-92.94644,"zip":"50472","miles_from_dt":26.76},{"city":"Elkton","state_name":"Minnesota","lat":43.64787,"lng":-92.68504,"zip":"55933","miles_from_dt":27.38},{"city":"Adams","state_name":"Minnesota","lat":43.56312,"lng":-92.73461,"zip":"55909","miles_from_dt":27.4},{"city":"Lake Mills","state_name":"Iowa","lat":43.42045,"lng":-93.51998,"zip":"50450","miles_from_dt":28.13},{"city":"Kensett","state_name":"Iowa","lat":43.35053,"lng":-93.24753,"zip":"50448","miles_from_dt":28.32},{"city":"Kasson","state_name":"Minnesota","lat":43.98754,"lng":-92.73758,"zip":"55944","miles_from_dt":28.33},{"city":"Medford","state_name":"Minnesota","lat":44.17628,"lng":-93.24101,"zip":"55049","miles_from_dt":28.8},{"city":"Kiester","state_name":"Minnesota","lat":43.53649,"lng":-93.70868,"zip":"56051","miles_from_dt":29.39}],"targetCityZipCode":"56045","targetCityState":"Minnesota"},"__N_SSG":true}