{"pageProps":{"stateName":"Minnesota","cityName":"northome","nearbyCities":[{"city":"Mizpah","state_name":"Minnesota","lat":47.96653,"lng":-94.17022,"zip":"56660","miles_from_dt":8.66},{"city":"Wirt","state_name":"Minnesota","lat":47.7699,"lng":-93.89172,"zip":"56688","miles_from_dt":12.55},{"city":"Spring Lake","state_name":"Minnesota","lat":47.6456,"lng":-93.96124,"zip":"56680","miles_from_dt":15.95},{"city":"Max","state_name":"Minnesota","lat":47.62116,"lng":-94.01899,"zip":"56659","miles_from_dt":16.31},{"city":"Blackduck","state_name":"Minnesota","lat":47.74432,"lng":-94.49852,"zip":"56630","miles_from_dt":18.09},{"city":"Talmoon","state_name":"Minnesota","lat":47.61872,"lng":-93.83941,"zip":"56637","miles_from_dt":20.85},{"city":"Margie","state_name":"Minnesota","lat":48.11248,"lng":-93.93302,"zip":"56658","miles_from_dt":20.92},{"city":"Squaw Lake","state_name":"Minnesota","lat":47.5488,"lng":-94.25132,"zip":"56681","miles_from_dt":21},{"city":"Kelliher","state_name":"Minnesota","lat":47.9979,"lng":-94.56351,"zip":"56650","miles_from_dt":22.45},{"city":"Big Falls","state_name":"Minnesota","lat":48.1953,"lng":-94.04118,"zip":"56627","miles_from_dt":24.75},{"city":"Hines","state_name":"Minnesota","lat":47.68782,"lng":-94.62187,"zip":"56647","miles_from_dt":24.94},{"city":"Bowstring","state_name":"Minnesota","lat":47.54197,"lng":-93.79846,"zip":"56631","miles_from_dt":26.16},{"city":"Pennington","state_name":"Minnesota","lat":47.49997,"lng":-94.45431,"zip":"56663","miles_from_dt":27.91},{"city":"Effie","state_name":"Minnesota","lat":47.90275,"lng":-93.53399,"zip":"56639","miles_from_dt":28.4},{"city":"Tenstrike","state_name":"Minnesota","lat":47.72124,"lng":-94.7512,"zip":"56683","miles_from_dt":29.74}],"targetCityZipCode":"56661","targetCityState":"Minnesota"},"__N_SSG":true}