{"pageProps":{"stateName":"Washington","cityName":"albion","nearbyCities":[{"city":"Pullman","state_name":"Washington","lat":46.72798,"lng":-117.21654,"zip":"99163","miles_from_dt":4.72},{"city":"Pullman","state_name":"Washington","lat":46.72889,"lng":-117.15574,"zip":"99164","miles_from_dt":6.27},{"city":"Palouse","state_name":"Washington","lat":46.89496,"lng":-117.13169,"zip":"99161","miles_from_dt":9.06},{"city":"Colfax","state_name":"Washington","lat":46.86281,"lng":-117.44132,"zip":"99111","miles_from_dt":10.29},{"city":"Moscow","state_name":"Idaho","lat":46.72823,"lng":-117.01946,"zip":"83844","miles_from_dt":11.81},{"city":"Viola","state_name":"Idaho","lat":46.85772,"lng":-116.97251,"zip":"83872","miles_from_dt":13.93},{"city":"Colton","state_name":"Washington","lat":46.58628,"lng":-117.1935,"zip":"99113","miles_from_dt":14.48},{"city":"Garfield","state_name":"Washington","lat":46.99917,"lng":-117.18556,"zip":"99130","miles_from_dt":14.62},{"city":"Moscow","state_name":"Idaho","lat":46.72257,"lng":-116.94132,"zip":"83843","miles_from_dt":15.44},{"city":"Steptoe","state_name":"Washington","lat":47.00719,"lng":-117.35682,"zip":"99174","miles_from_dt":15.69},{"city":"Potlatch","state_name":"Idaho","lat":46.97188,"lng":-116.92464,"zip":"83855","miles_from_dt":19.8},{"city":"Belmont","state_name":"Washington","lat":47.08531,"lng":-117.16111,"zip":"99104","miles_from_dt":20.68},{"city":"Uniontown","state_name":"Washington","lat":46.49239,"lng":-117.10762,"zip":"99179","miles_from_dt":21.79},{"city":"Thornton","state_name":"Washington","lat":47.09221,"lng":-117.41224,"zip":"99176","miles_from_dt":22.1},{"city":"Princeton","state_name":"Idaho","lat":46.8895,"lng":-116.79776,"zip":"83857","miles_from_dt":22.48},{"city":"Farmington","state_name":"Washington","lat":47.10045,"lng":-117.08523,"zip":"99128","miles_from_dt":22.68},{"city":"Genesee","state_name":"Idaho","lat":46.55223,"lng":-116.90666,"zip":"83832","miles_from_dt":23.27},{"city":"Oakesdale","state_name":"Washington","lat":47.13305,"lng":-117.24008,"zip":"99158","miles_from_dt":23.55},{"city":"Troy","state_name":"Idaho","lat":46.74589,"lng":-116.73865,"zip":"83871","miles_from_dt":24.49},{"city":"Desmet","state_name":"Idaho","lat":47.10638,"lng":-116.93901,"zip":"83824","miles_from_dt":26.23},{"city":"Endicott","state_name":"Washington","lat":46.95223,"lng":-117.78556,"zip":"99125","miles_from_dt":27.66},{"city":"Clarkston","state_name":"Washington","lat":46.38114,"lng":-117.25974,"zip":"99403","miles_from_dt":28.4},{"city":"Saint John","state_name":"Washington","lat":47.10485,"lng":-117.6495,"zip":"99171","miles_from_dt":28.69},{"city":"Lacrosse","state_name":"Washington","lat":46.74627,"lng":-117.85869,"zip":"99143","miles_from_dt":29.05},{"city":"Pomeroy","state_name":"Washington","lat":46.42531,"lng":-117.57128,"zip":"99347","miles_from_dt":29.59}],"targetCityZipCode":"99102","targetCityState":"Washington"},"__N_SSG":true}