{"pageProps":{"stateName":"Washington","cityName":"centerville","nearbyCities":[{"city":"Wishram","state_name":"Washington","lat":45.67367,"lng":-120.98129,"zip":"98673","miles_from_dt":5.58},{"city":"Klickitat","state_name":"Washington","lat":45.85015,"lng":-121.09887,"zip":"98628","miles_from_dt":9.01},{"city":"Rufus","state_name":"Oregon","lat":45.68256,"lng":-120.7727,"zip":"97050","miles_from_dt":10.85},{"city":"Dallesport","state_name":"Washington","lat":45.64283,"lng":-121.14229,"zip":"98617","miles_from_dt":11.26},{"city":"Wahkiacus","state_name":"Washington","lat":45.86372,"lng":-121.14599,"zip":"98670","miles_from_dt":11.29},{"city":"Lyle","state_name":"Washington","lat":45.74364,"lng":-121.20915,"zip":"98635","miles_from_dt":11.47},{"city":"Goldendale","state_name":"Washington","lat":45.87096,"lng":-120.77846,"zip":"98620","miles_from_dt":12.36},{"city":"Appleton","state_name":"Washington","lat":45.8693,"lng":-121.27966,"zip":"98602","miles_from_dt":16.84},{"city":"The Dalles","state_name":"Oregon","lat":45.54239,"lng":-121.15447,"zip":"97058","miles_from_dt":17.08},{"city":"Wasco","state_name":"Oregon","lat":45.59803,"lng":-120.65696,"zip":"97065","miles_from_dt":18.69},{"city":"Glenwood","state_name":"Washington","lat":45.97693,"lng":-121.26568,"zip":"98619","miles_from_dt":20.9},{"city":"Mosier","state_name":"Oregon","lat":45.62648,"lng":-121.38476,"zip":"97040","miles_from_dt":21.82},{"city":"White Salmon","state_name":"Washington","lat":45.81269,"lng":-121.47393,"zip":"98672","miles_from_dt":24.57},{"city":"Husum","state_name":"Washington","lat":45.79956,"lng":-121.49347,"zip":"98623","miles_from_dt":25.38},{"city":"Moro","state_name":"Oregon","lat":45.47226,"lng":-120.62428,"zip":"97039","miles_from_dt":25.76},{"city":"Dufur","state_name":"Oregon","lat":45.39048,"lng":-121.13425,"zip":"97021","miles_from_dt":26.32},{"city":"Odell","state_name":"Oregon","lat":45.62531,"lng":-121.53971,"zip":"97044","miles_from_dt":28.87},{"city":"Underwood","state_name":"Washington","lat":45.73419,"lng":-121.58718,"zip":"98651","miles_from_dt":29.76},{"city":"Roosevelt","state_name":"Washington","lat":45.83459,"lng":-120.36258,"zip":"99356","miles_from_dt":29.98}],"targetCityZipCode":"98613","targetCityState":"Washington"},"__N_SSG":true}