{"pageProps":{"stateName":"Washington","cityName":"farmington","nearbyCities":[{"city":"Belmont","state_name":"Washington","lat":47.08531,"lng":-117.16111,"zip":"99104","miles_from_dt":3.73},{"city":"Desmet","state_name":"Idaho","lat":47.10638,"lng":-116.93901,"zip":"83824","miles_from_dt":6.91},{"city":"Oakesdale","state_name":"Washington","lat":47.13305,"lng":-117.24008,"zip":"99158","miles_from_dt":7.64},{"city":"Garfield","state_name":"Washington","lat":46.99917,"lng":-117.18556,"zip":"99130","miles_from_dt":8.45},{"city":"Tekoa","state_name":"Washington","lat":47.23061,"lng":-117.09782,"zip":"99033","miles_from_dt":9.01},{"city":"Tensed","state_name":"Idaho","lat":47.13862,"lng":-116.85372,"zip":"83870","miles_from_dt":11.23},{"city":"Potlatch","state_name":"Idaho","lat":46.97188,"lng":-116.92464,"zip":"83855","miles_from_dt":11.68},{"city":"Latah","state_name":"Washington","lat":47.2917,"lng":-117.15212,"zip":"99018","miles_from_dt":13.58},{"city":"Steptoe","state_name":"Washington","lat":47.00719,"lng":-117.35682,"zip":"99174","miles_from_dt":14.35},{"city":"Palouse","state_name":"Washington","lat":46.89496,"lng":-117.13169,"zip":"99161","miles_from_dt":14.36},{"city":"Thornton","state_name":"Washington","lat":47.09221,"lng":-117.41224,"zip":"99176","miles_from_dt":15.44},{"city":"Plummer","state_name":"Idaho","lat":47.29899,"lng":-116.90513,"zip":"83851","miles_from_dt":16.12},{"city":"Viola","state_name":"Idaho","lat":46.85772,"lng":-116.97251,"zip":"83872","miles_from_dt":17.59},{"city":"Waverly","state_name":"Washington","lat":47.33808,"lng":-117.23131,"zip":"99039","miles_from_dt":17.8},{"city":"Rosalia","state_name":"Washington","lat":47.25132,"lng":-117.40203,"zip":"99170","miles_from_dt":18.2},{"city":"Princeton","state_name":"Idaho","lat":46.8895,"lng":-116.79776,"zip":"83857","miles_from_dt":19.92},{"city":"Malden","state_name":"Washington","lat":47.225,"lng":-117.46794,"zip":"99149","miles_from_dt":19.98},{"city":"Fairfield","state_name":"Washington","lat":47.38137,"lng":-117.19145,"zip":"99012","miles_from_dt":20.04},{"city":"Harvard","state_name":"Idaho","lat":46.97566,"lng":-116.67484,"zip":"83834","miles_from_dt":21.21},{"city":"Albion","state_name":"Washington","lat":46.79218,"lng":-117.25029,"zip":"99102","miles_from_dt":22.68},{"city":"Colfax","state_name":"Washington","lat":46.86281,"lng":-117.44132,"zip":"99111","miles_from_dt":23.51},{"city":"Worley","state_name":"Idaho","lat":47.44842,"lng":-116.93161,"zip":"83876","miles_from_dt":25.1},{"city":"Spangle","state_name":"Washington","lat":47.41973,"lng":-117.35991,"zip":"99031","miles_from_dt":25.56},{"city":"Pullman","state_name":"Washington","lat":46.72889,"lng":-117.15574,"zip":"99164","miles_from_dt":25.88},{"city":"Moscow","state_name":"Idaho","lat":46.72823,"lng":-117.01946,"zip":"83844","miles_from_dt":25.9},{"city":"Saint Maries","state_name":"Idaho","lat":47.2488,"lng":-116.57821,"zip":"83861","miles_from_dt":25.99},{"city":"Rockford","state_name":"Washington","lat":47.47782,"lng":-117.11302,"zip":"99030","miles_from_dt":26.1},{"city":"Pullman","state_name":"Washington","lat":46.72798,"lng":-117.21654,"zip":"99163","miles_from_dt":26.47},{"city":"Saint John","state_name":"Washington","lat":47.10485,"lng":-117.6495,"zip":"99171","miles_from_dt":26.62},{"city":"Moscow","state_name":"Idaho","lat":46.72257,"lng":-116.94132,"zip":"83843","miles_from_dt":26.98},{"city":"Troy","state_name":"Idaho","lat":46.74589,"lng":-116.73865,"zip":"83871","miles_from_dt":29.48}],"targetCityZipCode":"99128","targetCityState":"Washington"},"__N_SSG":true}