{"pageProps":{"stateName":"Washington","cityName":"montesano","nearbyCities":[{"city":"Matlock","state_name":"Washington","lat":47.30577,"lng":-123.43948,"zip":"98560","miles_from_dt":10.49},{"city":"Elma","state_name":"Washington","lat":47.06877,"lng":-123.40459,"zip":"98541","miles_from_dt":13.51},{"city":"Hoquiam","state_name":"Washington","lat":47.14081,"lng":-123.90122,"zip":"98550","miles_from_dt":14.53},{"city":"Satsop","state_name":"Washington","lat":47.00122,"lng":-123.4875,"zip":"98583","miles_from_dt":15.28},{"city":"Aberdeen","state_name":"Washington","lat":46.99478,"lng":-123.81054,"zip":"98520","miles_from_dt":17.46},{"city":"Humptulips","state_name":"Washington","lat":47.3136,"lng":-123.9444,"zip":"98552","miles_from_dt":17.46},{"city":"Quinault","state_name":"Washington","lat":47.43607,"lng":-123.79848,"zip":"98575","miles_from_dt":18.21},{"city":"Mccleary","state_name":"Washington","lat":47.04332,"lng":-123.2681,"zip":"98557","miles_from_dt":19.6},{"city":"Neilton","state_name":"Washington","lat":47.39616,"lng":-123.95976,"zip":"98566","miles_from_dt":21.09},{"city":"Shelton","state_name":"Washington","lat":47.24608,"lng":-123.16209,"zip":"98584","miles_from_dt":21.17},{"city":"Malone","state_name":"Washington","lat":46.95884,"lng":-123.32749,"zip":"98559","miles_from_dt":21.63},{"city":"Hoodsport","state_name":"Washington","lat":47.47064,"lng":-123.29273,"zip":"98548","miles_from_dt":23.51},{"city":"Copalis Crossing","state_name":"Washington","lat":47.18939,"lng":-124.111,"zip":"98536","miles_from_dt":23.7},{"city":"Copalis Beach","state_name":"Washington","lat":47.0994,"lng":-124.11973,"zip":"98535","miles_from_dt":25.21},{"city":"Amanda Park","state_name":"Washington","lat":47.47749,"lng":-123.99227,"zip":"98526","miles_from_dt":26},{"city":"Union","state_name":"Washington","lat":47.32895,"lng":-123.07907,"zip":"98592","miles_from_dt":26.28},{"city":"Cosmopolis","state_name":"Washington","lat":46.81719,"lng":-123.59768,"zip":"98537","miles_from_dt":26.89},{"city":"Taholah","state_name":"Washington","lat":47.32039,"lng":-124.1562,"zip":"98587","miles_from_dt":26.94},{"city":"Pacific Beach","state_name":"Washington","lat":47.20356,"lng":-124.19532,"zip":"98571","miles_from_dt":27.64},{"city":"Oakville","state_name":"Washington","lat":46.86467,"lng":-123.30235,"zip":"98568","miles_from_dt":27.68},{"city":"Moclips","state_name":"Washington","lat":47.23877,"lng":-124.20336,"zip":"98562","miles_from_dt":28.1},{"city":"Olympia","state_name":"Washington","lat":47.08466,"lng":-123.02958,"zip":"98502","miles_from_dt":28.54},{"city":"Ocean Shores","state_name":"Washington","lat":47.00206,"lng":-124.15479,"zip":"98569","miles_from_dt":29.39}],"targetCityZipCode":"98563","targetCityState":"Washington"},"__N_SSG":true}