{"pageProps":{"stateName":"Washington","cityName":"moses-lake","nearbyCities":[{"city":"Warden","state_name":"Washington","lat":46.98656,"lng":-119.03698,"zip":"98857","miles_from_dt":17.27},{"city":"Marlin","state_name":"Washington","lat":47.34669,"lng":-119.02033,"zip":"98832","miles_from_dt":19.55},{"city":"Soap Lake","state_name":"Washington","lat":47.42002,"lng":-119.43462,"zip":"98851","miles_from_dt":19.59},{"city":"Ephrata","state_name":"Washington","lat":47.33853,"lng":-119.63536,"zip":"98823","miles_from_dt":19.96},{"city":"Stratford","state_name":"Washington","lat":47.44655,"lng":-119.28061,"zip":"98853","miles_from_dt":20.69},{"city":"Othello","state_name":"Washington","lat":46.82223,"lng":-119.17221,"zip":"99344","miles_from_dt":23.52},{"city":"Wilson Creek","state_name":"Washington","lat":47.46899,"lng":-119.12391,"zip":"98860","miles_from_dt":23.94},{"city":"Royal City","state_name":"Washington","lat":46.89295,"lng":-119.67902,"zip":"99357","miles_from_dt":24.58},{"city":"Quincy","state_name":"Washington","lat":47.17182,"lng":-119.84109,"zip":"98848","miles_from_dt":24.78},{"city":"George","state_name":"Washington","lat":47.06857,"lng":-119.86653,"zip":"98824","miles_from_dt":26.53},{"city":"Odessa","state_name":"Washington","lat":47.32872,"lng":-118.74338,"zip":"99159","miles_from_dt":29.7}],"targetCityZipCode":"98837","targetCityState":"Washington"},"__N_SSG":true}