{"pageProps":{"stateName":"Washington","cityName":"oroville","nearbyCities":[{"city":"Tonasket","state_name":"Washington","lat":48.67641,"lng":-119.25634,"zip":"98855","miles_from_dt":16.57},{"city":"Wauconda","state_name":"Washington","lat":48.81181,"lng":-118.90871,"zip":"98859","miles_from_dt":17.05},{"city":"Loomis","state_name":"Washington","lat":48.86359,"lng":-119.76726,"zip":"98827","miles_from_dt":23.95},{"city":"Riverside","state_name":"Washington","lat":48.54821,"lng":-119.40789,"zip":"98849","miles_from_dt":26.46},{"city":"Curlew","state_name":"Washington","lat":48.89746,"lng":-118.63797,"zip":"99118","miles_from_dt":27.8}],"targetCityZipCode":"98844","targetCityState":"Washington"},"__N_SSG":true}