{"pageProps":{"stateName":"Washington","cityName":"palisades","nearbyCities":[{"city":"Rock Island","state_name":"Washington","lat":47.40048,"lng":-120.03459,"zip":"98850","miles_from_dt":6.23},{"city":"East Wenatchee","state_name":"Washington","lat":47.49308,"lng":-120.16493,"zip":"98802","miles_from_dt":12.74},{"city":"Ephrata","state_name":"Washington","lat":47.33853,"lng":-119.63536,"zip":"98823","miles_from_dt":14.33},{"city":"Malaga","state_name":"Washington","lat":47.30741,"lng":-120.1833,"zip":"98828","miles_from_dt":15.42},{"city":"Waterville","state_name":"Washington","lat":47.67938,"lng":-119.87974,"zip":"98858","miles_from_dt":17.26},{"city":"Quincy","state_name":"Washington","lat":47.17182,"lng":-119.84109,"zip":"98848","miles_from_dt":18.15},{"city":"Wenatchee","state_name":"Washington","lat":47.37026,"lng":-120.29354,"zip":"98807","miles_from_dt":18.5},{"city":"Wenatchee","state_name":"Washington","lat":47.43183,"lng":-120.34356,"zip":"98801","miles_from_dt":20.36},{"city":"Soap Lake","state_name":"Washington","lat":47.42002,"lng":-119.43462,"zip":"98851","miles_from_dt":22.26},{"city":"Orondo","state_name":"Washington","lat":47.73688,"lng":-120.08618,"zip":"98843","miles_from_dt":22.73},{"city":"Monitor","state_name":"Washington","lat":47.47615,"lng":-120.42909,"zip":"98836","miles_from_dt":24.56},{"city":"George","state_name":"Washington","lat":47.06857,"lng":-119.86653,"zip":"98824","miles_from_dt":25.08},{"city":"Chelan Falls","state_name":"Washington","lat":47.79049,"lng":-119.99588,"zip":"98817","miles_from_dt":25.2},{"city":"Cashmere","state_name":"Washington","lat":47.52893,"lng":-120.48459,"zip":"98815","miles_from_dt":27.79},{"city":"Stratford","state_name":"Washington","lat":47.44655,"lng":-119.28061,"zip":"98853","miles_from_dt":29.49},{"city":"Coulee City","state_name":"Washington","lat":47.67326,"lng":-119.38965,"zip":"99115","miles_from_dt":29.53}],"targetCityZipCode":"98845","targetCityState":"Washington"},"__N_SSG":true}