{"pageProps":{"stateName":"Washington","cityName":"roslyn","nearbyCities":[{"city":"South Cle Elum","state_name":"Washington","lat":47.18461,"lng":-120.96089,"zip":"98943","miles_from_dt":3.33},{"city":"Cle Elum","state_name":"Washington","lat":47.25056,"lng":-120.8821,"zip":"98922","miles_from_dt":5.84},{"city":"Ronald","state_name":"Washington","lat":47.39682,"lng":-121.06683,"zip":"98940","miles_from_dt":12.3},{"city":"Easton","state_name":"Washington","lat":47.28793,"lng":-121.28089,"zip":"98925","miles_from_dt":13.91},{"city":"Thorp","state_name":"Washington","lat":47.06515,"lng":-120.76512,"zip":"98946","miles_from_dt":15.63},{"city":"Peshastin","state_name":"Washington","lat":47.42236,"lng":-120.62152,"zip":"98847","miles_from_dt":22.43},{"city":"Snoqualmie Pass","state_name":"Washington","lat":47.45154,"lng":-121.35795,"zip":"98068","miles_from_dt":22.98}],"targetCityZipCode":"98941","targetCityState":"Washington"},"__N_SSG":true}