{"pageProps":{"stateName":"Washington","cityName":"stratford","nearbyCities":[{"city":"Soap Lake","state_name":"Washington","lat":47.42002,"lng":-119.43462,"zip":"98851","miles_from_dt":7.45},{"city":"Wilson Creek","state_name":"Washington","lat":47.46899,"lng":-119.12391,"zip":"98860","miles_from_dt":7.5},{"city":"Marlin","state_name":"Washington","lat":47.34669,"lng":-119.02033,"zip":"98832","miles_from_dt":14.02},{"city":"Coulee City","state_name":"Washington","lat":47.67326,"lng":-119.38965,"zip":"99115","miles_from_dt":16.47},{"city":"Hartline","state_name":"Washington","lat":47.65658,"lng":-119.09608,"zip":"99135","miles_from_dt":16.88},{"city":"Ephrata","state_name":"Washington","lat":47.33853,"lng":-119.63536,"zip":"98823","miles_from_dt":18.24},{"city":"Moses Lake","state_name":"Washington","lat":47.14809,"lng":-119.3163,"zip":"98837","miles_from_dt":20.69},{"city":"Almira","state_name":"Washington","lat":47.73041,"lng":-118.93171,"zip":"99103","miles_from_dt":25.5},{"city":"Odessa","state_name":"Washington","lat":47.32872,"lng":-118.74338,"zip":"99159","miles_from_dt":26.49},{"city":"Palisades","state_name":"Washington","lat":47.43039,"lng":-119.90923,"zip":"98845","miles_from_dt":29.49}],"targetCityZipCode":"98853","targetCityState":"Washington"},"__N_SSG":true}