{"pageProps":{"stateName":"Washington","cityName":"wishram","nearbyCities":[{"city":"Centerville","state_name":"Washington","lat":45.7542,"lng":-120.97235,"zip":"98613","miles_from_dt":5.58},{"city":"Dallesport","state_name":"Washington","lat":45.64283,"lng":-121.14229,"zip":"98617","miles_from_dt":8.08},{"city":"Rufus","state_name":"Oregon","lat":45.68256,"lng":-120.7727,"zip":"97050","miles_from_dt":10.12},{"city":"Lyle","state_name":"Washington","lat":45.74364,"lng":-121.20915,"zip":"98635","miles_from_dt":12.04},{"city":"The Dalles","state_name":"Oregon","lat":45.54239,"lng":-121.15447,"zip":"97058","miles_from_dt":12.36},{"city":"Klickitat","state_name":"Washington","lat":45.85015,"lng":-121.09887,"zip":"98628","miles_from_dt":13.45},{"city":"Wahkiacus","state_name":"Washington","lat":45.86372,"lng":-121.14599,"zip":"98670","miles_from_dt":15.35},{"city":"Wasco","state_name":"Oregon","lat":45.59803,"lng":-120.65696,"zip":"97065","miles_from_dt":16.56},{"city":"Goldendale","state_name":"Washington","lat":45.87096,"lng":-120.77846,"zip":"98620","miles_from_dt":16.79},{"city":"Appleton","state_name":"Washington","lat":45.8693,"lng":-121.27966,"zip":"98602","miles_from_dt":19.76},{"city":"Mosier","state_name":"Oregon","lat":45.62648,"lng":-121.38476,"zip":"97040","miles_from_dt":19.81},{"city":"Dufur","state_name":"Oregon","lat":45.39048,"lng":-121.13425,"zip":"97021","miles_from_dt":20.92},{"city":"Moro","state_name":"Oregon","lat":45.47226,"lng":-120.62428,"zip":"97039","miles_from_dt":22.21},{"city":"Glenwood","state_name":"Washington","lat":45.97693,"lng":-121.26568,"zip":"98619","miles_from_dt":25.04},{"city":"White Salmon","state_name":"Washington","lat":45.81269,"lng":-121.47393,"zip":"98672","miles_from_dt":25.68},{"city":"Husum","state_name":"Washington","lat":45.79956,"lng":-121.49347,"zip":"98623","miles_from_dt":26.25},{"city":"Grass Valley","state_name":"Oregon","lat":45.29901,"lng":-120.81003,"zip":"97029","miles_from_dt":27.18},{"city":"Odell","state_name":"Oregon","lat":45.62531,"lng":-121.53971,"zip":"97044","miles_from_dt":27.25},{"city":"Underwood","state_name":"Washington","lat":45.73419,"lng":-121.58718,"zip":"98651","miles_from_dt":29.62}],"targetCityZipCode":"98673","targetCityState":"Washington"},"__N_SSG":true}