{"pageProps":{"stateName":"Tennessee","cityName":"elora","nearbyCities":[{"city":"Flintville","state_name":"Tennessee","lat":35.06584,"lng":-86.40548,"zip":"37335","miles_from_dt":3.32},{"city":"Huntland","state_name":"Tennessee","lat":35.0366,"lng":-86.24299,"zip":"37345","miles_from_dt":7.15},{"city":"Kelso","state_name":"Tennessee","lat":35.11935,"lng":-86.44222,"zip":"37348","miles_from_dt":7.53},{"city":"New Market","state_name":"Alabama","lat":34.914,"lng":-86.41001,"zip":"35761","miles_from_dt":8.22},{"city":"Belvidere","state_name":"Tennessee","lat":35.09776,"lng":-86.18928,"zip":"37306","miles_from_dt":11.25},{"city":"Estillfork","state_name":"Alabama","lat":34.94101,"lng":-86.20002,"zip":"35745","miles_from_dt":11.31},{"city":"Princeton","state_name":"Alabama","lat":34.87342,"lng":-86.27661,"zip":"35766","miles_from_dt":11.89},{"city":"Mulberry","state_name":"Tennessee","lat":35.19776,"lng":-86.4119,"zip":"37359","miles_from_dt":11.94},{"city":"Hazel Green","state_name":"Alabama","lat":34.95407,"lng":-86.5951,"zip":"35750","miles_from_dt":13.82},{"city":"Meridianville","state_name":"Alabama","lat":34.86856,"lng":-86.55262,"zip":"35759","miles_from_dt":15.17},{"city":"Fayetteville","state_name":"Tennessee","lat":35.16532,"lng":-86.57966,"zip":"37334","miles_from_dt":15.23},{"city":"Hollytree","state_name":"Alabama","lat":34.81066,"lng":-86.27931,"zip":"35751","miles_from_dt":15.84},{"city":"Winchester","state_name":"Tennessee","lat":35.18182,"lng":-86.13808,"zip":"37398","miles_from_dt":16.82},{"city":"Lynchburg","state_name":"Tennessee","lat":35.27981,"lng":-86.35417,"zip":"37352","miles_from_dt":17.36},{"city":"Huntsville","state_name":"Alabama","lat":34.79925,"lng":-86.50386,"zip":"35811","miles_from_dt":17.55},{"city":"Taft","state_name":"Tennessee","lat":35.03906,"lng":-86.68569,"zip":"38488","miles_from_dt":17.99},{"city":"Ryland","state_name":"Alabama","lat":34.7704,"lng":-86.48172,"zip":"35767","miles_from_dt":18.9},{"city":"Normal","state_name":"Alabama","lat":34.79291,"lng":-86.569,"zip":"35762","miles_from_dt":19.81},{"city":"Trenton","state_name":"Alabama","lat":34.7611,"lng":-86.22805,"zip":"35774","miles_from_dt":20.08},{"city":"Huntsville","state_name":"Alabama","lat":34.80183,"lng":-86.60264,"zip":"35810","miles_from_dt":20.49},{"city":"Paint Rock","state_name":"Alabama","lat":34.73102,"lng":-86.31381,"zip":"35764","miles_from_dt":20.73},{"city":"Gurley","state_name":"Alabama","lat":34.71925,"lng":-86.39036,"zip":"35748","miles_from_dt":21.34},{"city":"Toney","state_name":"Alabama","lat":34.89431,"lng":-86.71282,"zip":"35773","miles_from_dt":21.6},{"city":"Brownsboro","state_name":"Alabama","lat":34.7242,"lng":-86.47745,"zip":"35741","miles_from_dt":21.85},{"city":"Estill Springs","state_name":"Tennessee","lat":35.28411,"lng":-86.12967,"zip":"37330","miles_from_dt":22.23},{"city":"Scottsboro","state_name":"Alabama","lat":34.77852,"lng":-86.10383,"zip":"35768","miles_from_dt":22.86},{"city":"Sherwood","state_name":"Tennessee","lat":35.04748,"lng":-85.95834,"zip":"37376","miles_from_dt":23.31},{"city":"Huntsville","state_name":"Alabama","lat":34.72497,"lng":-86.56304,"zip":"35801","miles_from_dt":23.64},{"city":"Huntsville","state_name":"Alabama","lat":34.73244,"lng":-86.58459,"zip":"35893","miles_from_dt":23.79},{"city":"Huntsville","state_name":"Alabama","lat":34.73028,"lng":-86.58611,"zip":"35809","miles_from_dt":23.97},{"city":"Huntsville","state_name":"Alabama","lat":34.72998,"lng":-86.5859,"zip":"35804","miles_from_dt":23.98},{"city":"Huntsville","state_name":"Alabama","lat":34.73141,"lng":-86.58977,"zip":"35895","miles_from_dt":24.01},{"city":"Tullahoma","state_name":"Tennessee","lat":35.35141,"lng":-86.19747,"zip":"37388","miles_from_dt":24.3},{"city":"Cowan","state_name":"Tennessee","lat":35.17879,"lng":-85.97994,"zip":"37318","miles_from_dt":24.35},{"city":"Ardmore","state_name":"Alabama","lat":34.96914,"lng":-86.79501,"zip":"35739","miles_from_dt":24.52},{"city":"Huntsville","state_name":"Alabama","lat":34.74054,"lng":-86.62928,"zip":"35899","miles_from_dt":24.75},{"city":"Huntsville","state_name":"Alabama","lat":34.73923,"lng":-86.62985,"zip":"35816","miles_from_dt":24.84},{"city":"Huntsville","state_name":"Alabama","lat":34.75318,"lng":-86.65213,"zip":"35896","miles_from_dt":24.87},{"city":"Petersburg","state_name":"Tennessee","lat":35.30516,"lng":-86.65585,"zip":"37144","miles_from_dt":25.07},{"city":"Fackler","state_name":"Alabama","lat":34.8287,"lng":-85.99868,"zip":"35746","miles_from_dt":25.11},{"city":"Huntsville","state_name":"Alabama","lat":34.76615,"lng":-86.68324,"zip":"35806","miles_from_dt":25.41},{"city":"Decherd","state_name":"Tennessee","lat":35.25251,"lng":-86.00044,"zip":"37324","miles_from_dt":25.96},{"city":"Dellrose","state_name":"Tennessee","lat":35.11923,"lng":-86.81472,"zip":"38453","miles_from_dt":26.04},{"city":"Huntsville","state_name":"Alabama","lat":34.71674,"lng":-86.63118,"zip":"35897","miles_from_dt":26.14},{"city":"Harvest","state_name":"Alabama","lat":34.82314,"lng":-86.75662,"zip":"35749","miles_from_dt":26.17},{"city":"Huntsville","state_name":"Alabama","lat":34.7084,"lng":-86.61731,"zip":"35814","miles_from_dt":26.18},{"city":"Ardmore","state_name":"Tennessee","lat":35.05231,"lng":-86.82954,"zip":"38449","miles_from_dt":26.18},{"city":"Huntsville","state_name":"Alabama","lat":34.70875,"lng":-86.6219,"zip":"35805","miles_from_dt":26.3},{"city":"Woodville","state_name":"Alabama","lat":34.66083,"lng":-86.24338,"zip":"35776","miles_from_dt":26.31},{"city":"Arnold Afb","state_name":"Tennessee","lat":35.32018,"lng":-86.06745,"zip":"37389","miles_from_dt":26.38},{"city":"Huntsville","state_name":"Alabama","lat":34.67398,"lng":-86.55449,"zip":"35802","miles_from_dt":26.6},{"city":"Frankewing","state_name":"Tennessee","lat":35.19135,"lng":-86.80219,"zip":"38459","miles_from_dt":27},{"city":"Huntsville","state_name":"Alabama","lat":34.71411,"lng":-86.65353,"zip":"35807","miles_from_dt":27.03},{"city":"Madison","state_name":"Alabama","lat":34.78426,"lng":-86.74419,"zip":"35757","miles_from_dt":27.16},{"city":"Capshaw","state_name":"Alabama","lat":34.80485,"lng":-86.78195,"zip":"35742","miles_from_dt":28.06},{"city":"Sewanee","state_name":"Tennessee","lat":35.20984,"lng":-85.91373,"zip":"37383","miles_from_dt":28.65},{"city":"Owens Cross Roads","state_name":"Alabama","lat":34.62022,"lng":-86.46615,"zip":"35763","miles_from_dt":28.67},{"city":"Sewanee","state_name":"Tennessee","lat":35.15355,"lng":-85.88173,"zip":"37375","miles_from_dt":28.92},{"city":"Huntsville","state_name":"Alabama","lat":34.6405,"lng":-86.56479,"zip":"35815","miles_from_dt":28.96},{"city":"Stevenson","state_name":"Alabama","lat":34.89152,"lng":-85.88614,"zip":"35772","miles_from_dt":28.97},{"city":"Normandy","state_name":"Tennessee","lat":35.44702,"lng":-86.25586,"zip":"37360","miles_from_dt":29.57},{"city":"Elkton","state_name":"Tennessee","lat":35.06199,"lng":-86.89366,"zip":"38455","miles_from_dt":29.85}],"targetCityZipCode":"37328","targetCityState":"Tennessee"},"__N_SSG":true}