{"pageProps":{"stateName":"Tennessee","cityName":"hurricane-mills","nearbyCities":[{"city":"Only","state_name":"Tennessee","lat":35.86345,"lng":-87.65245,"zip":"37140","miles_from_dt":7.86},{"city":"Lobelville","state_name":"Tennessee","lat":35.7785,"lng":-87.8303,"zip":"37097","miles_from_dt":10.54},{"city":"Waverly","state_name":"Tennessee","lat":36.07118,"lng":-87.8392,"zip":"37185","miles_from_dt":10.86},{"city":"New Johnsonville","state_name":"Tennessee","lat":36.0014,"lng":-87.95063,"zip":"37134","miles_from_dt":11.39},{"city":"McEwen","state_name":"Tennessee","lat":36.06625,"lng":-87.63741,"zip":"37101","miles_from_dt":12.37},{"city":"Nunnelly","state_name":"Tennessee","lat":35.87912,"lng":-87.50276,"zip":"37137","miles_from_dt":15.38},{"city":"Sugar Tree","state_name":"Tennessee","lat":35.79114,"lng":-88.03263,"zip":"38380","miles_from_dt":17.28},{"city":"Eva","state_name":"Tennessee","lat":36.12236,"lng":-87.9709,"zip":"38333","miles_from_dt":17.68},{"city":"Centerville","state_name":"Tennessee","lat":35.73493,"lng":-87.55365,"zip":"37033","miles_from_dt":17.85},{"city":"Holladay","state_name":"Tennessee","lat":35.87677,"lng":-88.08888,"zip":"38341","miles_from_dt":18.1},{"city":"Camden","state_name":"Tennessee","lat":36.04764,"lng":-88.1095,"zip":"38320","miles_from_dt":20.79},{"city":"Dickson","state_name":"Tennessee","lat":36.07921,"lng":-87.44238,"zip":"37055","miles_from_dt":21.32},{"city":"Linden","state_name":"Tennessee","lat":35.60487,"lng":-87.86054,"zip":"37096","miles_from_dt":22.54},{"city":"Dickson","state_name":"Tennessee","lat":36.0768,"lng":-87.37717,"zip":"37056","miles_from_dt":24.48},{"city":"Parsons","state_name":"Tennessee","lat":35.68625,"lng":-88.11051,"zip":"38363","miles_from_dt":25.11},{"city":"Erin","state_name":"Tennessee","lat":36.28918,"lng":-87.66528,"zip":"37061","miles_from_dt":25.89},{"city":"Bon Aqua","state_name":"Tennessee","lat":35.95263,"lng":-87.30855,"zip":"37025","miles_from_dt":26.03},{"city":"Lyles","state_name":"Tennessee","lat":35.87142,"lng":-87.31075,"zip":"37098","miles_from_dt":26.09},{"city":"Big Sandy","state_name":"Tennessee","lat":36.24552,"lng":-88.03685,"zip":"38221","miles_from_dt":26.71},{"city":"Vanleer","state_name":"Tennessee","lat":36.241,"lng":-87.49706,"zip":"37181","miles_from_dt":26.73},{"city":"Duck River","state_name":"Tennessee","lat":35.72334,"lng":-87.35538,"zip":"38454","miles_from_dt":27.14},{"city":"Tennessee Ridge","state_name":"Tennessee","lat":36.3195,"lng":-87.78694,"zip":"37178","miles_from_dt":27.31},{"city":"Buena Vista","state_name":"Tennessee","lat":35.95687,"lng":-88.26189,"zip":"38318","miles_from_dt":27.6},{"city":"Westport","state_name":"Tennessee","lat":35.86573,"lng":-88.26968,"zip":"38387","miles_from_dt":28.24},{"city":"Stewart","state_name":"Tennessee","lat":36.32349,"lng":-87.89678,"zip":"37175","miles_from_dt":28.45},{"city":"Bruceton","state_name":"Tennessee","lat":36.05425,"lng":-88.26965,"zip":"38317","miles_from_dt":29.34},{"city":"Burns","state_name":"Tennessee","lat":36.04253,"lng":-87.2678,"zip":"37029","miles_from_dt":29.39},{"city":"Hohenwald","state_name":"Tennessee","lat":35.53142,"lng":-87.54869,"zip":"38462","miles_from_dt":29.8}],"targetCityZipCode":"37078","targetCityState":"Tennessee"},"__N_SSG":true}