{"pageProps":{"stateName":"Hawaii","cityName":"hoolehua","nearbyCities":[{"city":"Maunaloa","state_name":"Hawaii","lat":21.13465,"lng":-157.20354,"zip":"96770","miles_from_dt":6.14},{"city":"Kualapuu","state_name":"Hawaii","lat":21.15536,"lng":-156.99513,"zip":"96757","miles_from_dt":7.96},{"city":"Kalaupapa","state_name":"Hawaii","lat":21.17089,"lng":-156.94753,"zip":"96742","miles_from_dt":10.95},{"city":"Kaunakakai","state_name":"Hawaii","lat":21.1138,"lng":-156.8794,"zip":"96748","miles_from_dt":15.87},{"city":"Lanai City","state_name":"Hawaii","lat":20.83512,"lng":-156.92717,"zip":"96763","miles_from_dt":26.24}],"targetCityZipCode":"96729","targetCityState":"Hawaii"},"__N_SSG":true}