{"pageProps":{"stateName":"Hawaii","cityName":"waikoloa","nearbyCities":[{"city":"Kamuela","state_name":"Hawaii","lat":20.02619,"lng":-155.72266,"zip":"96743","miles_from_dt":9.63},{"city":"Kailua Kona","state_name":"Hawaii","lat":19.74422,"lng":-155.89951,"zip":"96740","miles_from_dt":12.93},{"city":"Honokaa","state_name":"Hawaii","lat":20.00803,"lng":-155.54842,"zip":"96727","miles_from_dt":17.51},{"city":"Kailua Kona","state_name":"Hawaii","lat":19.68568,"lng":-155.97097,"zip":"96745","miles_from_dt":18.9},{"city":"Kapaau","state_name":"Hawaii","lat":20.19602,"lng":-155.78158,"zip":"96755","miles_from_dt":20.14},{"city":"Holualoa","state_name":"Hawaii","lat":19.61243,"lng":-155.8824,"zip":"96725","miles_from_dt":20.83},{"city":"Keauhou","state_name":"Hawaii","lat":19.64857,"lng":-155.99928,"zip":"96739","miles_from_dt":22.05},{"city":"Hawi","state_name":"Hawaii","lat":20.24005,"lng":-155.83344,"zip":"96719","miles_from_dt":23.3},{"city":"Kealakekua","state_name":"Hawaii","lat":19.52404,"lng":-155.91463,"zip":"96750","miles_from_dt":27.25},{"city":"Paauilo","state_name":"Hawaii","lat":20.00156,"lng":-155.38777,"zip":"96776","miles_from_dt":27.27}],"targetCityZipCode":"96738","targetCityState":"Hawaii"},"__N_SSG":true}