{"pageProps":{"stateName":"West-virginia","cityName":"new-martinsville","nearbyCities":[{"city":"Porters Falls","state_name":"West Virginia","lat":39.57231,"lng":-80.76572,"zip":"26162","miles_from_dt":4.21},{"city":"Hannibal","state_name":"Ohio","lat":39.67288,"lng":-80.87137,"zip":"43931","miles_from_dt":6.2},{"city":"Reader","state_name":"West Virginia","lat":39.53454,"lng":-80.71429,"zip":"26167","miles_from_dt":7.37},{"city":"Pine Grove","state_name":"West Virginia","lat":39.58469,"lng":-80.631,"zip":"26419","miles_from_dt":8},{"city":"Proctor","state_name":"West Virginia","lat":39.75338,"lng":-80.77396,"zip":"26055","miles_from_dt":8.29},{"city":"Paden City","state_name":"West Virginia","lat":39.60724,"lng":-80.93216,"zip":"26159","miles_from_dt":8.99},{"city":"Sardis","state_name":"Ohio","lat":39.64792,"lng":-80.96887,"zip":"43946","miles_from_dt":10.81},{"city":"Littleton","state_name":"West Virginia","lat":39.66554,"lng":-80.56781,"zip":"26581","miles_from_dt":10.86},{"city":"Big Run","state_name":"West Virginia","lat":39.59139,"lng":-80.56981,"zip":"26561","miles_from_dt":10.92},{"city":"Clarington","state_name":"Ohio","lat":39.75775,"lng":-80.89729,"zip":"43915","miles_from_dt":11.04},{"city":"Jacksonburg","state_name":"West Virginia","lat":39.49185,"lng":-80.64068,"zip":"26377","miles_from_dt":11.86},{"city":"Sistersville","state_name":"West Virginia","lat":39.53899,"lng":-80.96577,"zip":"26175","miles_from_dt":12.44},{"city":"Middlebourne","state_name":"West Virginia","lat":39.47429,"lng":-80.88269,"zip":"26149","miles_from_dt":12.59},{"city":"Glen Easton","state_name":"West Virginia","lat":39.81641,"lng":-80.66969,"zip":"26039","miles_from_dt":13.66},{"city":"Cameron","state_name":"Ohio","lat":39.77532,"lng":-80.95288,"zip":"43914","miles_from_dt":13.93},{"city":"Laings","state_name":"Ohio","lat":39.71601,"lng":-81.0131,"zip":"43752","miles_from_dt":14.3},{"city":"Smithfield","state_name":"West Virginia","lat":39.53147,"lng":-80.5193,"zip":"26437","miles_from_dt":14.98},{"city":"Alma","state_name":"West Virginia","lat":39.41514,"lng":-80.82614,"zip":"26320","miles_from_dt":15.38},{"city":"Shirley","state_name":"West Virginia","lat":39.39706,"lng":-80.76641,"zip":"26434","miles_from_dt":16.3},{"city":"Powhatan Point","state_name":"Ohio","lat":39.86367,"lng":-80.84875,"zip":"43942","miles_from_dt":16.48},{"city":"Cameron","state_name":"West Virginia","lat":39.8284,"lng":-80.57985,"zip":"26033","miles_from_dt":16.75},{"city":"Center Point","state_name":"West Virginia","lat":39.42231,"lng":-80.60998,"zip":"26339","miles_from_dt":16.8},{"city":"Burton","state_name":"West Virginia","lat":39.63957,"lng":-80.45072,"zip":"26562","miles_from_dt":16.88},{"city":"Folsom","state_name":"West Virginia","lat":39.46035,"lng":-80.53474,"zip":"26348","miles_from_dt":17.21},{"city":"Hundred","state_name":"West Virginia","lat":39.6978,"lng":-80.43256,"zip":"26575","miles_from_dt":18.38},{"city":"Metz","state_name":"West Virginia","lat":39.6065,"lng":-80.42379,"zip":"26585","miles_from_dt":18.41},{"city":"Moundsville","state_name":"West Virginia","lat":39.89764,"lng":-80.7107,"zip":"26041","miles_from_dt":18.48},{"city":"Aleppo","state_name":"Pennsylvania","lat":39.79255,"lng":-80.48108,"zip":"15310","miles_from_dt":18.79},{"city":"Beallsville","state_name":"Ohio","lat":39.83683,"lng":-81.00752,"zip":"43716","miles_from_dt":19.01},{"city":"Friendly","state_name":"West Virginia","lat":39.45053,"lng":-81.03601,"zip":"26146","miles_from_dt":19.11},{"city":"Woodsfield","state_name":"Ohio","lat":39.74362,"lng":-81.10219,"zip":"43793","miles_from_dt":19.42},{"city":"Alledonia","state_name":"Ohio","lat":39.88731,"lng":-80.95596,"zip":"43902","miles_from_dt":20.21},{"city":"New Matamoras","state_name":"Ohio","lat":39.54367,"lng":-81.1312,"zip":"45767","miles_from_dt":20.4},{"city":"New Freeport","state_name":"Pennsylvania","lat":39.75418,"lng":-80.40253,"zip":"15352","miles_from_dt":21.14},{"city":"Mannington","state_name":"West Virginia","lat":39.53114,"lng":-80.38767,"zip":"26582","miles_from_dt":21.44},{"city":"Wallace","state_name":"West Virginia","lat":39.40595,"lng":-80.49265,"zip":"26448","miles_from_dt":21.47},{"city":"Jacobsburg","state_name":"Ohio","lat":39.93917,"lng":-80.89588,"zip":"43933","miles_from_dt":22.19},{"city":"Shadyside","state_name":"Ohio","lat":39.95448,"lng":-80.78755,"zip":"43947","miles_from_dt":22.19},{"city":"Graysville","state_name":"Ohio","lat":39.63982,"lng":-81.18816,"zip":"45734","miles_from_dt":22.47},{"city":"Glen Dale","state_name":"West Virginia","lat":39.96329,"lng":-80.72595,"zip":"26038","miles_from_dt":22.87},{"city":"Wind Ridge","state_name":"Pennsylvania","lat":39.8725,"lng":-80.4692,"zip":"15380","miles_from_dt":22.89},{"city":"Smithburg","state_name":"West Virginia","lat":39.2965,"lng":-80.71683,"zip":"26436","miles_from_dt":23.39},{"city":"Wana","state_name":"West Virginia","lat":39.67428,"lng":-80.31674,"zip":"26590","miles_from_dt":24.18},{"city":"Mcmechen","state_name":"West Virginia","lat":39.98389,"lng":-80.73104,"zip":"26040","miles_from_dt":24.26},{"city":"West Union","state_name":"West Virginia","lat":39.28078,"lng":-80.77354,"zip":"26456","miles_from_dt":24.32},{"city":"Jerusalem","state_name":"Ohio","lat":39.85784,"lng":-81.12128,"zip":"43747","miles_from_dt":24.41},{"city":"Pennsboro","state_name":"West Virginia","lat":39.29808,"lng":-80.93499,"zip":"26415","miles_from_dt":24.81},{"city":"Lumberport","state_name":"West Virginia","lat":39.39878,"lng":-80.40263,"zip":"26386","miles_from_dt":25.32},{"city":"Malaga","state_name":"Ohio","lat":39.85623,"lng":-81.14677,"zip":"43757","miles_from_dt":25.41},{"city":"Benwood","state_name":"West Virginia","lat":40.00236,"lng":-80.71985,"zip":"26031","miles_from_dt":25.59},{"city":"Four States","state_name":"West Virginia","lat":39.4871,"lng":-80.31973,"zip":"26572","miles_from_dt":25.93},{"city":"Holbrook","state_name":"Pennsylvania","lat":39.82381,"lng":-80.34728,"zip":"15341","miles_from_dt":25.94},{"city":"Salem","state_name":"West Virginia","lat":39.28758,"lng":-80.56313,"zip":"26426","miles_from_dt":26.23},{"city":"Wyatt","state_name":"West Virginia","lat":39.43174,"lng":-80.35007,"zip":"26463","miles_from_dt":26.26},{"city":"Bellaire","state_name":"Ohio","lat":40.0132,"lng":-80.80118,"zip":"43906","miles_from_dt":26.27},{"city":"Rachel","state_name":"West Virginia","lat":39.51606,"lng":-80.29751,"zip":"26587","miles_from_dt":26.34},{"city":"Lewisville","state_name":"Ohio","lat":39.75586,"lng":-81.24017,"zip":"43754","miles_from_dt":26.59},{"city":"Wingett Run","state_name":"Ohio","lat":39.5514,"lng":-81.25592,"zip":"45789","miles_from_dt":26.7},{"city":"Glencoe","state_name":"Ohio","lat":40.01088,"lng":-80.88172,"zip":"43928","miles_from_dt":26.75},{"city":"Dallas","state_name":"West Virginia","lat":39.98406,"lng":-80.54339,"zip":"26036","miles_from_dt":26.97},{"city":"Neffs","state_name":"Ohio","lat":40.02863,"lng":-80.82541,"zip":"43940","miles_from_dt":27.45},{"city":"Stafford","state_name":"Ohio","lat":39.71086,"lng":-81.27704,"zip":"43786","miles_from_dt":27.71},{"city":"Farmington","state_name":"West Virginia","lat":39.51945,"lng":-80.26013,"zip":"26571","miles_from_dt":28.18},{"city":"Worthington","state_name":"West Virginia","lat":39.45499,"lng":-80.2903,"zip":"26591","miles_from_dt":28.28},{"city":"Ellenboro","state_name":"West Virginia","lat":39.29247,"lng":-81.06294,"zip":"26346","miles_from_dt":28.34},{"city":"Carolina","state_name":"West Virginia","lat":39.48085,"lng":-80.27369,"zip":"26563","miles_from_dt":28.37},{"city":"Fairview","state_name":"West Virginia","lat":39.64284,"lng":-80.23444,"zip":"26570","miles_from_dt":28.42},{"city":"Brave","state_name":"Pennsylvania","lat":39.76514,"lng":-80.26185,"zip":"15316","miles_from_dt":28.42},{"city":"Warnock","state_name":"Ohio","lat":40.02309,"lng":-80.94371,"zip":"43967","miles_from_dt":28.49},{"city":"Saint Marys","state_name":"West Virginia","lat":39.36136,"lng":-81.17136,"zip":"26170","miles_from_dt":28.62},{"city":"Haywood","state_name":"West Virginia","lat":39.38266,"lng":-80.33474,"zip":"26366","miles_from_dt":28.86},{"city":"Belmont","state_name":"Ohio","lat":40.00926,"lng":-81.00596,"zip":"43718","miles_from_dt":28.88},{"city":"Idamay","state_name":"West Virginia","lat":39.49307,"lng":-80.25644,"zip":"26576","miles_from_dt":28.93},{"city":"Blacksville","state_name":"West Virginia","lat":39.71374,"lng":-80.23065,"zip":"26521","miles_from_dt":29.13},{"city":"Reynoldsville","state_name":"West Virginia","lat":39.29797,"lng":-80.43323,"zip":"26422","miles_from_dt":29.22},{"city":"West Finley","state_name":"Pennsylvania","lat":39.97973,"lng":-80.45083,"zip":"15377","miles_from_dt":29.23},{"city":"Bethesda","state_name":"Ohio","lat":39.98907,"lng":-81.07938,"zip":"43719","miles_from_dt":29.64},{"city":"Enterprise","state_name":"West Virginia","lat":39.42542,"lng":-80.27729,"zip":"26568","miles_from_dt":29.84},{"city":"Lower Salem","state_name":"Ohio","lat":39.61678,"lng":-81.32689,"zip":"45745","miles_from_dt":29.89}],"targetCityZipCode":"26155","targetCityState":"West Virginia"},"__N_SSG":true}