{"pageProps":{"stateName":"West-virginia","cityName":"reedy","nearbyCities":[{"city":"Le Roy","state_name":"West Virginia","lat":38.88345,"lng":-81.53679,"zip":"25252","miles_from_dt":5.55},{"city":"Palestine","state_name":"West Virginia","lat":38.98066,"lng":-81.41368,"zip":"26160","miles_from_dt":6.91},{"city":"Spencer","state_name":"West Virginia","lat":38.78803,"lng":-81.33203,"zip":"25276","miles_from_dt":8.49},{"city":"Gay","state_name":"West Virginia","lat":38.77068,"lng":-81.54237,"zip":"25244","miles_from_dt":9.64},{"city":"Creston","state_name":"West Virginia","lat":38.92925,"lng":-81.26059,"zip":"26141","miles_from_dt":9.9},{"city":"Sandyville","state_name":"West Virginia","lat":38.92451,"lng":-81.61687,"zip":"25275","miles_from_dt":10.29},{"city":"Elizabeth","state_name":"West Virginia","lat":39.06338,"lng":-81.3764,"zip":"26143","miles_from_dt":12.91},{"city":"Mount Zion","state_name":"West Virginia","lat":38.89493,"lng":-81.17503,"zip":"26151","miles_from_dt":13.99},{"city":"Gandeeville","state_name":"West Virginia","lat":38.67841,"lng":-81.48216,"zip":"25243","miles_from_dt":14.27},{"city":"Munday","state_name":"West Virginia","lat":38.98355,"lng":-81.19308,"zip":"26152","miles_from_dt":14.76},{"city":"Ripley","state_name":"West Virginia","lat":38.78845,"lng":-81.68625,"zip":"25271","miles_from_dt":15.06},{"city":"Rockport","state_name":"West Virginia","lat":39.07291,"lng":-81.57121,"zip":"26169","miles_from_dt":15.12},{"city":"Brohard","state_name":"West Virginia","lat":39.02114,"lng":-81.18155,"zip":"26138","miles_from_dt":16.65},{"city":"Ravenswood","state_name":"West Virginia","lat":38.99061,"lng":-81.71949,"zip":"26164","miles_from_dt":17.12},{"city":"Arnoldsburg","state_name":"West Virginia","lat":38.81291,"lng":-81.12343,"zip":"25234","miles_from_dt":17.41},{"city":"Looneyville","state_name":"West Virginia","lat":38.67465,"lng":-81.24836,"zip":"25259","miles_from_dt":17.45},{"city":"Walton","state_name":"West Virginia","lat":38.62098,"lng":-81.39728,"zip":"25286","miles_from_dt":18.1},{"city":"Big Bend","state_name":"West Virginia","lat":38.96553,"lng":-81.11478,"zip":"26136","miles_from_dt":18.14},{"city":"Macfarlan","state_name":"West Virginia","lat":39.07122,"lng":-81.18088,"zip":"26148","miles_from_dt":18.88},{"city":"Millstone","state_name":"West Virginia","lat":38.83027,"lng":-81.08886,"zip":"25261","miles_from_dt":18.95},{"city":"Kenna","state_name":"West Virginia","lat":38.64255,"lng":-81.61454,"zip":"25248","miles_from_dt":19.17},{"city":"Grantsville","state_name":"West Virginia","lat":38.91368,"lng":-81.07629,"zip":"26147","miles_from_dt":19.4},{"city":"Mineral Wells","state_name":"West Virginia","lat":39.1566,"lng":-81.53697,"zip":"26150","miles_from_dt":19.75},{"city":"Mineral Wells","state_name":"West Virginia","lat":39.16866,"lng":-81.49021,"zip":"26120","miles_from_dt":20.02},{"city":"Orma","state_name":"West Virginia","lat":38.73969,"lng":-81.107,"zip":"25268","miles_from_dt":20.18},{"city":"Mineral Wells","state_name":"West Virginia","lat":39.17214,"lng":-81.49489,"zip":"26121","miles_from_dt":20.3},{"city":"Given","state_name":"West Virginia","lat":38.69916,"lng":-81.7393,"zip":"25245","miles_from_dt":20.74},{"city":"Belleville","state_name":"West Virginia","lat":39.11973,"lng":-81.66968,"zip":"26133","miles_from_dt":20.75},{"city":"Advent","state_name":"West Virginia","lat":38.60464,"lng":-81.591,"zip":"25231","miles_from_dt":20.91},{"city":"Left Hand","state_name":"West Virginia","lat":38.62119,"lng":-81.23173,"zip":"25251","miles_from_dt":21.03},{"city":"Portland","state_name":"Ohio","lat":38.98586,"lng":-81.80238,"zip":"45770","miles_from_dt":21.11},{"city":"Evans","state_name":"West Virginia","lat":38.78427,"lng":-81.80801,"zip":"25241","miles_from_dt":21.27},{"city":"Millwood","state_name":"West Virginia","lat":38.90751,"lng":-81.83219,"zip":"25262","miles_from_dt":21.54},{"city":"Cottageville","state_name":"West Virginia","lat":38.84616,"lng":-81.83941,"zip":"25239","miles_from_dt":22},{"city":"Petroleum","state_name":"West Virginia","lat":39.16789,"lng":-81.2526,"zip":"26161","miles_from_dt":22.02},{"city":"Walker","state_name":"West Virginia","lat":39.20016,"lng":-81.36699,"zip":"26180","miles_from_dt":22.26},{"city":"Amma","state_name":"West Virginia","lat":38.58201,"lng":-81.26982,"zip":"25005","miles_from_dt":22.5},{"city":"Big Springs","state_name":"West Virginia","lat":39.00647,"lng":-81.0385,"zip":"26137","miles_from_dt":22.97},{"city":"Davisville","state_name":"West Virginia","lat":39.21488,"lng":-81.45431,"zip":"26142","miles_from_dt":23.01},{"city":"Chloe","state_name":"West Virginia","lat":38.66939,"lng":-81.08874,"zip":"25235","miles_from_dt":23.71},{"city":"Newton","state_name":"West Virginia","lat":38.60224,"lng":-81.1589,"zip":"25266","miles_from_dt":24.34},{"city":"Shock","state_name":"West Virginia","lat":38.77265,"lng":-80.99878,"zip":"26638","miles_from_dt":24.66},{"city":"Mount Alto","state_name":"West Virginia","lat":38.85547,"lng":-81.89516,"zip":"25264","miles_from_dt":24.94},{"city":"Smithville","state_name":"West Virginia","lat":39.06001,"lng":-81.02888,"zip":"26178","miles_from_dt":25.04},{"city":"Parkersburg","state_name":"West Virginia","lat":39.23975,"lng":-81.5164,"zip":"26102","miles_from_dt":25.09},{"city":"Liberty","state_name":"West Virginia","lat":38.62006,"lng":-81.76536,"zip":"25124","miles_from_dt":25.42},{"city":"Parkersburg","state_name":"West Virginia","lat":39.23394,"lng":-81.57483,"zip":"26101","miles_from_dt":25.45},{"city":"Charleston","state_name":"West Virginia","lat":38.54124,"lng":-81.62706,"zip":"25320","miles_from_dt":25.7},{"city":"Washington","state_name":"West Virginia","lat":39.20707,"lng":-81.6733,"zip":"26181","miles_from_dt":25.87},{"city":"Racine","state_name":"Ohio","lat":38.98204,"lng":-81.89902,"zip":"45771","miles_from_dt":25.99},{"city":"Long Bottom","state_name":"Ohio","lat":39.076,"lng":-81.85017,"zip":"45743","miles_from_dt":26.11},{"city":"Parkersburg","state_name":"West Virginia","lat":39.24827,"lng":-81.5572,"zip":"26103","miles_from_dt":26.14},{"city":"Normantown","state_name":"West Virginia","lat":38.85778,"lng":-80.94187,"zip":"25267","miles_from_dt":26.59},{"city":"Hockingport","state_name":"Ohio","lat":39.19055,"lng":-81.7462,"zip":"45739","miles_from_dt":27.13},{"city":"Parkersburg","state_name":"West Virginia","lat":39.27413,"lng":-81.47779,"zip":"26104","miles_from_dt":27.17},{"city":"Rosedale","state_name":"West Virginia","lat":38.73386,"lng":-80.96599,"zip":"26636","miles_from_dt":27.24},{"city":"Leon","state_name":"West Virginia","lat":38.73172,"lng":-81.90214,"zip":"25123","miles_from_dt":27.31},{"city":"Reedsville","state_name":"Ohio","lat":39.1408,"lng":-81.82268,"zip":"45772","miles_from_dt":27.51},{"city":"Nebo","state_name":"West Virginia","lat":38.6305,"lng":-81.03592,"zip":"25141","miles_from_dt":27.61},{"city":"Harrisville","state_name":"West Virginia","lat":39.15457,"lng":-81.05705,"zip":"26362","miles_from_dt":27.67},{"city":"Elkview","state_name":"West Virginia","lat":38.47732,"lng":-81.46756,"zip":"25071","miles_from_dt":27.96},{"city":"Falling Rock","state_name":"West Virginia","lat":38.47512,"lng":-81.38895,"zip":"25079","miles_from_dt":28.15},{"city":"Cairo","state_name":"West Virginia","lat":39.23856,"lng":-81.16388,"zip":"26337","miles_from_dt":28.58},{"city":"Letart","state_name":"West Virginia","lat":38.91947,"lng":-81.9669,"zip":"25253","miles_from_dt":28.84},{"city":"Wallback","state_name":"West Virginia","lat":38.54723,"lng":-81.1129,"zip":"25285","miles_from_dt":28.87},{"city":"Waverly","state_name":"West Virginia","lat":39.29739,"lng":-81.35086,"zip":"26184","miles_from_dt":29.02},{"city":"Procious","state_name":"West Virginia","lat":38.50406,"lng":-81.19373,"zip":"25164","miles_from_dt":29.11},{"city":"Tuppers Plains","state_name":"Ohio","lat":39.17505,"lng":-81.83929,"zip":"45783","miles_from_dt":29.75},{"city":"New Haven","state_name":"West Virginia","lat":38.98129,"lng":-81.97356,"zip":"25265","miles_from_dt":29.87},{"city":"Clendenin","state_name":"West Virginia","lat":38.45603,"lng":-81.32474,"zip":"25045","miles_from_dt":29.95}],"targetCityZipCode":"25270","targetCityState":"West Virginia"},"__N_SSG":true}