{"pageProps":{"stateName":"Kentucky","cityName":"brodhead","nearbyCities":[{"city":"Renfro Valley","state_name":"Kentucky","lat":37.38853,"lng":-84.33044,"zip":"40473","miles_from_dt":5.52},{"city":"Crab Orchard","state_name":"Kentucky","lat":37.44791,"lng":-84.49204,"zip":"40419","miles_from_dt":5.99},{"city":"Mount Vernon","state_name":"Kentucky","lat":37.3538,"lng":-84.32099,"zip":"40456","miles_from_dt":6.19},{"city":"Wildie","state_name":"Kentucky","lat":37.42057,"lng":-84.2997,"zip":"40492","miles_from_dt":7.77},{"city":"Orlando","state_name":"Kentucky","lat":37.39385,"lng":-84.23985,"zip":"40460","miles_from_dt":10.51},{"city":"Waynesburg","state_name":"Kentucky","lat":37.36629,"lng":-84.64435,"zip":"40489","miles_from_dt":11.84},{"city":"Eubank","state_name":"Kentucky","lat":37.26441,"lng":-84.60454,"zip":"42567","miles_from_dt":12.36},{"city":"Livingston","state_name":"Kentucky","lat":37.3125,"lng":-84.21159,"zip":"40445","miles_from_dt":12.8},{"city":"Paint Lick","state_name":"Kentucky","lat":37.59014,"lng":-84.40849,"zip":"40461","miles_from_dt":14.77},{"city":"Berea","state_name":"Kentucky","lat":37.57311,"lng":-84.29037,"zip":"40404","miles_from_dt":15.56},{"city":"Somerset","state_name":"Kentucky","lat":37.15677,"lng":-84.52511,"zip":"42503","miles_from_dt":16.05},{"city":"Berea","state_name":"Kentucky","lat":37.57052,"lng":-84.26622,"zip":"40403","miles_from_dt":16.11},{"city":"Kings Mountain","state_name":"Kentucky","lat":37.35205,"lng":-84.72868,"zip":"40442","miles_from_dt":16.54},{"city":"Stanford","state_name":"Kentucky","lat":37.5153,"lng":-84.676,"zip":"40484","miles_from_dt":16.58},{"city":"Bighill","state_name":"Kentucky","lat":37.55775,"lng":-84.20809,"zip":"40405","miles_from_dt":17.45},{"city":"East Bernstadt","state_name":"Kentucky","lat":37.2435,"lng":-84.14788,"zip":"40729","miles_from_dt":18.04},{"city":"McKinney","state_name":"Kentucky","lat":37.45624,"lng":-84.75799,"zip":"40448","miles_from_dt":18.87},{"city":"Sandgap","state_name":"Kentucky","lat":37.42658,"lng":-84.09116,"zip":"40481","miles_from_dt":18.94},{"city":"Yosemite","state_name":"Kentucky","lat":37.28389,"lng":-84.77932,"zip":"42566","miles_from_dt":20.29},{"city":"Science Hill","state_name":"Kentucky","lat":37.1716,"lng":-84.70056,"zip":"42553","miles_from_dt":20.56},{"city":"Middleburg","state_name":"Kentucky","lat":37.37325,"lng":-84.80778,"zip":"42541","miles_from_dt":20.81},{"city":"London","state_name":"Kentucky","lat":37.14339,"lng":-84.18706,"zip":"40750","miles_from_dt":20.92},{"city":"Somerset","state_name":"Kentucky","lat":37.09586,"lng":-84.60369,"zip":"42502","miles_from_dt":21.61},{"city":"Somerset","state_name":"Kentucky","lat":37.06174,"lng":-84.44973,"zip":"42501","miles_from_dt":21.75},{"city":"Bethelridge","state_name":"Kentucky","lat":37.22247,"lng":-84.77881,"zip":"42516","miles_from_dt":21.98},{"city":"West Somerset","state_name":"Kentucky","lat":37.08839,"lng":-84.60085,"zip":"42564","miles_from_dt":22.01},{"city":"Waneta","state_name":"Kentucky","lat":37.47481,"lng":-84.03829,"zip":"40488","miles_from_dt":22.57},{"city":"Lancaster","state_name":"Kentucky","lat":37.67893,"lng":-84.58819,"zip":"40444","miles_from_dt":22.59},{"city":"McKee","state_name":"Kentucky","lat":37.45496,"lng":-84.0299,"zip":"40447","miles_from_dt":22.65},{"city":"Ferguson","state_name":"Kentucky","lat":37.06752,"lng":-84.59382,"zip":"42533","miles_from_dt":23.16},{"city":"Pittsburg","state_name":"Kentucky","lat":37.15958,"lng":-84.1041,"zip":"40755","miles_from_dt":23.37},{"city":"Hustonville","state_name":"Kentucky","lat":37.44531,"lng":-84.85486,"zip":"40437","miles_from_dt":23.86},{"city":"London","state_name":"Kentucky","lat":37.13349,"lng":-84.11636,"zip":"40741","miles_from_dt":24.07},{"city":"London","state_name":"Kentucky","lat":37.08965,"lng":-84.14659,"zip":"40742","miles_from_dt":25.21},{"city":"London","state_name":"Kentucky","lat":37.08879,"lng":-84.14358,"zip":"40745","miles_from_dt":25.36},{"city":"London","state_name":"Kentucky","lat":37.12917,"lng":-84.08234,"zip":"40743","miles_from_dt":25.65},{"city":"Annville","state_name":"Kentucky","lat":37.29663,"lng":-83.97008,"zip":"40402","miles_from_dt":25.9},{"city":"Junction City","state_name":"Kentucky","lat":37.57628,"lng":-84.8322,"zip":"40440","miles_from_dt":26.06},{"city":"Bryantsville","state_name":"Kentucky","lat":37.71387,"lng":-84.64697,"zip":"40410","miles_from_dt":26.14},{"city":"Danville","state_name":"Kentucky","lat":37.64316,"lng":-84.7715,"zip":"40423","miles_from_dt":26.27},{"city":"Richmond","state_name":"Kentucky","lat":37.74898,"lng":-84.29351,"zip":"40476","miles_from_dt":26.74},{"city":"Gray Hawk","state_name":"Kentucky","lat":37.39364,"lng":-83.93949,"zip":"40434","miles_from_dt":27},{"city":"Richmond","state_name":"Kentucky","lat":37.7635,"lng":-84.30828,"zip":"40475","miles_from_dt":27.5},{"city":"Danville","state_name":"Kentucky","lat":37.64235,"lng":-84.80488,"zip":"40422","miles_from_dt":27.58},{"city":"Bush","state_name":"Kentucky","lat":37.07756,"lng":-84.08286,"zip":"40724","miles_from_dt":28.13},{"city":"Liberty","state_name":"Kentucky","lat":37.30566,"lng":-84.95265,"zip":"42539","miles_from_dt":29.21},{"city":"Parksville","state_name":"Kentucky","lat":37.55579,"lng":-84.91148,"zip":"40464","miles_from_dt":29.22},{"city":"Waco","state_name":"Kentucky","lat":37.73866,"lng":-84.13085,"zip":"40385","miles_from_dt":29.87},{"city":"London","state_name":"Kentucky","lat":37.03841,"lng":-84.08864,"zip":"40744","miles_from_dt":29.97}],"targetCityZipCode":"40409","targetCityState":"Kentucky"},"__N_SSG":true}