{"pageProps":{"stateName":"Kentucky","cityName":"butler","nearbyCities":[{"city":"De Mossville","state_name":"Kentucky","lat":38.77131,"lng":-84.46114,"zip":"41033","miles_from_dt":6.45},{"city":"Neville","state_name":"Ohio","lat":38.80947,"lng":-84.21348,"zip":"45156","miles_from_dt":7.2},{"city":"California","state_name":"Kentucky","lat":38.89289,"lng":-84.30788,"zip":"41007","miles_from_dt":7.7},{"city":"Foster","state_name":"Kentucky","lat":38.75644,"lng":-84.19832,"zip":"41043","miles_from_dt":8.05},{"city":"Kenton","state_name":"Kentucky","lat":38.86706,"lng":-84.45858,"zip":"41053","miles_from_dt":8.43},{"city":"Falmouth","state_name":"Kentucky","lat":38.65232,"lng":-84.33188,"zip":"41040","miles_from_dt":9.15},{"city":"Alexandria","state_name":"Kentucky","lat":38.91409,"lng":-84.40256,"zip":"41001","miles_from_dt":9.48},{"city":"Morning View","state_name":"Kentucky","lat":38.85323,"lng":-84.49983,"zip":"41063","miles_from_dt":9.69},{"city":"Moscow","state_name":"Ohio","lat":38.86977,"lng":-84.18474,"zip":"45153","miles_from_dt":10.36},{"city":"Chilo","state_name":"Ohio","lat":38.79377,"lng":-84.14144,"zip":"45112","miles_from_dt":10.9},{"city":"Crittenden","state_name":"Kentucky","lat":38.78582,"lng":-84.58754,"zip":"41030","miles_from_dt":13.2},{"city":"New Richmond","state_name":"Ohio","lat":38.95599,"lng":-84.22824,"zip":"45157","miles_from_dt":13.33},{"city":"Felicity","state_name":"Ohio","lat":38.82597,"lng":-84.09301,"zip":"45120","miles_from_dt":13.79},{"city":"Independence","state_name":"Kentucky","lat":38.93233,"lng":-84.54451,"zip":"41051","miles_from_dt":14.89},{"city":"Melbourne","state_name":"Kentucky","lat":39.00504,"lng":-84.35213,"zip":"41059","miles_from_dt":15.2},{"city":"Latonia","state_name":"Kentucky","lat":38.97885,"lng":-84.48456,"zip":"41015","miles_from_dt":15.41},{"city":"Brooksville","state_name":"Kentucky","lat":38.65549,"lng":-84.10134,"zip":"41004","miles_from_dt":15.81},{"city":"Walton","state_name":"Kentucky","lat":38.88213,"lng":-84.62292,"zip":"41094","miles_from_dt":16.53},{"city":"Newport","state_name":"Kentucky","lat":39.0178,"lng":-84.44084,"zip":"41076","miles_from_dt":16.92},{"city":"Williamstown","state_name":"Kentucky","lat":38.62088,"lng":-84.58033,"zip":"41097","miles_from_dt":17.1},{"city":"Milford","state_name":"Kentucky","lat":38.58265,"lng":-84.15486,"zip":"41061","miles_from_dt":17.26},{"city":"Silver Grove","state_name":"Kentucky","lat":39.03508,"lng":-84.39378,"zip":"41085","miles_from_dt":17.48},{"city":"Berry","state_name":"Kentucky","lat":38.53181,"lng":-84.39164,"zip":"41003","miles_from_dt":17.64},{"city":"Amelia","state_name":"Ohio","lat":39.01718,"lng":-84.20602,"zip":"45102","miles_from_dt":17.65},{"city":"Dry Ridge","state_name":"Kentucky","lat":38.70322,"lng":-84.66141,"zip":"41035","miles_from_dt":18.1},{"city":"Newport","state_name":"Kentucky","lat":39.03231,"lng":-84.46336,"zip":"41099","miles_from_dt":18.27},{"city":"Bethel","state_name":"Ohio","lat":38.94633,"lng":-84.06831,"zip":"45106","miles_from_dt":18.54},{"city":"Cincinnati","state_name":"Ohio","lat":39.05862,"lng":-84.32675,"zip":"45255","miles_from_dt":18.91},{"city":"Mason","state_name":"Kentucky","lat":38.57837,"lng":-84.58434,"zip":"41054","miles_from_dt":19.31},{"city":"Cincinnati","state_name":"Ohio","lat":39.06065,"lng":-84.27748,"zip":"45245","miles_from_dt":19.36},{"city":"Verona","state_name":"Kentucky","lat":38.81811,"lng":-84.70115,"zip":"41092","miles_from_dt":19.47},{"city":"Feesburg","state_name":"Ohio","lat":38.8781,"lng":-83.99927,"zip":"45119","miles_from_dt":19.63},{"city":"Augusta","state_name":"Kentucky","lat":38.73002,"lng":-83.98282,"zip":"41002","miles_from_dt":19.82},{"city":"Cincinnati","state_name":"Ohio","lat":39.07445,"lng":-84.39082,"zip":"45230","miles_from_dt":20.15},{"city":"Higginsport","state_name":"Ohio","lat":38.78997,"lng":-83.96729,"zip":"45131","miles_from_dt":20.29},{"city":"Hamersville","state_name":"Ohio","lat":38.90886,"lng":-83.99897,"zip":"45130","miles_from_dt":20.44},{"city":"Ft Mitchell","state_name":"Kentucky","lat":39.02893,"lng":-84.56177,"zip":"41017","miles_from_dt":20.56},{"city":"Fort Thomas","state_name":"Kentucky","lat":39.07838,"lng":-84.45248,"zip":"41075","miles_from_dt":21.1},{"city":"Erlanger","state_name":"Kentucky","lat":39.01546,"lng":-84.60282,"zip":"41018","miles_from_dt":21.2},{"city":"Covington","state_name":"Kentucky","lat":39.0655,"lng":-84.50464,"zip":"41014","miles_from_dt":21.24},{"city":"Newport","state_name":"Kentucky","lat":39.0732,"lng":-84.48211,"zip":"41071","miles_from_dt":21.26},{"city":"Florence","state_name":"Kentucky","lat":38.98976,"lng":-84.64282,"zip":"41022","miles_from_dt":21.48},{"city":"Florence","state_name":"Kentucky","lat":38.98595,"lng":-84.64906,"zip":"41042","miles_from_dt":21.56},{"city":"Newport","state_name":"Kentucky","lat":39.07958,"lng":-84.48034,"zip":"41072","miles_from_dt":21.64},{"city":"Covington","state_name":"Kentucky","lat":39.06802,"lng":-84.53065,"zip":"41011","miles_from_dt":22},{"city":"Covington","state_name":"Kentucky","lat":39.06964,"lng":-84.52981,"zip":"41019","miles_from_dt":22.08},{"city":"Covington","state_name":"Kentucky","lat":39.06885,"lng":-84.53293,"zip":"41012","miles_from_dt":22.11},{"city":"Cincinnati","state_name":"Ohio","lat":39.11149,"lng":-84.41989,"zip":"45226","miles_from_dt":22.92},{"city":"Bellevue","state_name":"Kentucky","lat":39.10123,"lng":-84.47748,"zip":"41073","miles_from_dt":23},{"city":"Cincinnati","state_name":"Ohio","lat":39.12009,"lng":-84.32764,"zip":"45244","miles_from_dt":23.15},{"city":"Union","state_name":"Kentucky","lat":38.92056,"lng":-84.7379,"zip":"41091","miles_from_dt":23.27},{"city":"Dayton","state_name":"Kentucky","lat":39.11018,"lng":-84.4607,"zip":"41074","miles_from_dt":23.33},{"city":"Germantown","state_name":"Kentucky","lat":38.60513,"lng":-83.97265,"zip":"41044","miles_from_dt":23.54},{"city":"Covington","state_name":"Kentucky","lat":39.08701,"lng":-84.5487,"zip":"41016","miles_from_dt":23.61},{"city":"Minerva","state_name":"Kentucky","lat":38.70378,"lng":-83.91717,"zip":"41062","miles_from_dt":23.67},{"city":"Cincinnati","state_name":"Ohio","lat":39.10106,"lng":-84.51407,"zip":"45273","miles_from_dt":23.69},{"city":"Cincinnati","state_name":"Ohio","lat":39.10547,"lng":-84.50184,"zip":"45254","miles_from_dt":23.72},{"city":"Cincinnati","state_name":"Ohio","lat":39.10383,"lng":-84.50755,"zip":"45299","miles_from_dt":23.73},{"city":"Mount Olivet","state_name":"Kentucky","lat":38.51462,"lng":-84.07106,"zip":"41064","miles_from_dt":23.74},{"city":"Cincinnati","state_name":"Ohio","lat":39.09951,"lng":-84.52467,"zip":"45298","miles_from_dt":23.82},{"city":"Cincinnati","state_name":"Ohio","lat":39.10879,"lng":-84.50125,"zip":"45201","miles_from_dt":23.92},{"city":"Cincinnati","state_name":"Ohio","lat":39.10885,"lng":-84.50243,"zip":"45202","miles_from_dt":23.95},{"city":"Batavia","state_name":"Ohio","lat":39.0946,"lng":-84.14006,"zip":"45103","miles_from_dt":24.01},{"city":"Cincinnati","state_name":"Ohio","lat":39.10233,"lng":-84.52697,"zip":"45999","miles_from_dt":24.04},{"city":"Georgetown","state_name":"Ohio","lat":38.86769,"lng":-83.90911,"zip":"45121","miles_from_dt":24.1},{"city":"Cincinnati","state_name":"Ohio","lat":39.10092,"lng":-84.53588,"zip":"45270","miles_from_dt":24.16},{"city":"Corinth","state_name":"Kentucky","lat":38.50085,"lng":-84.60763,"zip":"41010","miles_from_dt":24.26},{"city":"Cincinnati","state_name":"Ohio","lat":39.1037,"lng":-84.53283,"zip":"45296","miles_from_dt":24.26},{"city":"Cincinnati","state_name":"Ohio","lat":39.10403,"lng":-84.53337,"zip":"45203","miles_from_dt":24.3},{"city":"Dover","state_name":"Kentucky","lat":38.70104,"lng":-83.90426,"zip":"41034","miles_from_dt":24.39},{"city":"Cincinnati","state_name":"Ohio","lat":39.10437,"lng":-84.53787,"zip":"45264","miles_from_dt":24.42},{"city":"Cincinnati","state_name":"Ohio","lat":39.10624,"lng":-84.53487,"zip":"45269","miles_from_dt":24.47},{"city":"Cincinnati","state_name":"Ohio","lat":39.10798,"lng":-84.53418,"zip":"45263","miles_from_dt":24.56},{"city":"Erlanger","state_name":"Kentucky","lat":39.06016,"lng":-84.63269,"zip":"41025","miles_from_dt":24.59},{"city":"Cincinnati","state_name":"Ohio","lat":39.13522,"lng":-84.43393,"zip":"45208","miles_from_dt":24.67},{"city":"Cincinnati","state_name":"Ohio","lat":39.09536,"lng":-84.57225,"zip":"45204","miles_from_dt":24.73},{"city":"Cincinnati","state_name":"Ohio","lat":39.12736,"lng":-84.48451,"zip":"45206","miles_from_dt":24.83},{"city":"Jonesville","state_name":"Kentucky","lat":38.65914,"lng":-84.77777,"zip":"41052","miles_from_dt":25.04},{"city":"Cincinnati","state_name":"Ohio","lat":39.12668,"lng":-84.51201,"zip":"45219","miles_from_dt":25.28},{"city":"Warsaw","state_name":"Kentucky","lat":38.79033,"lng":-84.81567,"zip":"41095","miles_from_dt":25.52},{"city":"Glencoe","state_name":"Kentucky","lat":38.70953,"lng":-84.80637,"zip":"41046","miles_from_dt":25.56},{"city":"Cincinnati","state_name":"Ohio","lat":39.11899,"lng":-84.54792,"zip":"45250","miles_from_dt":25.56},{"city":"Cincinnati","state_name":"Ohio","lat":39.15403,"lng":-84.38524,"zip":"45227","miles_from_dt":25.57},{"city":"Cincinnati","state_name":"Ohio","lat":39.14199,"lng":-84.4713,"zip":"45207","miles_from_dt":25.59},{"city":"Cincinnati","state_name":"Ohio","lat":39.13032,"lng":-84.51693,"zip":"45221","miles_from_dt":25.61},{"city":"Cincinnati","state_name":"Ohio","lat":39.12209,"lng":-84.54413,"zip":"45262","miles_from_dt":25.67},{"city":"Cincinnati","state_name":"Ohio","lat":39.12271,"lng":-84.54442,"zip":"45214","miles_from_dt":25.71},{"city":"Cincinnati","state_name":"Ohio","lat":39.11057,"lng":-84.57518,"zip":"45205","miles_from_dt":25.72},{"city":"Cynthiana","state_name":"Kentucky","lat":38.41383,"lng":-84.28631,"zip":"41031","miles_from_dt":25.77},{"city":"Cincinnati","state_name":"Ohio","lat":39.15336,"lng":-84.42762,"zip":"45209","miles_from_dt":25.83},{"city":"Terrace Park","state_name":"Ohio","lat":39.1588,"lng":-84.31073,"zip":"45174","miles_from_dt":25.86},{"city":"Cincinnati","state_name":"Ohio","lat":39.13812,"lng":-84.5031,"zip":"45267","miles_from_dt":25.86},{"city":"Owensville","state_name":"Ohio","lat":39.12358,"lng":-84.13725,"zip":"45160","miles_from_dt":25.87},{"city":"Cincinnati","state_name":"Ohio","lat":39.13832,"lng":-84.50447,"zip":"45275","miles_from_dt":25.89},{"city":"Cincinnati","state_name":"Ohio","lat":39.14856,"lng":-84.46149,"zip":"45277","miles_from_dt":25.89},{"city":"Cincinnati","state_name":"Ohio","lat":39.13618,"lng":-84.53686,"zip":"45271","miles_from_dt":26.4},{"city":"Cincinnati","state_name":"Ohio","lat":39.13814,"lng":-84.53632,"zip":"45274","miles_from_dt":26.51},{"city":"Cincinnati","state_name":"Ohio","lat":39.15342,"lng":-84.48612,"zip":"45229","miles_from_dt":26.57},{"city":"Cincinnati","state_name":"Ohio","lat":39.10927,"lng":-84.61053,"zip":"45238","miles_from_dt":26.62},{"city":"Cincinnati","state_name":"Ohio","lat":39.16,"lng":-84.46219,"zip":"45280","miles_from_dt":26.67},{"city":"Cincinnati","state_name":"Ohio","lat":39.14736,"lng":-84.52101,"zip":"45220","miles_from_dt":26.79},{"city":"Cincinnati","state_name":"Ohio","lat":39.16403,"lng":-84.45173,"zip":"45212","miles_from_dt":26.81},{"city":"Cincinnati","state_name":"Ohio","lat":39.14845,"lng":-84.5199,"zip":"45268","miles_from_dt":26.84},{"city":"Milford","state_name":"Ohio","lat":39.16567,"lng":-84.23281,"zip":"45150","miles_from_dt":26.94},{"city":"Williamsburg","state_name":"Ohio","lat":39.08438,"lng":-84.02205,"zip":"45176","miles_from_dt":26.95},{"city":"Cincinnati","state_name":"Ohio","lat":39.14341,"lng":-84.55267,"zip":"45225","miles_from_dt":27.2},{"city":"Patriot","state_name":"Indiana","lat":38.84588,"lng":-84.84212,"zip":"47038","miles_from_dt":27.26},{"city":"Hebron","state_name":"Kentucky","lat":39.066,"lng":-84.69989,"zip":"41021","miles_from_dt":27.32},{"city":"Burlington","state_name":"Kentucky","lat":39.00709,"lng":-84.76541,"zip":"41005","miles_from_dt":27.45},{"city":"Mount Saint Joseph","state_name":"Ohio","lat":39.09983,"lng":-84.65504,"zip":"45051","miles_from_dt":27.48},{"city":"Cincinnati","state_name":"Ohio","lat":39.18381,"lng":-84.34171,"zip":"45243","miles_from_dt":27.53},{"city":"Cincinnati","state_name":"Ohio","lat":39.18111,"lng":-84.42006,"zip":"45213","miles_from_dt":27.65},{"city":"Cincinnati","state_name":"Ohio","lat":39.16718,"lng":-84.49792,"zip":"45217","miles_from_dt":27.67},{"city":"Hebron","state_name":"Kentucky","lat":39.08366,"lng":-84.70585,"zip":"41048","miles_from_dt":28.41},{"city":"Cincinnati","state_name":"Ohio","lat":39.19365,"lng":-84.44642,"zip":"45222","miles_from_dt":28.75},{"city":"Cincinnati","state_name":"Ohio","lat":39.19298,"lng":-84.45244,"zip":"45237","miles_from_dt":28.77},{"city":"Sadieville","state_name":"Kentucky","lat":38.39382,"lng":-84.52971,"zip":"40370","miles_from_dt":28.8},{"city":"Camp Dennison","state_name":"Ohio","lat":39.20033,"lng":-84.28746,"zip":"45111","miles_from_dt":28.82},{"city":"Cincinnati","state_name":"Ohio","lat":39.1696,"lng":-84.55354,"zip":"45223","miles_from_dt":28.87},{"city":"Cincinnati","state_name":"Ohio","lat":39.1191,"lng":-84.66559,"zip":"45233","miles_from_dt":28.88},{"city":"Cincinnati","state_name":"Ohio","lat":39.1818,"lng":-84.51673,"zip":"45232","miles_from_dt":28.94},{"city":"Cincinnati","state_name":"Ohio","lat":39.14068,"lng":-84.62751,"zip":"45258","miles_from_dt":28.94},{"city":"Cincinnati","state_name":"Ohio","lat":39.15746,"lng":-84.59888,"zip":"45211","miles_from_dt":29.17},{"city":"Ripley","state_name":"Ohio","lat":38.77234,"lng":-83.79943,"zip":"45167","miles_from_dt":29.36},{"city":"Cincinnati","state_name":"Ohio","lat":39.20949,"lng":-84.39701,"zip":"45236","miles_from_dt":29.44},{"city":"Miamiville","state_name":"Ohio","lat":39.21114,"lng":-84.30192,"zip":"45147","miles_from_dt":29.5},{"city":"Cincinnati","state_name":"Ohio","lat":39.20054,"lng":-84.48114,"zip":"45216","miles_from_dt":29.63},{"city":"Mount Orab","state_name":"Ohio","lat":39.06137,"lng":-83.91997,"zip":"45154","miles_from_dt":29.73},{"city":"Sparta","state_name":"Kentucky","lat":38.69219,"lng":-84.88241,"zip":"41086","miles_from_dt":29.83}],"targetCityZipCode":"41006","targetCityState":"Kentucky"},"__N_SSG":true}