{"pageProps":{"stateName":"Kentucky","cityName":"dycusburg","nearbyCities":[{"city":"Tiline","state_name":"Kentucky","lat":37.16381,"lng":-88.27767,"zip":"42083","miles_from_dt":5.16},{"city":"Kuttawa","state_name":"Kentucky","lat":37.06959,"lng":-88.16765,"zip":"42055","miles_from_dt":6.2},{"city":"Grand Rivers","state_name":"Kentucky","lat":37.072,"lng":-88.26453,"zip":"42045","miles_from_dt":7.42},{"city":"Fredonia","state_name":"Kentucky","lat":37.20315,"lng":-88.02852,"zip":"42411","miles_from_dt":9.14},{"city":"Crayne","state_name":"Kentucky","lat":37.27186,"lng":-88.07953,"zip":"42033","miles_from_dt":9.73},{"city":"Burna","state_name":"Kentucky","lat":37.23637,"lng":-88.33946,"zip":"42028","miles_from_dt":10.1},{"city":"Salem","state_name":"Kentucky","lat":37.28876,"lng":-88.27202,"zip":"42078","miles_from_dt":10.2},{"city":"Eddyville","state_name":"Kentucky","lat":37.04137,"lng":-88.02364,"zip":"42038","miles_from_dt":12},{"city":"Smithland","state_name":"Kentucky","lat":37.22821,"lng":-88.40274,"zip":"42081","miles_from_dt":12.97},{"city":"Marion","state_name":"Kentucky","lat":37.35022,"lng":-88.09158,"zip":"42064","miles_from_dt":14.18},{"city":"Gilbertsville","state_name":"Kentucky","lat":36.95744,"lng":-88.26417,"zip":"42044","miles_from_dt":14.54},{"city":"Hampton","state_name":"Kentucky","lat":37.30061,"lng":-88.39046,"zip":"42047","miles_from_dt":15.01},{"city":"Calvert City","state_name":"Kentucky","lat":37.00963,"lng":-88.38947,"zip":"42029","miles_from_dt":15.29},{"city":"Ledbetter","state_name":"Kentucky","lat":37.05329,"lng":-88.4714,"zip":"42058","miles_from_dt":17.43},{"city":"Princeton","state_name":"Kentucky","lat":37.12861,"lng":-87.86052,"zip":"42445","miles_from_dt":18},{"city":"Brookport","state_name":"Illinois","lat":37.1562,"lng":-88.53075,"zip":"62910","miles_from_dt":19.12},{"city":"Rosiclare","state_name":"Illinois","lat":37.42808,"lng":-88.35967,"zip":"62982","miles_from_dt":20.95},{"city":"Benton","state_name":"Kentucky","lat":36.85764,"lng":-88.33441,"zip":"42025","miles_from_dt":22.34},{"city":"Symsonia","state_name":"Kentucky","lat":36.91618,"lng":-88.50092,"zip":"42082","miles_from_dt":24.19},{"city":"Paducah","state_name":"Kentucky","lat":37.00653,"lng":-88.58472,"zip":"42003","miles_from_dt":24.47},{"city":"Cave In Rock","state_name":"Illinois","lat":37.52057,"lng":-88.14653,"zip":"62919","miles_from_dt":25.06},{"city":"Paducah","state_name":"Kentucky","lat":37.06855,"lng":-88.62494,"zip":"42002","miles_from_dt":25.11},{"city":"Golconda","state_name":"Illinois","lat":37.38249,"lng":-88.54676,"zip":"62938","miles_from_dt":25.25},{"city":"Elizabethtown","state_name":"Illinois","lat":37.52813,"lng":-88.27953,"zip":"62931","miles_from_dt":26.03},{"city":"Sullivan","state_name":"Kentucky","lat":37.49873,"lng":-87.94526,"zip":"42460","miles_from_dt":26.91},{"city":"Hardin","state_name":"Kentucky","lat":36.76676,"lng":-88.23533,"zip":"42048","miles_from_dt":27.16},{"city":"Dawson Springs","state_name":"Kentucky","lat":37.1797,"lng":-87.69229,"zip":"42408","miles_from_dt":27.2},{"city":"Providence","state_name":"Kentucky","lat":37.38741,"lng":-87.77535,"zip":"42450","miles_from_dt":27.52},{"city":"Wheatcroft","state_name":"Kentucky","lat":37.47897,"lng":-87.86717,"zip":"42463","miles_from_dt":28.18},{"city":"Clay","state_name":"Kentucky","lat":37.47878,"lng":-87.83636,"zip":"42404","miles_from_dt":29.25},{"city":"Sturgis","state_name":"Kentucky","lat":37.5637,"lng":-88.01837,"zip":"42459","miles_from_dt":29.4},{"city":"Metropolis","state_name":"Illinois","lat":37.22515,"lng":-88.71097,"zip":"62960","miles_from_dt":29.41},{"city":"Boaz","state_name":"Kentucky","lat":36.91585,"lng":-88.63018,"zip":"42027","miles_from_dt":29.78}],"targetCityZipCode":"42037","targetCityState":"Kentucky"},"__N_SSG":true}