{"pageProps":{"stateName":"Kentucky","cityName":"falls-of-rough","nearbyCities":[{"city":"McDaniels","state_name":"Kentucky","lat":37.61389,"lng":-86.44185,"zip":"40152","miles_from_dt":5.91},{"city":"McQuady","state_name":"Kentucky","lat":37.70793,"lng":-86.52117,"zip":"40153","miles_from_dt":7.06},{"city":"Fordsville","state_name":"Kentucky","lat":37.63594,"lng":-86.69795,"zip":"42343","miles_from_dt":8.38},{"city":"Westview","state_name":"Kentucky","lat":37.65834,"lng":-86.40853,"zip":"40178","miles_from_dt":8.46},{"city":"Olaton","state_name":"Kentucky","lat":37.51791,"lng":-86.69183,"zip":"42361","miles_from_dt":9.99},{"city":"Hardinsburg","state_name":"Kentucky","lat":37.78541,"lng":-86.50507,"zip":"40143","miles_from_dt":12.47},{"city":"Cloverport","state_name":"Kentucky","lat":37.77881,"lng":-86.62881,"zip":"40111","miles_from_dt":12.56},{"city":"Hudson","state_name":"Kentucky","lat":37.64607,"lng":-86.32019,"zip":"40145","miles_from_dt":12.84},{"city":"Dundee","state_name":"Kentucky","lat":37.55295,"lng":-86.77408,"zip":"42338","miles_from_dt":12.91},{"city":"Caneyville","state_name":"Kentucky","lat":37.42173,"lng":-86.49593,"zip":"42721","miles_from_dt":13.18},{"city":"Reynolds Station","state_name":"Kentucky","lat":37.71258,"lng":-86.75133,"zip":"42368","miles_from_dt":13.22},{"city":"Millwood","state_name":"Kentucky","lat":37.45366,"lng":-86.39527,"zip":"42762","miles_from_dt":13.59},{"city":"Harned","state_name":"Kentucky","lat":37.75899,"lng":-86.37732,"zip":"40144","miles_from_dt":14.04},{"city":"Horse Branch","state_name":"Kentucky","lat":37.42695,"lng":-86.67425,"zip":"42349","miles_from_dt":14.25},{"city":"Rosine","state_name":"Kentucky","lat":37.4497,"lng":-86.74121,"zip":"42370","miles_from_dt":15.18},{"city":"Leitchfield","state_name":"Kentucky","lat":37.47814,"lng":-86.31379,"zip":"42754","miles_from_dt":15.73},{"city":"Garfield","state_name":"Kentucky","lat":37.71867,"lng":-86.29047,"zip":"40140","miles_from_dt":16.11},{"city":"Leitchfield","state_name":"Kentucky","lat":37.47843,"lng":-86.29141,"zip":"42755","miles_from_dt":16.74},{"city":"Hawesville","state_name":"Kentucky","lat":37.75244,"lng":-86.8148,"zip":"42364","miles_from_dt":17.64},{"city":"Whitesville","state_name":"Kentucky","lat":37.65093,"lng":-86.87258,"zip":"42378","miles_from_dt":17.98},{"city":"Hartford","state_name":"Kentucky","lat":37.52414,"lng":-86.88715,"zip":"42347","miles_from_dt":19.43},{"city":"Cromwell","state_name":"Kentucky","lat":37.37718,"lng":-86.75609,"zip":"42333","miles_from_dt":19.56},{"city":"Hawesville","state_name":"Kentucky","lat":37.83379,"lng":-86.76578,"zip":"42348","miles_from_dt":19.58},{"city":"Custer","state_name":"Kentucky","lat":37.73784,"lng":-86.22707,"zip":"40115","miles_from_dt":19.8},{"city":"Irvington","state_name":"Kentucky","lat":37.84622,"lng":-86.31954,"zip":"40146","miles_from_dt":20.69},{"city":"Big Clifty","state_name":"Kentucky","lat":37.56098,"lng":-86.15791,"zip":"42712","miles_from_dt":21.72},{"city":"Philpot","state_name":"Kentucky","lat":37.72404,"lng":-86.93988,"zip":"42366","miles_from_dt":22.86},{"city":"Rome","state_name":"Indiana","lat":37.95265,"lng":-86.56323,"zip":"47574","miles_from_dt":23.78},{"city":"Eastview","state_name":"Kentucky","lat":37.61,"lng":-86.11235,"zip":"42732","miles_from_dt":23.97},{"city":"Webster","state_name":"Kentucky","lat":37.92377,"lng":-86.34652,"zip":"40176","miles_from_dt":24.44},{"city":"Stephensport","state_name":"Kentucky","lat":37.96479,"lng":-86.49607,"zip":"40170","miles_from_dt":24.78},{"city":"Beaver Dam","state_name":"Kentucky","lat":37.35093,"lng":-86.87291,"zip":"42320","miles_from_dt":25.11},{"city":"Clarkson","state_name":"Kentucky","lat":37.42423,"lng":-86.15035,"zip":"42726","miles_from_dt":25.31},{"city":"Union Star","state_name":"Kentucky","lat":37.96435,"lng":-86.43577,"zip":"40171","miles_from_dt":25.35},{"city":"Aberdeen","state_name":"Kentucky","lat":37.25362,"lng":-86.68473,"zip":"42201","miles_from_dt":25.55},{"city":"Jetson","state_name":"Kentucky","lat":37.23713,"lng":-86.50029,"zip":"42252","miles_from_dt":25.72},{"city":"Bee Spring","state_name":"Kentucky","lat":37.30357,"lng":-86.27858,"zip":"42207","miles_from_dt":25.73},{"city":"McHenry","state_name":"Kentucky","lat":37.37915,"lng":-86.9273,"zip":"42354","miles_from_dt":26.09},{"city":"Cannelton","state_name":"Indiana","lat":37.99351,"lng":-86.5902,"zip":"47520","miles_from_dt":26.68},{"city":"Guston","state_name":"Kentucky","lat":37.88898,"lng":-86.21095,"zip":"40142","miles_from_dt":26.81},{"city":"Roundhill","state_name":"Kentucky","lat":37.22701,"lng":-86.44628,"zip":"42275","miles_from_dt":26.88},{"city":"Cecilia","state_name":"Kentucky","lat":37.67293,"lng":-86.06461,"zip":"42724","miles_from_dt":26.95},{"city":"Lewisport","state_name":"Kentucky","lat":37.9026,"lng":-86.87903,"zip":"42351","miles_from_dt":27.18},{"city":"Morgantown","state_name":"Kentucky","lat":37.22405,"lng":-86.67015,"zip":"42261","miles_from_dt":27.3},{"city":"Sweeden","state_name":"Kentucky","lat":37.26418,"lng":-86.29751,"zip":"42285","miles_from_dt":27.46},{"city":"Rhodelia","state_name":"Kentucky","lat":38.00422,"lng":-86.39887,"zip":"40161","miles_from_dt":28.54},{"city":"White Mills","state_name":"Kentucky","lat":37.52774,"lng":-86.0372,"zip":"42788","miles_from_dt":28.65},{"city":"Derby","state_name":"Indiana","lat":38.02856,"lng":-86.55359,"zip":"47525","miles_from_dt":29.01},{"city":"Owensboro","state_name":"Kentucky","lat":37.76509,"lng":-87.04365,"zip":"42302","miles_from_dt":29.18},{"city":"Vine Grove","state_name":"Kentucky","lat":37.81907,"lng":-86.08635,"zip":"40175","miles_from_dt":29.24},{"city":"Owensboro","state_name":"Kentucky","lat":37.76138,"lng":-87.04889,"zip":"42303","miles_from_dt":29.36},{"city":"Rineyville","state_name":"Kentucky","lat":37.7517,"lng":-86.04394,"zip":"40162","miles_from_dt":29.42},{"city":"Utica","state_name":"Kentucky","lat":37.61626,"lng":-87.08619,"zip":"42376","miles_from_dt":29.46},{"city":"Woodbury","state_name":"Kentucky","lat":37.18172,"lng":-86.6362,"zip":"42288","miles_from_dt":29.78},{"city":"Maceo","state_name":"Kentucky","lat":37.86206,"lng":-86.9895,"zip":"42355","miles_from_dt":29.81},{"city":"Brownsville","state_name":"Kentucky","lat":37.21724,"lng":-86.31438,"zip":"42210","miles_from_dt":29.88}],"targetCityZipCode":"40119","targetCityState":"Kentucky"},"__N_SSG":true}