{"pageProps":{"stateName":"Kentucky","cityName":"grand-rivers","nearbyCities":[{"city":"Kuttawa","state_name":"Kentucky","lat":37.06959,"lng":-88.16765,"zip":"42055","miles_from_dt":5.36},{"city":"Tiline","state_name":"Kentucky","lat":37.16381,"lng":-88.27767,"zip":"42083","miles_from_dt":6.37},{"city":"Dycusburg","state_name":"Kentucky","lat":37.15843,"lng":-88.18441,"zip":"42037","miles_from_dt":7.42},{"city":"Gilbertsville","state_name":"Kentucky","lat":36.95744,"lng":-88.26417,"zip":"42044","miles_from_dt":7.9},{"city":"Calvert City","state_name":"Kentucky","lat":37.00963,"lng":-88.38947,"zip":"42029","miles_from_dt":8.14},{"city":"Ledbetter","state_name":"Kentucky","lat":37.05329,"lng":-88.4714,"zip":"42058","miles_from_dt":11.51},{"city":"Burna","state_name":"Kentucky","lat":37.23637,"lng":-88.33946,"zip":"42028","miles_from_dt":12.07},{"city":"Smithland","state_name":"Kentucky","lat":37.22821,"lng":-88.40274,"zip":"42081","miles_from_dt":13.2},{"city":"Eddyville","state_name":"Kentucky","lat":37.04137,"lng":-88.02364,"zip":"42038","miles_from_dt":13.48},{"city":"Salem","state_name":"Kentucky","lat":37.28876,"lng":-88.27202,"zip":"42078","miles_from_dt":14.95},{"city":"Benton","state_name":"Kentucky","lat":36.85764,"lng":-88.33441,"zip":"42025","miles_from_dt":15.28},{"city":"Brookport","state_name":"Illinois","lat":37.1562,"lng":-88.53075,"zip":"62910","miles_from_dt":15.81},{"city":"Fredonia","state_name":"Kentucky","lat":37.20315,"lng":-88.02852,"zip":"42411","miles_from_dt":15.86},{"city":"Symsonia","state_name":"Kentucky","lat":36.91618,"lng":-88.50092,"zip":"42082","miles_from_dt":16.92},{"city":"Crayne","state_name":"Kentucky","lat":37.27186,"lng":-88.07953,"zip":"42033","miles_from_dt":17.15},{"city":"Hampton","state_name":"Kentucky","lat":37.30061,"lng":-88.39046,"zip":"42047","miles_from_dt":17.23},{"city":"Paducah","state_name":"Kentucky","lat":37.00653,"lng":-88.58472,"zip":"42003","miles_from_dt":18.27},{"city":"Paducah","state_name":"Kentucky","lat":37.06855,"lng":-88.62494,"zip":"42002","miles_from_dt":19.92},{"city":"Hardin","state_name":"Kentucky","lat":36.76676,"lng":-88.23533,"zip":"42048","miles_from_dt":21.11},{"city":"Marion","state_name":"Kentucky","lat":37.35022,"lng":-88.09158,"zip":"42064","miles_from_dt":21.43},{"city":"Princeton","state_name":"Kentucky","lat":37.12861,"lng":-87.86052,"zip":"42445","miles_from_dt":22.65},{"city":"Boaz","state_name":"Kentucky","lat":36.91585,"lng":-88.63018,"zip":"42027","miles_from_dt":22.91},{"city":"Dexter","state_name":"Kentucky","lat":36.72246,"lng":-88.23048,"zip":"42036","miles_from_dt":24.18},{"city":"Paducah","state_name":"Kentucky","lat":37.03317,"lng":-88.7135,"zip":"42001","miles_from_dt":24.96},{"city":"Rosiclare","state_name":"Illinois","lat":37.42808,"lng":-88.35967,"zip":"62982","miles_from_dt":25.11},{"city":"Hickory","state_name":"Kentucky","lat":36.85629,"lng":-88.64522,"zip":"42051","miles_from_dt":25.79},{"city":"Kirksey","state_name":"Kentucky","lat":36.71734,"lng":-88.43149,"zip":"42054","miles_from_dt":26.15},{"city":"Almo","state_name":"Kentucky","lat":36.68913,"lng":-88.29145,"zip":"42020","miles_from_dt":26.44},{"city":"Golconda","state_name":"Illinois","lat":37.38249,"lng":-88.54676,"zip":"62938","miles_from_dt":26.47},{"city":"Metropolis","state_name":"Illinois","lat":37.22515,"lng":-88.71097,"zip":"62960","miles_from_dt":26.81},{"city":"West Paducah","state_name":"Kentucky","lat":37.0828,"lng":-88.76838,"zip":"42086","miles_from_dt":27.85},{"city":"Melber","state_name":"Kentucky","lat":36.92328,"lng":-88.75828,"zip":"42069","miles_from_dt":29.17},{"city":"Cadiz","state_name":"Kentucky","lat":36.82016,"lng":-87.83709,"zip":"42211","miles_from_dt":29.35}],"targetCityZipCode":"42045","targetCityState":"Kentucky"},"__N_SSG":true}