{"pageProps":{"stateName":"Kentucky","cityName":"mannsville","nearbyCities":[{"city":"Elk Horn","state_name":"Kentucky","lat":37.34008,"lng":-85.18028,"zip":"42733","miles_from_dt":2.69},{"city":"Campbellsville","state_name":"Kentucky","lat":37.34194,"lng":-85.34023,"zip":"42719","miles_from_dt":8.21},{"city":"Bradfordsville","state_name":"Kentucky","lat":37.47075,"lng":-85.099,"zip":"40009","miles_from_dt":8.46},{"city":"Campbellsville","state_name":"Kentucky","lat":37.38994,"lng":-85.37561,"zip":"42718","miles_from_dt":9.84},{"city":"Knifley","state_name":"Kentucky","lat":37.22299,"lng":-85.17411,"zip":"42753","miles_from_dt":10.67},{"city":"Lebanon","state_name":"Kentucky","lat":37.55935,"lng":-85.23928,"zip":"40033","miles_from_dt":12.81},{"city":"Liberty","state_name":"Kentucky","lat":37.30566,"lng":-84.95265,"zip":"42539","miles_from_dt":14.34},{"city":"Saint Mary","state_name":"Kentucky","lat":37.57052,"lng":-85.34336,"zip":"40063","miles_from_dt":15.59},{"city":"Cane Valley","state_name":"Kentucky","lat":37.17028,"lng":-85.32617,"zip":"42720","miles_from_dt":15.89},{"city":"Gravel Switch","state_name":"Kentucky","lat":37.56632,"lng":-85.02565,"zip":"40328","miles_from_dt":16.14},{"city":"Dunnville","state_name":"Kentucky","lat":37.18335,"lng":-85.01712,"zip":"42528","miles_from_dt":16.63},{"city":"Raywick","state_name":"Kentucky","lat":37.53529,"lng":-85.44371,"zip":"40060","miles_from_dt":17.41},{"city":"Columbia","state_name":"Kentucky","lat":37.10943,"lng":-85.28873,"zip":"42728","miles_from_dt":19.1},{"city":"Hustonville","state_name":"Kentucky","lat":37.44531,"lng":-84.85486,"zip":"40437","miles_from_dt":19.44},{"city":"Mitchellsburg","state_name":"Kentucky","lat":37.59841,"lng":-84.9643,"zip":"40452","miles_from_dt":19.96},{"city":"Parksville","state_name":"Kentucky","lat":37.55579,"lng":-84.91148,"zip":"40464","miles_from_dt":20},{"city":"Saint Francis","state_name":"Kentucky","lat":37.59969,"lng":-85.43161,"zip":"40062","miles_from_dt":20.06},{"city":"Greensburg","state_name":"Kentucky","lat":37.22958,"lng":-85.53175,"zip":"42743","miles_from_dt":21.02},{"city":"Middleburg","state_name":"Kentucky","lat":37.37325,"lng":-84.80778,"zip":"42541","miles_from_dt":21.45},{"city":"Perryville","state_name":"Kentucky","lat":37.65158,"lng":-84.98782,"zip":"40468","miles_from_dt":22.19},{"city":"New Hope","state_name":"Kentucky","lat":37.58417,"lng":-85.51154,"zip":"40052","miles_from_dt":22.42},{"city":"Loretto","state_name":"Kentucky","lat":37.65409,"lng":-85.41196,"zip":"40037","miles_from_dt":22.47},{"city":"Windsor","state_name":"Kentucky","lat":37.15008,"lng":-84.90086,"zip":"42565","miles_from_dt":22.61},{"city":"Nerinx","state_name":"Kentucky","lat":37.66442,"lng":-85.39724,"zip":"40049","miles_from_dt":22.68},{"city":"Saint Catharine","state_name":"Kentucky","lat":37.70954,"lng":-85.26353,"zip":"40061","miles_from_dt":23.25},{"city":"Springfield","state_name":"Kentucky","lat":37.71627,"lng":-85.21764,"zip":"40069","miles_from_dt":23.45},{"city":"Mount Sherman","state_name":"Kentucky","lat":37.42948,"lng":-85.62507,"zip":"42764","miles_from_dt":23.8},{"city":"Russell Springs","state_name":"Kentucky","lat":37.05624,"lng":-85.0352,"zip":"42642","miles_from_dt":23.84},{"city":"Yosemite","state_name":"Kentucky","lat":37.28389,"lng":-84.77932,"zip":"42566","miles_from_dt":23.9},{"city":"Buffalo","state_name":"Kentucky","lat":37.47495,"lng":-85.61925,"zip":"42716","miles_from_dt":24.16},{"city":"Summersville","state_name":"Kentucky","lat":37.34475,"lng":-85.63702,"zip":"42782","miles_from_dt":24.29},{"city":"Junction City","state_name":"Kentucky","lat":37.57628,"lng":-84.8322,"zip":"40440","miles_from_dt":24.35},{"city":"McKinney","state_name":"Kentucky","lat":37.45624,"lng":-84.75799,"zip":"40448","miles_from_dt":24.8},{"city":"Bethelridge","state_name":"Kentucky","lat":37.22247,"lng":-84.77881,"zip":"42516","miles_from_dt":25.4},{"city":"Gradyville","state_name":"Kentucky","lat":37.07774,"lng":-85.47888,"zip":"42742","miles_from_dt":25.79},{"city":"Kings Mountain","state_name":"Kentucky","lat":37.35205,"lng":-84.72868,"zip":"40442","miles_from_dt":25.86},{"city":"Glens Fork","state_name":"Kentucky","lat":36.9888,"lng":-85.25183,"zip":"42741","miles_from_dt":26.91},{"city":"Danville","state_name":"Kentucky","lat":37.64235,"lng":-84.80488,"zip":"40422","miles_from_dt":28.31},{"city":"New Haven","state_name":"Kentucky","lat":37.65293,"lng":-85.57949,"zip":"40051","miles_from_dt":28.35},{"city":"Mackville","state_name":"Kentucky","lat":37.77433,"lng":-85.05727,"zip":"40040","miles_from_dt":28.49},{"city":"Magnolia","state_name":"Kentucky","lat":37.40192,"lng":-85.72501,"zip":"42757","miles_from_dt":29.08},{"city":"Canmer","state_name":"Kentucky","lat":37.27628,"lng":-85.71703,"zip":"42722","miles_from_dt":29.43},{"city":"Danville","state_name":"Kentucky","lat":37.64316,"lng":-84.7715,"zip":"40423","miles_from_dt":29.76}],"targetCityZipCode":"42758","targetCityState":"Kentucky"},"__N_SSG":true}