{"pageProps":{"stateName":"Kentucky","cityName":"philpot","nearbyCities":[{"city":"Whitesville","state_name":"Kentucky","lat":37.65093,"lng":-86.87258,"zip":"42378","miles_from_dt":6.25},{"city":"Owensboro","state_name":"Kentucky","lat":37.76509,"lng":-87.04365,"zip":"42302","miles_from_dt":6.35},{"city":"Owensboro","state_name":"Kentucky","lat":37.76138,"lng":-87.04889,"zip":"42303","miles_from_dt":6.5},{"city":"Hawesville","state_name":"Kentucky","lat":37.75244,"lng":-86.8148,"zip":"42364","miles_from_dt":7.13},{"city":"Maceo","state_name":"Kentucky","lat":37.86206,"lng":-86.9895,"zip":"42355","miles_from_dt":9.9},{"city":"Reynolds Station","state_name":"Kentucky","lat":37.71258,"lng":-86.75133,"zip":"42368","miles_from_dt":10.36},{"city":"Utica","state_name":"Kentucky","lat":37.61626,"lng":-87.08619,"zip":"42376","miles_from_dt":10.94},{"city":"Hawesville","state_name":"Kentucky","lat":37.83379,"lng":-86.76578,"zip":"42348","miles_from_dt":12.17},{"city":"Lewisport","state_name":"Kentucky","lat":37.9026,"lng":-86.87903,"zip":"42351","miles_from_dt":12.76},{"city":"Owensboro","state_name":"Kentucky","lat":37.77771,"lng":-87.16865,"zip":"42304","miles_from_dt":13.06},{"city":"Hartford","state_name":"Kentucky","lat":37.52414,"lng":-86.88715,"zip":"42347","miles_from_dt":14.09},{"city":"Rockport","state_name":"Indiana","lat":37.8862,"lng":-87.10751,"zip":"47635","miles_from_dt":14.46},{"city":"Fordsville","state_name":"Kentucky","lat":37.63594,"lng":-86.69795,"zip":"42343","miles_from_dt":14.59},{"city":"Dundee","state_name":"Kentucky","lat":37.55295,"lng":-86.77408,"zip":"42338","miles_from_dt":14.9},{"city":"Livermore","state_name":"Kentucky","lat":37.51333,"lng":-87.0833,"zip":"42352","miles_from_dt":16.52},{"city":"Owensboro","state_name":"Kentucky","lat":37.73983,"lng":-87.24643,"zip":"42301","miles_from_dt":16.83},{"city":"Grandview","state_name":"Indiana","lat":37.97214,"lng":-86.95643,"zip":"47615","miles_from_dt":17.13},{"city":"Cloverport","state_name":"Kentucky","lat":37.77881,"lng":-86.62881,"zip":"40111","miles_from_dt":17.45},{"city":"West Louisville","state_name":"Kentucky","lat":37.69821,"lng":-87.28471,"zip":"42377","miles_from_dt":18.98},{"city":"Hatfield","state_name":"Indiana","lat":37.91092,"lng":-87.20324,"zip":"47617","miles_from_dt":19.33},{"city":"Olaton","state_name":"Kentucky","lat":37.51791,"lng":-86.69183,"zip":"42361","miles_from_dt":19.68},{"city":"Richland","state_name":"Indiana","lat":37.93893,"lng":-87.1848,"zip":"47634","miles_from_dt":19.98},{"city":"Maple Mount","state_name":"Kentucky","lat":37.69364,"lng":-87.32289,"zip":"42356","miles_from_dt":21.09},{"city":"Curdsville","state_name":"Kentucky","lat":37.73673,"lng":-87.32966,"zip":"42334","miles_from_dt":21.37},{"city":"Chrisney","state_name":"Indiana","lat":38.02474,"lng":-87.05812,"zip":"47611","miles_from_dt":21.72},{"city":"Centertown","state_name":"Kentucky","lat":37.41898,"lng":-87.0429,"zip":"42328","miles_from_dt":21.79},{"city":"Rosine","state_name":"Kentucky","lat":37.4497,"lng":-86.74121,"zip":"42370","miles_from_dt":21.84},{"city":"Calhoun","state_name":"Kentucky","lat":37.58721,"lng":-87.30042,"zip":"42327","miles_from_dt":21.91},{"city":"Evanston","state_name":"Indiana","lat":38.04161,"lng":-86.84867,"zip":"47531","miles_from_dt":22.46},{"city":"Falls Of Rough","state_name":"Kentucky","lat":37.60799,"lng":-86.54925,"zip":"40119","miles_from_dt":22.86},{"city":"McQuady","state_name":"Kentucky","lat":37.70793,"lng":-86.52117,"zip":"40153","miles_from_dt":22.97},{"city":"Island","state_name":"Kentucky","lat":37.44852,"lng":-87.1831,"zip":"42350","miles_from_dt":23.22},{"city":"Lamar","state_name":"Indiana","lat":38.06213,"lng":-86.92877,"zip":"47550","miles_from_dt":23.33},{"city":"McHenry","state_name":"Kentucky","lat":37.37915,"lng":-86.9273,"zip":"42354","miles_from_dt":23.8},{"city":"Hardinsburg","state_name":"Kentucky","lat":37.78541,"lng":-86.50507,"zip":"40143","miles_from_dt":24.18},{"city":"Rumsey","state_name":"Kentucky","lat":37.4978,"lng":-87.29362,"zip":"42371","miles_from_dt":24.9},{"city":"Horse Branch","state_name":"Kentucky","lat":37.42695,"lng":-86.67425,"zip":"42349","miles_from_dt":25.15},{"city":"Troy","state_name":"Indiana","lat":38.06959,"lng":-86.77826,"zip":"47588","miles_from_dt":25.42},{"city":"Tell City","state_name":"Indiana","lat":38.03684,"lng":-86.69297,"zip":"47586","miles_from_dt":25.45},{"city":"Beech Grove","state_name":"Kentucky","lat":37.62083,"lng":-87.38821,"zip":"42322","miles_from_dt":25.59},{"city":"Rome","state_name":"Indiana","lat":37.95265,"lng":-86.56323,"zip":"47574","miles_from_dt":25.94},{"city":"Rockport","state_name":"Kentucky","lat":37.3517,"lng":-87.00719,"zip":"42369","miles_from_dt":25.94},{"city":"Cromwell","state_name":"Kentucky","lat":37.37718,"lng":-86.75609,"zip":"42333","miles_from_dt":25.96},{"city":"Beaver Dam","state_name":"Kentucky","lat":37.35093,"lng":-86.87291,"zip":"42320","miles_from_dt":25.99},{"city":"Cannelton","state_name":"Indiana","lat":37.99351,"lng":-86.5902,"zip":"47520","miles_from_dt":26.66},{"city":"Lincoln City","state_name":"Indiana","lat":38.10862,"lng":-86.99527,"zip":"47552","miles_from_dt":26.7},{"city":"Santa Claus","state_name":"Indiana","lat":38.11149,"lng":-86.91322,"zip":"47579","miles_from_dt":26.76},{"city":"Reed","state_name":"Kentucky","lat":37.88165,"lng":-87.38966,"zip":"42451","miles_from_dt":26.91},{"city":"Gentryville","state_name":"Indiana","lat":38.10971,"lng":-87.06888,"zip":"47537","miles_from_dt":27.52},{"city":"Newburgh","state_name":"Indiana","lat":37.95615,"lng":-87.35569,"zip":"47630","miles_from_dt":27.81},{"city":"Spottsville","state_name":"Kentucky","lat":37.85249,"lng":-87.42367,"zip":"42458","miles_from_dt":27.92},{"city":"McDaniels","state_name":"Kentucky","lat":37.61389,"lng":-86.44185,"zip":"40152","miles_from_dt":28.34},{"city":"Boonville","state_name":"Indiana","lat":38.05301,"lng":-87.25526,"zip":"47601","miles_from_dt":28.49},{"city":"Sacramento","state_name":"Kentucky","lat":37.40588,"lng":-87.2773,"zip":"42372","miles_from_dt":28.72},{"city":"Mariah Hill","state_name":"Indiana","lat":38.13606,"lng":-86.84936,"zip":"47556","miles_from_dt":28.84},{"city":"Fulda","state_name":"Indiana","lat":38.1379,"lng":-86.85112,"zip":"47536","miles_from_dt":28.95},{"city":"South Carrollton","state_name":"Kentucky","lat":37.33333,"lng":-87.14045,"zip":"42374","miles_from_dt":29.11},{"city":"Stephensport","state_name":"Kentucky","lat":37.96479,"lng":-86.49607,"zip":"40170","miles_from_dt":29.41},{"city":"Westview","state_name":"Kentucky","lat":37.65834,"lng":-86.40853,"zip":"40178","miles_from_dt":29.47},{"city":"Derby","state_name":"Indiana","lat":38.02856,"lng":-86.55359,"zip":"47525","miles_from_dt":29.78},{"city":"Newburgh","state_name":"Indiana","lat":37.95602,"lng":-87.40157,"zip":"47629","miles_from_dt":29.89},{"city":"Central City","state_name":"Kentucky","lat":37.31436,"lng":-87.12245,"zip":"42330","miles_from_dt":29.98}],"targetCityZipCode":"42366","targetCityState":"Kentucky"},"__N_SSG":true}