{"pageProps":{"stateName":"Kentucky","cityName":"wallins-creek","nearbyCities":[{"city":"Dayhoit","state_name":"Kentucky","lat":36.82489,"lng":-83.37221,"zip":"40824","miles_from_dt":1.89},{"city":"Coldiron","state_name":"Kentucky","lat":36.81025,"lng":-83.46242,"zip":"40819","miles_from_dt":3.25},{"city":"Loyall","state_name":"Kentucky","lat":36.84664,"lng":-83.35634,"zip":"40854","miles_from_dt":3.41},{"city":"Mary Alice","state_name":"Kentucky","lat":36.78264,"lng":-83.33763,"zip":"40964","miles_from_dt":4.32},{"city":"Gulston","state_name":"Kentucky","lat":36.77644,"lng":-83.33114,"zip":"40830","miles_from_dt":4.86},{"city":"Harlan","state_name":"Kentucky","lat":36.76457,"lng":-83.33454,"zip":"40831","miles_from_dt":5.21},{"city":"Pathfork","state_name":"Kentucky","lat":36.74048,"lng":-83.44567,"zip":"40863","miles_from_dt":5.66},{"city":"Grays Knob","state_name":"Kentucky","lat":36.798,"lng":-83.29655,"zip":"40829","miles_from_dt":6.08},{"city":"Hulen","state_name":"Kentucky","lat":36.79899,"lng":-83.51755,"zip":"40845","miles_from_dt":6.39},{"city":"Stoney Fork","state_name":"Kentucky","lat":36.85928,"lng":-83.52838,"zip":"40988","miles_from_dt":7.52},{"city":"Baxter","state_name":"Kentucky","lat":36.88595,"lng":-83.2881,"zip":"40806","miles_from_dt":8.06},{"city":"Ages Brookside","state_name":"Kentucky","lat":36.85692,"lng":-83.25493,"zip":"40801","miles_from_dt":8.75},{"city":"Coalgood","state_name":"Kentucky","lat":36.82003,"lng":-83.2442,"zip":"40818","miles_from_dt":8.87},{"city":"Helton","state_name":"Kentucky","lat":36.9457,"lng":-83.41854,"zip":"40840","miles_from_dt":9.02},{"city":"Bledsoe","state_name":"Kentucky","lat":36.93176,"lng":-83.30451,"zip":"40810","miles_from_dt":9.74},{"city":"Cawood","state_name":"Kentucky","lat":36.7876,"lng":-83.22876,"zip":"40815","miles_from_dt":9.91},{"city":"Kettle Island","state_name":"Kentucky","lat":36.8088,"lng":-83.5878,"zip":"40958","miles_from_dt":10.19},{"city":"Miracle","state_name":"Kentucky","lat":36.70574,"lng":-83.52939,"zip":"40856","miles_from_dt":10.27},{"city":"Beverly","state_name":"Kentucky","lat":36.94986,"lng":-83.54367,"zip":"40913","miles_from_dt":12.07},{"city":"Rose Hill","state_name":"Virginia","lat":36.65051,"lng":-83.3295,"zip":"24281","miles_from_dt":12.1},{"city":"Warbranch","state_name":"Kentucky","lat":36.98407,"lng":-83.47345,"zip":"40874","miles_from_dt":12.25},{"city":"Arjay","state_name":"Kentucky","lat":36.84824,"lng":-83.62435,"zip":"40902","miles_from_dt":12.42},{"city":"Putney","state_name":"Kentucky","lat":36.91637,"lng":-83.21804,"zip":"40865","miles_from_dt":12.44},{"city":"Calvin","state_name":"Kentucky","lat":36.71526,"lng":-83.59838,"zip":"40813","miles_from_dt":12.8},{"city":"Chappell","state_name":"Kentucky","lat":37.00879,"lng":-83.3667,"zip":"40816","miles_from_dt":13.49},{"city":"Cranks","state_name":"Kentucky","lat":36.77552,"lng":-83.16515,"zip":"40820","miles_from_dt":13.53},{"city":"Mozelle","state_name":"Kentucky","lat":37.01592,"lng":-83.40106,"zip":"40858","miles_from_dt":13.83},{"city":"Kenvir","state_name":"Kentucky","lat":36.85281,"lng":-83.15798,"zip":"40847","miles_from_dt":13.88},{"city":"Roark","state_name":"Kentucky","lat":37.00491,"lng":-83.495,"zip":"40979","miles_from_dt":14},{"city":"Ewing","state_name":"Virginia","lat":36.62708,"lng":-83.50767,"zip":"24248","miles_from_dt":14.2},{"city":"Big Laurel","state_name":"Kentucky","lat":36.9995,"lng":-83.2801,"zip":"40808","miles_from_dt":14.43},{"city":"Evarts","state_name":"Kentucky","lat":36.87107,"lng":-83.14868,"zip":"40828","miles_from_dt":14.67},{"city":"Walker","state_name":"Kentucky","lat":36.88348,"lng":-83.67711,"zip":"40997","miles_from_dt":15.84},{"city":"Asher","state_name":"Kentucky","lat":37.04572,"lng":-83.42185,"zip":"40803","miles_from_dt":15.91},{"city":"Lejunior","state_name":"Kentucky","lat":36.89941,"lng":-83.13469,"zip":"40849","miles_from_dt":16.01},{"city":"Totz","state_name":"Kentucky","lat":36.93211,"lng":-83.14858,"zip":"40870","miles_from_dt":16.28},{"city":"Essie","state_name":"Kentucky","lat":37.05208,"lng":-83.47187,"zip":"40827","miles_from_dt":16.75},{"city":"Hoskinston","state_name":"Kentucky","lat":37.05506,"lng":-83.35406,"zip":"40844","miles_from_dt":16.76},{"city":"Fourmile","state_name":"Kentucky","lat":36.81217,"lng":-83.71152,"zip":"40939","miles_from_dt":17.05},{"city":"Jonesville","state_name":"Virginia","lat":36.67164,"lng":-83.15079,"zip":"24263","miles_from_dt":17.2},{"city":"Scalf","state_name":"Kentucky","lat":36.93241,"lng":-83.69421,"zip":"40982","miles_from_dt":17.98},{"city":"Flat Lick","state_name":"Kentucky","lat":36.91107,"lng":-83.71264,"zip":"40935","miles_from_dt":18.32},{"city":"Dewitt","state_name":"Kentucky","lat":36.87096,"lng":-83.72905,"zip":"40930","miles_from_dt":18.41},{"city":"Harrogate","state_name":"Tennessee","lat":36.56735,"lng":-83.55422,"zip":"37752","miles_from_dt":19.03},{"city":"Pineville","state_name":"Kentucky","lat":36.72332,"lng":-83.72867,"zip":"40977","miles_from_dt":19.09},{"city":"Stinnett","state_name":"Kentucky","lat":37.09367,"lng":-83.41638,"zip":"40868","miles_from_dt":19.2},{"city":"Saint Charles","state_name":"Virginia","lat":36.82159,"lng":-83.05533,"zip":"24282","miles_from_dt":19.34},{"city":"Yeaddiss","state_name":"Kentucky","lat":37.06022,"lng":-83.23276,"zip":"41777","miles_from_dt":19.36},{"city":"Wendover","state_name":"Kentucky","lat":37.09373,"lng":-83.34207,"zip":"41775","miles_from_dt":19.5},{"city":"Shawanee","state_name":"Tennessee","lat":36.57992,"lng":-83.63951,"zip":"37867","miles_from_dt":20.85},{"city":"Ben Hur","state_name":"Virginia","lat":36.75338,"lng":-83.03614,"zip":"24218","miles_from_dt":20.85},{"city":"Big Creek","state_name":"Kentucky","lat":37.0932,"lng":-83.56154,"zip":"40914","miles_from_dt":21.04},{"city":"Closplint","state_name":"Kentucky","lat":36.89081,"lng":-83.03445,"zip":"40927","miles_from_dt":21.13},{"city":"Pennington Gap","state_name":"Virginia","lat":36.74948,"lng":-83.03037,"zip":"24277","miles_from_dt":21.22},{"city":"Gordon","state_name":"Kentucky","lat":36.99191,"lng":-83.07788,"zip":"41819","miles_from_dt":21.78},{"city":"Delphia","state_name":"Kentucky","lat":37.01793,"lng":-83.09963,"zip":"41735","miles_from_dt":21.89},{"city":"Sneedville","state_name":"Tennessee","lat":36.51555,"lng":-83.24579,"zip":"37869","miles_from_dt":22.47},{"city":"Middlesboro","state_name":"Kentucky","lat":36.62469,"lng":-83.73461,"zip":"40965","miles_from_dt":22.57},{"city":"Slemp","state_name":"Kentucky","lat":37.05439,"lng":-83.12157,"zip":"41763","miles_from_dt":22.72},{"city":"Ingram","state_name":"Kentucky","lat":36.72855,"lng":-83.80052,"zip":"40955","miles_from_dt":22.79},{"city":"Smilax","state_name":"Kentucky","lat":37.12924,"lng":-83.25545,"zip":"41764","miles_from_dt":23.15},{"city":"Tazewell","state_name":"Tennessee","lat":36.48403,"lng":-83.48705,"zip":"37879","miles_from_dt":23.31},{"city":"Hinkle","state_name":"Kentucky","lat":36.93771,"lng":-83.80163,"zip":"40953","miles_from_dt":23.58},{"city":"Trosper","state_name":"Kentucky","lat":36.75268,"lng":-83.82322,"zip":"40995","miles_from_dt":23.65},{"city":"Bimble","state_name":"Kentucky","lat":36.89235,"lng":-83.82025,"zip":"40915","miles_from_dt":23.66},{"city":"Artemus","state_name":"Kentucky","lat":36.80973,"lng":-83.83163,"zip":"40903","miles_from_dt":23.71},{"city":"Cumberland Gap","state_name":"Tennessee","lat":36.54457,"lng":-83.69328,"zip":"37724","miles_from_dt":24.63},{"city":"Wooton","state_name":"Kentucky","lat":37.15933,"lng":-83.28158,"zip":"41776","miles_from_dt":24.67},{"city":"Goose Rock","state_name":"Kentucky","lat":37.09008,"lng":-83.69306,"zip":"40944","miles_from_dt":24.79},{"city":"Bear Branch","state_name":"Kentucky","lat":37.16519,"lng":-83.5075,"zip":"41714","miles_from_dt":24.79},{"city":"Cumberland","state_name":"Kentucky","lat":36.95664,"lng":-82.98864,"zip":"40823","miles_from_dt":24.99},{"city":"Kyles Ford","state_name":"Tennessee","lat":36.57219,"lng":-83.06534,"zip":"37765","miles_from_dt":25.2},{"city":"Green Road","state_name":"Kentucky","lat":36.95757,"lng":-83.82467,"zip":"40946","miles_from_dt":25.27},{"city":"Thousandsticks","state_name":"Kentucky","lat":37.18526,"lng":-83.44443,"zip":"41766","miles_from_dt":25.6},{"city":"Cannon","state_name":"Kentucky","lat":36.92059,"lng":-83.84923,"zip":"40923","miles_from_dt":25.71},{"city":"Keokee","state_name":"Virginia","lat":36.83811,"lng":-82.93904,"zip":"24265","miles_from_dt":25.83},{"city":"Blackwater","state_name":"Virginia","lat":36.63398,"lng":-82.9943,"zip":"24221","miles_from_dt":25.96},{"city":"Hyden","state_name":"Kentucky","lat":37.19364,"lng":-83.4199,"zip":"41749","miles_from_dt":26.1},{"city":"Heidrick","state_name":"Kentucky","lat":36.90253,"lng":-83.86717,"zip":"40949","miles_from_dt":26.35},{"city":"Holmes Mill","state_name":"Kentucky","lat":36.88826,"lng":-82.93666,"zip":"40843","miles_from_dt":26.39},{"city":"Barbourville","state_name":"Kentucky","lat":36.88828,"lng":-83.87546,"zip":"40906","miles_from_dt":26.6},{"city":"Cornettsville","state_name":"Kentucky","lat":37.10312,"lng":-83.08393,"zip":"41731","miles_from_dt":26.6},{"city":"Girdler","state_name":"Kentucky","lat":36.95494,"lng":-83.85631,"zip":"40943","miles_from_dt":26.83},{"city":"Benham","state_name":"Kentucky","lat":36.9647,"lng":-82.95578,"zip":"40807","miles_from_dt":26.88},{"city":"Dryden","state_name":"Virginia","lat":36.78174,"lng":-82.92083,"zip":"24243","miles_from_dt":26.9},{"city":"Sizerock","state_name":"Kentucky","lat":37.20742,"lng":-83.50077,"zip":"41762","miles_from_dt":27.56},{"city":"Pruden","state_name":"Tennessee","lat":36.56558,"lng":-83.79244,"zip":"37851","miles_from_dt":27.6},{"city":"Viper","state_name":"Kentucky","lat":37.15512,"lng":-83.13847,"zip":"41774","miles_from_dt":27.65},{"city":"Bryants Store","state_name":"Kentucky","lat":36.78195,"lng":-83.90185,"zip":"40921","miles_from_dt":27.7},{"city":"Linefork","state_name":"Kentucky","lat":37.02919,"lng":-82.97323,"zip":"41833","miles_from_dt":28.04},{"city":"Arthur","state_name":"Tennessee","lat":36.42538,"lng":-83.55804,"zip":"37707","miles_from_dt":28.22},{"city":"Hallie","state_name":"Kentucky","lat":37.07563,"lng":-83.00711,"zip":"41821","miles_from_dt":28.37},{"city":"New Tazewell","state_name":"Tennessee","lat":36.43414,"lng":-83.60662,"zip":"37824","miles_from_dt":28.6},{"city":"Garrard","state_name":"Kentucky","lat":37.12981,"lng":-83.74585,"zip":"40941","miles_from_dt":28.77},{"city":"Eidson","state_name":"Tennessee","lat":36.54383,"lng":-83.00873,"zip":"37731","miles_from_dt":28.86},{"city":"Thorn Hill","state_name":"Tennessee","lat":36.39861,"lng":-83.34393,"zip":"37881","miles_from_dt":28.93},{"city":"Avawam","state_name":"Kentucky","lat":37.22703,"lng":-83.27799,"zip":"41713","miles_from_dt":29.23},{"city":"Hima","state_name":"Kentucky","lat":37.11844,"lng":-83.77473,"zip":"40951","miles_from_dt":29.28},{"city":"Lynch","state_name":"Kentucky","lat":36.94931,"lng":-82.89836,"zip":"40855","miles_from_dt":29.5},{"city":"Manchester","state_name":"Kentucky","lat":37.14912,"lng":-83.74922,"zip":"40962","miles_from_dt":29.9}],"targetCityZipCode":"40873","targetCityState":"Kentucky"},"__N_SSG":true}