{"pageProps":{"stateName":"South-dakota","cityName":"piedmont","nearbyCities":[{"city":"Rapid City","state_name":"South Dakota","lat":44.2321,"lng":-103.38932,"zip":"57709","miles_from_dt":4.64},{"city":"Black Hawk","state_name":"South Dakota","lat":44.17925,"lng":-103.36801,"zip":"57718","miles_from_dt":5.65},{"city":"Rapid City","state_name":"South Dakota","lat":44.1209,"lng":-103.20562,"zip":"57701","miles_from_dt":9.59},{"city":"Ellsworth Afb","state_name":"South Dakota","lat":44.1564,"lng":-103.09561,"zip":"57706","miles_from_dt":11.66},{"city":"Sturgis","state_name":"South Dakota","lat":44.41905,"lng":-103.21534,"zip":"57785","miles_from_dt":12.8},{"city":"Nemo","state_name":"South Dakota","lat":44.2202,"lng":-103.55373,"zip":"57759","miles_from_dt":12.84},{"city":"Fort Meade","state_name":"South Dakota","lat":44.41044,"lng":-103.47273,"zip":"57741","miles_from_dt":14.46},{"city":"Rapid City","state_name":"South Dakota","lat":44.03085,"lng":-103.38433,"zip":"57702","miles_from_dt":15.29},{"city":"Box Elder","state_name":"South Dakota","lat":44.23059,"lng":-102.98312,"zip":"57719","miles_from_dt":15.61},{"city":"Deadwood","state_name":"South Dakota","lat":44.23782,"lng":-103.64335,"zip":"57732","miles_from_dt":17.19},{"city":"Rapid City","state_name":"South Dakota","lat":44.00331,"lng":-103.04528,"zip":"57703","miles_from_dt":20.77},{"city":"Whitewood","state_name":"South Dakota","lat":44.51824,"lng":-103.581,"zip":"57793","miles_from_dt":23.63},{"city":"Vale","state_name":"South Dakota","lat":44.61855,"lng":-103.2167,"zip":"57788","miles_from_dt":26.22},{"city":"Keystone","state_name":"South Dakota","lat":43.86767,"lng":-103.42346,"zip":"57751","miles_from_dt":26.68},{"city":"New Underwood","state_name":"South Dakota","lat":44.21858,"lng":-102.75943,"zip":"57761","miles_from_dt":26.74},{"city":"Lead","state_name":"South Dakota","lat":44.26193,"lng":-103.87478,"zip":"57754","miles_from_dt":28.7},{"city":"Hill City","state_name":"South Dakota","lat":44.01304,"lng":-103.78616,"zip":"57745","miles_from_dt":29.06}],"targetCityZipCode":"57769","targetCityState":"South Dakota"},"__N_SSG":true}