{"pageProps":{"stateName":"South-dakota","cityName":"pukwana","nearbyCities":[{"city":"Chamberlain","state_name":"South Dakota","lat":43.80896,"lng":-99.31783,"zip":"57326","miles_from_dt":7.29},{"city":"Chamberlain","state_name":"South Dakota","lat":43.83961,"lng":-99.31144,"zip":"57325","miles_from_dt":7.36},{"city":"Kimball","state_name":"South Dakota","lat":43.7747,"lng":-98.95045,"zip":"57355","miles_from_dt":11.28},{"city":"Oacoma","state_name":"South Dakota","lat":43.81148,"lng":-99.41723,"zip":"57365","miles_from_dt":12.26},{"city":"Gann Valley","state_name":"South Dakota","lat":44.08077,"lng":-99.08974,"zip":"57341","miles_from_dt":19.47},{"city":"Reliance","state_name":"South Dakota","lat":43.8605,"lng":-99.57582,"zip":"57569","miles_from_dt":20.54},{"city":"White Lake","state_name":"South Dakota","lat":43.7177,"lng":-98.71382,"zip":"57383","miles_from_dt":23.71},{"city":"Fort Thompson","state_name":"South Dakota","lat":44.11233,"lng":-99.47862,"zip":"57339","miles_from_dt":26.15},{"city":"Platte","state_name":"South Dakota","lat":43.42544,"lng":-98.94606,"zip":"57369","miles_from_dt":28.56},{"city":"Hamill","state_name":"South Dakota","lat":43.5709,"lng":-99.65975,"zip":"57534","miles_from_dt":29.3},{"city":"Lower Brule","state_name":"South Dakota","lat":44.08429,"lng":-99.62373,"zip":"57548","miles_from_dt":29.65}],"targetCityZipCode":"57370","targetCityState":"South Dakota"},"__N_SSG":true}