{"pageProps":{"stateName":"Ohio","cityName":"saint-paris","nearbyCities":[{"city":"Conover","state_name":"Ohio","lat":40.17328,"lng":-84.01971,"zip":"45317","miles_from_dt":5.16},{"city":"Christiansburg","state_name":"Ohio","lat":40.05639,"lng":-84.02532,"zip":"45389","miles_from_dt":5.61},{"city":"Westville","state_name":"Ohio","lat":40.10838,"lng":-83.83623,"zip":"43083","miles_from_dt":6.33},{"city":"Rosewood","state_name":"Ohio","lat":40.22056,"lng":-83.95651,"zip":"43070","miles_from_dt":7.13},{"city":"Fletcher","state_name":"Ohio","lat":40.14201,"lng":-84.09039,"zip":"45326","miles_from_dt":7.36},{"city":"Casstown","state_name":"Ohio","lat":40.06028,"lng":-84.07976,"zip":"45312","miles_from_dt":7.68},{"city":"North Hampton","state_name":"Ohio","lat":39.98916,"lng":-83.94052,"zip":"45349","miles_from_dt":8.87},{"city":"Tremont City","state_name":"Ohio","lat":40.01471,"lng":-83.83862,"zip":"45372","miles_from_dt":9.39},{"city":"Urbana","state_name":"Ohio","lat":40.11302,"lng":-83.77538,"zip":"43078","miles_from_dt":9.53},{"city":"New Carlisle","state_name":"Ohio","lat":39.95567,"lng":-84.00734,"zip":"45344","miles_from_dt":11.48},{"city":"Springfield","state_name":"Ohio","lat":39.94811,"lng":-83.86481,"zip":"45504","miles_from_dt":12.61},{"city":"Pemberton","state_name":"Ohio","lat":40.29252,"lng":-84.04274,"zip":"45353","miles_from_dt":12.95},{"city":"Quincy","state_name":"Ohio","lat":40.3073,"lng":-83.97647,"zip":"43343","miles_from_dt":13.16},{"city":"De Graff","state_name":"Ohio","lat":40.30948,"lng":-83.91378,"zip":"43318","miles_from_dt":13.45},{"city":"Donnelsville","state_name":"Ohio","lat":39.91608,"lng":-83.94324,"zip":"45319","miles_from_dt":13.89},{"city":"Troy","state_name":"Ohio","lat":40.03353,"lng":-84.19588,"zip":"45373","miles_from_dt":14.01},{"city":"West Liberty","state_name":"Ohio","lat":40.25316,"lng":-83.74711,"zip":"43357","miles_from_dt":14.46},{"city":"Springfield","state_name":"Ohio","lat":39.96073,"lng":-83.7682,"zip":"45503","miles_from_dt":14.66},{"city":"Troy","state_name":"Ohio","lat":40.04409,"lng":-84.21768,"zip":"45374","miles_from_dt":14.8},{"city":"Piqua","state_name":"Ohio","lat":40.16252,"lng":-84.23097,"zip":"45356","miles_from_dt":14.94},{"city":"Springfield","state_name":"Ohio","lat":39.92791,"lng":-83.81703,"zip":"45502","miles_from_dt":14.97},{"city":"Springfield","state_name":"Ohio","lat":39.92634,"lng":-83.80745,"zip":"45501","miles_from_dt":15.32},{"city":"Sidney","state_name":"Ohio","lat":40.2828,"lng":-84.15582,"zip":"45365","miles_from_dt":15.6},{"city":"Springfield","state_name":"Ohio","lat":39.89907,"lng":-83.85233,"zip":"45506","miles_from_dt":16.01},{"city":"Sidney","state_name":"Ohio","lat":40.28915,"lng":-84.16326,"zip":"45367","miles_from_dt":16.19},{"city":"Port Jefferson","state_name":"Ohio","lat":40.33028,"lng":-84.09206,"zip":"45360","miles_from_dt":16.39},{"city":"Tipp City","state_name":"Ohio","lat":39.93885,"lng":-84.16357,"zip":"45371","miles_from_dt":16.54},{"city":"Cable","state_name":"Ohio","lat":40.17188,"lng":-83.64234,"zip":"43009","miles_from_dt":16.99},{"city":"Medway","state_name":"Ohio","lat":39.87589,"lng":-84.02045,"zip":"45341","miles_from_dt":17.01},{"city":"Springfield","state_name":"Ohio","lat":39.90737,"lng":-83.7615,"zip":"45505","miles_from_dt":17.75},{"city":"Mingo","state_name":"Ohio","lat":40.20795,"lng":-83.63797,"zip":"43047","miles_from_dt":17.92},{"city":"Maplewood","state_name":"Ohio","lat":40.37184,"lng":-84.04935,"zip":"45340","miles_from_dt":18.26},{"city":"Enon","state_name":"Ohio","lat":39.85131,"lng":-83.92794,"zip":"45323","miles_from_dt":18.4},{"city":"Catawba","state_name":"Ohio","lat":39.99964,"lng":-83.6219,"zip":"43010","miles_from_dt":19.44},{"city":"Bellefontaine","state_name":"Ohio","lat":40.36427,"lng":-83.75812,"zip":"43311","miles_from_dt":19.98},{"city":"Dayton","state_name":"Ohio","lat":39.84695,"lng":-84.11032,"zip":"45424","miles_from_dt":20.38},{"city":"Fairborn","state_name":"Ohio","lat":39.81986,"lng":-84.00026,"zip":"45324","miles_from_dt":20.65},{"city":"Dayton","state_name":"Ohio","lat":39.89335,"lng":-84.21904,"zip":"45490","miles_from_dt":20.85},{"city":"Vandalia","state_name":"Ohio","lat":39.89636,"lng":-84.22774,"zip":"45377","miles_from_dt":21.01},{"city":"Covington","state_name":"Ohio","lat":40.12745,"lng":-84.35391,"zip":"45318","miles_from_dt":21.13},{"city":"Mechanicsburg","state_name":"Ohio","lat":40.05145,"lng":-83.56423,"zip":"43044","miles_from_dt":21.21},{"city":"North Lewisburg","state_name":"Ohio","lat":40.21978,"lng":-83.57295,"zip":"43060","miles_from_dt":21.43},{"city":"Pleasant Hill","state_name":"Ohio","lat":40.05067,"lng":-84.3511,"zip":"45359","miles_from_dt":21.48},{"city":"Dayton","state_name":"Ohio","lat":39.81359,"lng":-84.05273,"zip":"45433","miles_from_dt":21.58},{"city":"South Vienna","state_name":"Ohio","lat":39.95304,"lng":-83.60304,"zip":"45369","miles_from_dt":21.84},{"city":"Houston","state_name":"Ohio","lat":40.2481,"lng":-84.33209,"zip":"45333","miles_from_dt":21.9},{"city":"Ludlow Falls","state_name":"Ohio","lat":40.00826,"lng":-84.34315,"zip":"45339","miles_from_dt":21.9},{"city":"Woodstock","state_name":"Ohio","lat":40.15764,"lng":-83.54223,"zip":"43084","miles_from_dt":22.04},{"city":"Lewistown","state_name":"Ohio","lat":40.43927,"lng":-83.93221,"zip":"43333","miles_from_dt":22.25},{"city":"Yellow Springs","state_name":"Ohio","lat":39.79754,"lng":-83.88622,"zip":"45387","miles_from_dt":22.36},{"city":"Zanesfield","state_name":"Ohio","lat":40.33272,"lng":-83.63114,"zip":"43360","miles_from_dt":22.69},{"city":"West Milton","state_name":"Ohio","lat":39.9572,"lng":-84.3337,"zip":"45383","miles_from_dt":22.91},{"city":"Middleburg","state_name":"Ohio","lat":40.28337,"lng":-83.57651,"zip":"43336","miles_from_dt":23.08},{"city":"Clifton","state_name":"Ohio","lat":39.79754,"lng":-83.82517,"zip":"45316","miles_from_dt":23.11},{"city":"Jackson Center","state_name":"Ohio","lat":40.44662,"lng":-84.04517,"zip":"45334","miles_from_dt":23.22},{"city":"Dayton","state_name":"Ohio","lat":39.84008,"lng":-84.21115,"zip":"45414","miles_from_dt":23.46},{"city":"Anna","state_name":"Ohio","lat":40.40068,"lng":-84.20756,"zip":"45302","miles_from_dt":23.68},{"city":"Dayton","state_name":"Ohio","lat":39.82401,"lng":-84.1898,"zip":"45413","miles_from_dt":23.76},{"city":"East Liberty","state_name":"Ohio","lat":40.30525,"lng":-83.57738,"zip":"43319","miles_from_dt":23.83},{"city":"Dayton","state_name":"Ohio","lat":39.78114,"lng":-84.06312,"zip":"45435","miles_from_dt":23.88},{"city":"Huntsville","state_name":"Ohio","lat":40.44632,"lng":-83.81207,"zip":"43324","miles_from_dt":23.93},{"city":"Russells Point","state_name":"Ohio","lat":40.46754,"lng":-83.88857,"zip":"43348","miles_from_dt":24.43},{"city":"South Charleston","state_name":"Ohio","lat":39.84376,"lng":-83.65413,"zip":"45368","miles_from_dt":24.72},{"city":"Dayton","state_name":"Ohio","lat":39.79011,"lng":-84.15324,"zip":"45404","miles_from_dt":24.9},{"city":"Russia","state_name":"Ohio","lat":40.23925,"lng":-84.39841,"zip":"45363","miles_from_dt":24.92},{"city":"Englewood","state_name":"Ohio","lat":39.89967,"lng":-84.33206,"zip":"45322","miles_from_dt":25},{"city":"Dayton","state_name":"Ohio","lat":39.76488,"lng":-84.08012,"zip":"45431","miles_from_dt":25.2},{"city":"Dayton","state_name":"Ohio","lat":39.83473,"lng":-84.2568,"zip":"45415","miles_from_dt":25.22},{"city":"Dayton","state_name":"Ohio","lat":39.76708,"lng":-84.12512,"zip":"45437","miles_from_dt":25.79},{"city":"Dayton","state_name":"Ohio","lat":39.79241,"lng":-84.21592,"zip":"45405","miles_from_dt":26.34},{"city":"Laura","state_name":"Ohio","lat":39.98019,"lng":-84.42095,"zip":"45337","miles_from_dt":26.45},{"city":"Botkins","state_name":"Ohio","lat":40.45856,"lng":-84.18575,"zip":"45306","miles_from_dt":26.52},{"city":"Dayton","state_name":"Ohio","lat":39.76303,"lng":-84.14978,"zip":"45403","miles_from_dt":26.53},{"city":"Potsdam","state_name":"Ohio","lat":39.96374,"lng":-84.41484,"zip":"45361","miles_from_dt":26.58},{"city":"Bradford","state_name":"Ohio","lat":40.12535,"lng":-84.45699,"zip":"45308","miles_from_dt":26.59},{"city":"Irwin","state_name":"Ohio","lat":40.09598,"lng":-83.45408,"zip":"43029","miles_from_dt":26.59},{"city":"Dayton","state_name":"Ohio","lat":39.80754,"lng":-84.25774,"zip":"45416","miles_from_dt":26.73},{"city":"Fort Loramie","state_name":"Ohio","lat":40.32995,"lng":-84.37806,"zip":"45845","miles_from_dt":26.75},{"city":"Dayton","state_name":"Ohio","lat":39.77463,"lng":-84.1984,"zip":"45401","miles_from_dt":26.93},{"city":"Dayton","state_name":"Ohio","lat":39.73934,"lng":-84.08627,"zip":"45432","miles_from_dt":26.98},{"city":"Milford Center","state_name":"Ohio","lat":40.16932,"lng":-83.44975,"zip":"43045","miles_from_dt":27},{"city":"Clayton","state_name":"Ohio","lat":39.85772,"lng":-84.33875,"zip":"45315","miles_from_dt":27.11},{"city":"Cedarville","state_name":"Ohio","lat":39.74608,"lng":-83.77363,"zip":"45314","miles_from_dt":27.36},{"city":"Dayton","state_name":"Ohio","lat":39.72284,"lng":-84.03052,"zip":"45434","miles_from_dt":27.5},{"city":"Dayton","state_name":"Ohio","lat":39.7606,"lng":-84.18663,"zip":"45422","miles_from_dt":27.5},{"city":"Dayton","state_name":"Ohio","lat":39.75761,"lng":-84.1788,"zip":"45481","miles_from_dt":27.51},{"city":"Dayton","state_name":"Ohio","lat":39.78442,"lng":-84.24178,"zip":"45406","miles_from_dt":27.55},{"city":"Phillipsburg","state_name":"Ohio","lat":39.91033,"lng":-84.39983,"zip":"45354","miles_from_dt":27.57},{"city":"Dayton","state_name":"Ohio","lat":39.7604,"lng":-84.19112,"zip":"45423","miles_from_dt":27.62},{"city":"Kettlersville","state_name":"Ohio","lat":40.44256,"lng":-84.25988,"zip":"45336","miles_from_dt":27.63},{"city":"Dayton","state_name":"Ohio","lat":39.76081,"lng":-84.1934,"zip":"45412","miles_from_dt":27.65},{"city":"Dayton","state_name":"Ohio","lat":39.74757,"lng":-84.15907,"zip":"45410","miles_from_dt":27.71},{"city":"Lakeview","state_name":"Ohio","lat":40.51794,"lng":-83.9191,"zip":"43331","miles_from_dt":27.72},{"city":"Wilberforce","state_name":"Ohio","lat":39.71444,"lng":-83.88638,"zip":"45384","miles_from_dt":28.03},{"city":"Dayton","state_name":"Ohio","lat":39.75983,"lng":-84.20751,"zip":"45402","miles_from_dt":28.06},{"city":"Alpha","state_name":"Ohio","lat":39.71098,"lng":-84.02301,"zip":"45301","miles_from_dt":28.26},{"city":"Dayton","state_name":"Ohio","lat":39.72153,"lng":-84.10107,"zip":"45482","miles_from_dt":28.38},{"city":"Dayton","state_name":"Ohio","lat":39.74033,"lng":-84.17911,"zip":"45469","miles_from_dt":28.59},{"city":"Gettysburg","state_name":"Ohio","lat":40.11621,"lng":-84.49676,"zip":"45328","miles_from_dt":28.69},{"city":"Dayton","state_name":"Ohio","lat":39.71296,"lng":-84.08435,"zip":"45430","miles_from_dt":28.72},{"city":"Dayton","state_name":"Ohio","lat":39.80094,"lng":-84.31461,"zip":"45426","miles_from_dt":28.99},{"city":"Dayton","state_name":"Ohio","lat":39.719,"lng":-84.13045,"zip":"45420","miles_from_dt":29.01},{"city":"Minster","state_name":"Ohio","lat":40.39379,"lng":-84.37219,"zip":"45865","miles_from_dt":29.16},{"city":"Rushsylvania","state_name":"Ohio","lat":40.47771,"lng":-83.65804,"zip":"43347","miles_from_dt":29.41},{"city":"Raymond","state_name":"Ohio","lat":40.34368,"lng":-83.48388,"zip":"43067","miles_from_dt":29.42},{"city":"Pitsburg","state_name":"Ohio","lat":39.98724,"lng":-84.48796,"zip":"45358","miles_from_dt":29.64},{"city":"Dayton","state_name":"Ohio","lat":39.72334,"lng":-84.19039,"zip":"45409","miles_from_dt":29.91},{"city":"Dayton","state_name":"Ohio","lat":39.72396,"lng":-84.1924,"zip":"45479","miles_from_dt":29.92},{"city":"Dayton","state_name":"Ohio","lat":39.71436,"lng":-84.1676,"zip":"45419","miles_from_dt":30}],"targetCityZipCode":"43072","targetCityState":"Ohio"},"__N_SSG":true}