{"pageProps":{"stateName":"Ohio","cityName":"syracuse","nearbyCities":[{"city":"Hartford","state_name":"West Virginia","lat":39.001,"lng":-81.98987,"zip":"25247","miles_from_dt":1.04},{"city":"New Haven","state_name":"West Virginia","lat":38.98129,"lng":-81.97356,"zip":"25265","miles_from_dt":1.22},{"city":"Mason","state_name":"West Virginia","lat":39.01653,"lng":-82.02465,"zip":"25260","miles_from_dt":3.14},{"city":"Racine","state_name":"Ohio","lat":38.98204,"lng":-81.89902,"zip":"45771","miles_from_dt":4.04},{"city":"West Columbia","state_name":"West Virginia","lat":38.96158,"lng":-82.04834,"zip":"25287","miles_from_dt":4.9},{"city":"Letart","state_name":"West Virginia","lat":38.91947,"lng":-81.9669,"zip":"25253","miles_from_dt":5.48},{"city":"Chester","state_name":"Ohio","lat":39.09404,"lng":-81.92312,"zip":"45720","miles_from_dt":7.05},{"city":"Middleport","state_name":"Ohio","lat":39.01395,"lng":-82.12244,"zip":"45760","miles_from_dt":8.23},{"city":"Long Bottom","state_name":"Ohio","lat":39.076,"lng":-81.85017,"zip":"45743","miles_from_dt":8.39},{"city":"Pomeroy","state_name":"Ohio","lat":39.1062,"lng":-82.04578,"zip":"45769","miles_from_dt":8.43},{"city":"Portland","state_name":"Ohio","lat":38.98586,"lng":-81.80238,"zip":"45770","miles_from_dt":9.11},{"city":"Cheshire","state_name":"Ohio","lat":38.95564,"lng":-82.14052,"zip":"45620","miles_from_dt":9.61},{"city":"Millwood","state_name":"West Virginia","lat":38.90751,"lng":-81.83219,"zip":"25262","miles_from_dt":9.77},{"city":"Mount Alto","state_name":"West Virginia","lat":38.85547,"lng":-81.89516,"zip":"25264","miles_from_dt":10.7},{"city":"Point Pleasant","state_name":"West Virginia","lat":38.86655,"lng":-82.0749,"zip":"25550","miles_from_dt":10.71},{"city":"Rutland","state_name":"Ohio","lat":39.0876,"lng":-82.15596,"zip":"45775","miles_from_dt":11.69},{"city":"Reedsville","state_name":"Ohio","lat":39.1408,"lng":-81.82268,"zip":"45772","miles_from_dt":12.62},{"city":"Cottageville","state_name":"West Virginia","lat":38.84616,"lng":-81.83941,"zip":"25239","miles_from_dt":12.69},{"city":"Shade","state_name":"Ohio","lat":39.18732,"lng":-82.0228,"zip":"45776","miles_from_dt":13.3},{"city":"Ravenswood","state_name":"West Virginia","lat":38.99061,"lng":-81.71949,"zip":"26164","miles_from_dt":13.54},{"city":"Tuppers Plains","state_name":"Ohio","lat":39.17505,"lng":-81.83929,"zip":"45783","miles_from_dt":14.06},{"city":"Langsville","state_name":"Ohio","lat":39.06648,"lng":-82.2527,"zip":"45741","miles_from_dt":15.87},{"city":"Henderson","state_name":"West Virginia","lat":38.77598,"lng":-82.08237,"zip":"25106","miles_from_dt":16.51},{"city":"Coolville","state_name":"Ohio","lat":39.22173,"lng":-81.8268,"zip":"45723","miles_from_dt":17.21},{"city":"Evans","state_name":"West Virginia","lat":38.78427,"lng":-81.80801,"zip":"25241","miles_from_dt":17.21},{"city":"Bidwell","state_name":"Ohio","lat":38.92858,"lng":-82.27819,"zip":"45614","miles_from_dt":17.25},{"city":"Guysville","state_name":"Ohio","lat":39.25183,"lng":-81.9229,"zip":"45735","miles_from_dt":17.64},{"city":"Hockingport","state_name":"Ohio","lat":39.19055,"lng":-81.7462,"zip":"45739","miles_from_dt":17.91},{"city":"Kerr","state_name":"Ohio","lat":38.87112,"lng":-82.26283,"zip":"45643","miles_from_dt":18.03},{"city":"Belleville","state_name":"West Virginia","lat":39.11973,"lng":-81.66968,"zip":"26133","miles_from_dt":18.22},{"city":"Leon","state_name":"West Virginia","lat":38.73172,"lng":-81.90214,"zip":"25123","miles_from_dt":18.79},{"city":"Southside","state_name":"West Virginia","lat":38.72617,"lng":-82.01878,"zip":"25187","miles_from_dt":18.99},{"city":"Gallipolis Ferry","state_name":"West Virginia","lat":38.75731,"lng":-82.15262,"zip":"25515","miles_from_dt":19.33},{"city":"Albany","state_name":"Ohio","lat":39.19763,"lng":-82.22574,"zip":"45710","miles_from_dt":19.39},{"city":"Sandyville","state_name":"West Virginia","lat":38.92451,"lng":-81.61687,"zip":"25275","miles_from_dt":19.74},{"city":"Gallipolis","state_name":"Ohio","lat":38.81672,"lng":-82.25486,"zip":"45631","miles_from_dt":19.8},{"city":"Ripley","state_name":"West Virginia","lat":38.78845,"lng":-81.68625,"zip":"25271","miles_from_dt":21.12},{"city":"Vinton","state_name":"Ohio","lat":39.00901,"lng":-82.36843,"zip":"45686","miles_from_dt":21.41},{"city":"Washington","state_name":"West Virginia","lat":39.20707,"lng":-81.6733,"zip":"26181","miles_from_dt":21.5},{"city":"Rockport","state_name":"West Virginia","lat":39.07291,"lng":-81.57121,"zip":"26169","miles_from_dt":22.1},{"city":"Athens","state_name":"Ohio","lat":39.31205,"lng":-82.08079,"zip":"45701","miles_from_dt":22.4},{"city":"Rio Grande","state_name":"Ohio","lat":38.87798,"lng":-82.38017,"zip":"45674","miles_from_dt":23.58},{"city":"Wilkesville","state_name":"Ohio","lat":39.1529,"lng":-82.36334,"zip":"45695","miles_from_dt":23.63},{"city":"Little Hocking","state_name":"Ohio","lat":39.28563,"lng":-81.73008,"zip":"45742","miles_from_dt":23.64},{"city":"Given","state_name":"West Virginia","lat":38.69916,"lng":-81.7393,"zip":"25245","miles_from_dt":24.15},{"city":"Apple Grove","state_name":"West Virginia","lat":38.66501,"lng":-82.11024,"zip":"25502","miles_from_dt":24.23},{"city":"Stewart","state_name":"Ohio","lat":39.34672,"lng":-81.89555,"zip":"45778","miles_from_dt":24.34},{"city":"Le Roy","state_name":"West Virginia","lat":38.88345,"lng":-81.53679,"zip":"25252","miles_from_dt":24.7},{"city":"Mineral Wells","state_name":"West Virginia","lat":39.1566,"lng":-81.53697,"zip":"26150","miles_from_dt":25.74},{"city":"Thurman","state_name":"Ohio","lat":38.9333,"lng":-82.4527,"zip":"45685","miles_from_dt":26.34},{"city":"Parkersburg","state_name":"West Virginia","lat":39.23394,"lng":-81.57483,"zip":"26101","miles_from_dt":26.76},{"city":"Buffalo","state_name":"West Virginia","lat":38.61095,"lng":-81.92511,"zip":"25033","miles_from_dt":26.87},{"city":"The Plains","state_name":"Ohio","lat":39.36972,"lng":-82.13112,"zip":"45780","miles_from_dt":26.99},{"city":"New Marshfield","state_name":"Ohio","lat":39.31931,"lng":-82.26247,"zip":"45766","miles_from_dt":27.09},{"city":"Fraziers Bottom","state_name":"West Virginia","lat":38.60861,"lng":-82.02879,"zip":"25082","miles_from_dt":27.1},{"city":"Gay","state_name":"West Virginia","lat":38.77068,"lng":-81.54237,"zip":"25244","miles_from_dt":27.95},{"city":"Ashton","state_name":"West Virginia","lat":38.60835,"lng":-82.11666,"zip":"25503","miles_from_dt":28.06},{"city":"Parkersburg","state_name":"West Virginia","lat":39.24827,"lng":-81.5572,"zip":"26103","miles_from_dt":28.11},{"city":"Cutler","state_name":"Ohio","lat":39.38246,"lng":-81.79233,"zip":"45724","miles_from_dt":28.14},{"city":"Mineral Wells","state_name":"West Virginia","lat":39.17214,"lng":-81.49489,"zip":"26121","miles_from_dt":28.24},{"city":"Mineral Wells","state_name":"West Virginia","lat":39.16866,"lng":-81.49021,"zip":"26120","miles_from_dt":28.37},{"city":"Liberty","state_name":"West Virginia","lat":38.62006,"lng":-81.76536,"zip":"25124","miles_from_dt":28.38},{"city":"Patriot","state_name":"Ohio","lat":38.76324,"lng":-82.41411,"zip":"45658","miles_from_dt":28.9},{"city":"Chauncey","state_name":"Ohio","lat":39.39951,"lng":-82.1285,"zip":"45719","miles_from_dt":28.91},{"city":"Belpre","state_name":"Ohio","lat":39.3183,"lng":-81.62001,"zip":"45714","miles_from_dt":28.99},{"city":"Crown City","state_name":"Ohio","lat":38.64125,"lng":-82.26748,"zip":"45623","miles_from_dt":29.41},{"city":"Amesville","state_name":"Ohio","lat":39.42503,"lng":-81.93038,"zip":"45711","miles_from_dt":29.48},{"city":"Parkersburg","state_name":"West Virginia","lat":39.23975,"lng":-81.5164,"zip":"26102","miles_from_dt":29.54}],"targetCityZipCode":"45779","targetCityState":"Ohio"},"__N_SSG":true}