{"pageProps":{"stateName":"Iowa","cityName":"boone","nearbyCities":[{"city":"Boone","state_name":"Iowa","lat":42.05965,"lng":-93.88218,"zip":"50099","miles_from_dt":2.51},{"city":"Boone","state_name":"Iowa","lat":42.05618,"lng":-93.88076,"zip":"50037","miles_from_dt":2.67},{"city":"Luther","state_name":"Iowa","lat":41.96873,"lng":-93.81765,"zip":"50152","miles_from_dt":8.52},{"city":"Ames","state_name":"Iowa","lat":42.04993,"lng":-93.69342,"zip":"50014","miles_from_dt":8.68},{"city":"Pilot Mound","state_name":"Iowa","lat":42.17117,"lng":-94.02831,"zip":"50223","miles_from_dt":10.6},{"city":"Gilbert","state_name":"Iowa","lat":42.11754,"lng":-93.63912,"zip":"50105","miles_from_dt":11.21},{"city":"Ames","state_name":"Iowa","lat":42.02904,"lng":-93.65086,"zip":"50012","miles_from_dt":11.23},{"city":"Ogden","state_name":"Iowa","lat":42.03515,"lng":-94.05996,"zip":"50212","miles_from_dt":11.24},{"city":"Ames","state_name":"Iowa","lat":42.01732,"lng":-93.64809,"zip":"50013","miles_from_dt":11.69},{"city":"Ames","state_name":"Iowa","lat":42.02222,"lng":-93.63948,"zip":"50011","miles_from_dt":11.95},{"city":"Stratford","state_name":"Iowa","lat":42.26991,"lng":-93.89973,"zip":"50249","miles_from_dt":12.69},{"city":"Madrid","state_name":"Iowa","lat":41.90349,"lng":-93.80001,"zip":"50156","miles_from_dt":13.11},{"city":"Kelley","state_name":"Iowa","lat":41.93992,"lng":-93.67429,"zip":"50134","miles_from_dt":13.84},{"city":"Stanhope","state_name":"Iowa","lat":42.28411,"lng":-93.78198,"zip":"50246","miles_from_dt":13.95},{"city":"Boxholm","state_name":"Iowa","lat":42.17363,"lng":-94.10121,"zip":"50040","miles_from_dt":13.98},{"city":"Ames","state_name":"Iowa","lat":42.03316,"lng":-93.58761,"zip":"50010","miles_from_dt":14.23},{"city":"Story City","state_name":"Iowa","lat":42.19256,"lng":-93.61297,"zip":"50248","miles_from_dt":14.28},{"city":"Beaver","state_name":"Iowa","lat":42.03881,"lng":-94.14003,"zip":"50031","miles_from_dt":15.13},{"city":"Dayton","state_name":"Iowa","lat":42.27021,"lng":-94.04173,"zip":"50530","miles_from_dt":15.79},{"city":"Woodward","state_name":"Iowa","lat":41.85997,"lng":-93.923,"zip":"50276","miles_from_dt":16.22},{"city":"Randall","state_name":"Iowa","lat":42.23765,"lng":-93.60257,"zip":"50231","miles_from_dt":16.47},{"city":"Jewell","state_name":"Iowa","lat":42.30074,"lng":-93.67331,"zip":"50130","miles_from_dt":17.29},{"city":"Sheldahl","state_name":"Iowa","lat":41.86457,"lng":-93.6967,"zip":"50243","miles_from_dt":17.49},{"city":"Huxley","state_name":"Iowa","lat":41.88516,"lng":-93.60446,"zip":"50124","miles_from_dt":19.06},{"city":"Grand Junction","state_name":"Iowa","lat":42.03547,"lng":-94.2191,"zip":"50107","miles_from_dt":19.15},{"city":"Dana","state_name":"Iowa","lat":42.10671,"lng":-94.229,"zip":"50064","miles_from_dt":19.32},{"city":"Slater","state_name":"Iowa","lat":41.85083,"lng":-93.65126,"zip":"50244","miles_from_dt":19.48},{"city":"Roland","state_name":"Iowa","lat":42.1675,"lng":-93.4834,"zip":"50236","miles_from_dt":19.78},{"city":"Bouton","state_name":"Iowa","lat":41.82615,"lng":-94.00653,"zip":"50039","miles_from_dt":19.79},{"city":"Harcourt","state_name":"Iowa","lat":42.2537,"lng":-94.17042,"zip":"50544","miles_from_dt":19.83},{"city":"Lehigh","state_name":"Iowa","lat":42.35544,"lng":-94.04409,"zip":"50557","miles_from_dt":20.81},{"city":"Paton","state_name":"Iowa","lat":42.17206,"lng":-94.24984,"zip":"50217","miles_from_dt":21.14},{"city":"Rippey","state_name":"Iowa","lat":41.92974,"lng":-94.20873,"zip":"50235","miles_from_dt":21.33},{"city":"Nevada","state_name":"Iowa","lat":42.03337,"lng":-93.44434,"zip":"50201","miles_from_dt":21.41},{"city":"Polk City","state_name":"Iowa","lat":41.79716,"lng":-93.70566,"zip":"50226","miles_from_dt":21.55},{"city":"Burnside","state_name":"Iowa","lat":42.3462,"lng":-94.10276,"zip":"50521","miles_from_dt":21.86},{"city":"Cambridge","state_name":"Iowa","lat":41.88974,"lng":-93.5234,"zip":"50046","miles_from_dt":21.88},{"city":"Perry","state_name":"Iowa","lat":41.8366,"lng":-94.12293,"zip":"50220","miles_from_dt":22.27},{"city":"Granger","state_name":"Iowa","lat":41.76802,"lng":-93.80775,"zip":"50109","miles_from_dt":22.29},{"city":"Ellsworth","state_name":"Iowa","lat":42.33516,"lng":-93.56054,"zip":"50075","miles_from_dt":22.68},{"city":"Kamrar","state_name":"Iowa","lat":42.39392,"lng":-93.68256,"zip":"50132","miles_from_dt":22.79},{"city":"Alleman","state_name":"Iowa","lat":41.80365,"lng":-93.60043,"zip":"50007","miles_from_dt":23.64},{"city":"McCallsburg","state_name":"Iowa","lat":42.17625,"lng":-93.39068,"zip":"50154","miles_from_dt":24.54},{"city":"Garden City","state_name":"Iowa","lat":42.24554,"lng":-93.40022,"zip":"50102","miles_from_dt":25.67},{"city":"Radcliffe","state_name":"Iowa","lat":42.30655,"lng":-93.44718,"zip":"50230","miles_from_dt":25.7},{"city":"Webster City","state_name":"Iowa","lat":42.46097,"lng":-93.82154,"zip":"50595","miles_from_dt":25.71},{"city":"Minburn","state_name":"Iowa","lat":41.74613,"lng":-94.04871,"zip":"50167","miles_from_dt":25.72},{"city":"Otho","state_name":"Iowa","lat":42.4032,"lng":-94.13841,"zip":"50569","miles_from_dt":26.13},{"city":"Gowrie","state_name":"Iowa","lat":42.27434,"lng":-94.30666,"zip":"50543","miles_from_dt":26.53},{"city":"Elkhart","state_name":"Iowa","lat":41.79234,"lng":-93.52463,"zip":"50073","miles_from_dt":26.6},{"city":"Duncombe","state_name":"Iowa","lat":42.46212,"lng":-94.00175,"zip":"50532","miles_from_dt":26.83},{"city":"Jefferson","state_name":"Iowa","lat":42.01335,"lng":-94.3764,"zip":"50129","miles_from_dt":27.39},{"city":"Ankeny","state_name":"Iowa","lat":41.72768,"lng":-93.63412,"zip":"50023","miles_from_dt":27.4},{"city":"Dallas Center","state_name":"Iowa","lat":41.69669,"lng":-93.93677,"zip":"50063","miles_from_dt":27.43},{"city":"Grimes","state_name":"Iowa","lat":41.69353,"lng":-93.80358,"zip":"50111","miles_from_dt":27.43},{"city":"Dawson","state_name":"Iowa","lat":41.8051,"lng":-94.22708,"zip":"50066","miles_from_dt":27.47},{"city":"Johnston","state_name":"Iowa","lat":41.69749,"lng":-93.72021,"zip":"50131","miles_from_dt":27.9},{"city":"Jamaica","state_name":"Iowa","lat":41.85173,"lng":-94.29853,"zip":"50128","miles_from_dt":28.17},{"city":"Cooper","state_name":"Iowa","lat":41.89957,"lng":-94.33951,"zip":"50059","miles_from_dt":28.23},{"city":"Maxwell","state_name":"Iowa","lat":41.84764,"lng":-93.39914,"zip":"50161","miles_from_dt":28.75},{"city":"Zearing","state_name":"Iowa","lat":42.1528,"lng":-93.29926,"zip":"50278","miles_from_dt":28.83},{"city":"Colo","state_name":"Iowa","lat":42.01925,"lng":-93.29701,"zip":"50056","miles_from_dt":29.04},{"city":"Ankeny","state_name":"Iowa","lat":41.7207,"lng":-93.56838,"zip":"50021","miles_from_dt":29.38},{"city":"Callender","state_name":"Iowa","lat":42.36783,"lng":-94.29357,"zip":"50523","miles_from_dt":29.64}],"targetCityZipCode":"50036","targetCityState":"Iowa"},"__N_SSG":true}