{"pageProps":{"stateName":"Iowa","cityName":"carpenter","nearbyCities":[{"city":"Saint Ansgar","state_name":"Iowa","lat":43.42265,"lng":-92.94644,"zip":"50472","miles_from_dt":3.6},{"city":"Toeterville","state_name":"Iowa","lat":43.37833,"lng":-92.91861,"zip":"50481","miles_from_dt":5.57},{"city":"Grafton","state_name":"Iowa","lat":43.33213,"lng":-93.06891,"zip":"50440","miles_from_dt":6.29},{"city":"Lyle","state_name":"Minnesota","lat":43.52772,"lng":-92.96521,"zip":"55953","miles_from_dt":8.2},{"city":"Plymouth","state_name":"Iowa","lat":43.25146,"lng":-93.0765,"zip":"50464","miles_from_dt":11.68},{"city":"Northwood","state_name":"Iowa","lat":43.4458,"lng":-93.25445,"zip":"50459","miles_from_dt":12.12},{"city":"Kensett","state_name":"Iowa","lat":43.35053,"lng":-93.24753,"zip":"50448","miles_from_dt":12.42},{"city":"Osage","state_name":"Iowa","lat":43.29995,"lng":-92.81412,"zip":"50461","miles_from_dt":12.95},{"city":"Stacyville","state_name":"Iowa","lat":43.4527,"lng":-92.76311,"zip":"50476","miles_from_dt":13.04},{"city":"Manly","state_name":"Iowa","lat":43.28812,"lng":-93.21579,"zip":"50456","miles_from_dt":13.3},{"city":"Glenville","state_name":"Minnesota","lat":43.5513,"lng":-93.22152,"zip":"56036","miles_from_dt":13.93},{"city":"Little Cedar","state_name":"Iowa","lat":43.38505,"lng":-92.73935,"zip":"50454","miles_from_dt":14.14},{"city":"Rock Falls","state_name":"Iowa","lat":43.20916,"lng":-93.06608,"zip":"50467","miles_from_dt":14.43},{"city":"Rose Creek","state_name":"Minnesota","lat":43.59681,"lng":-92.83118,"zip":"55970","miles_from_dt":15.65},{"city":"Adams","state_name":"Minnesota","lat":43.56312,"lng":-92.73461,"zip":"55909","miles_from_dt":17.5},{"city":"Nora Springs","state_name":"Iowa","lat":43.15969,"lng":-93.00609,"zip":"50458","miles_from_dt":17.64},{"city":"Austin","state_name":"Minnesota","lat":43.6827,"lng":-92.99148,"zip":"55912","miles_from_dt":18.52},{"city":"Rudd","state_name":"Iowa","lat":43.16486,"lng":-92.87834,"zip":"50471","miles_from_dt":18.64},{"city":"McIntire","state_name":"Iowa","lat":43.45695,"lng":-92.64981,"zip":"50455","miles_from_dt":18.71},{"city":"Hayward","state_name":"Minnesota","lat":43.65236,"lng":-93.22809,"zip":"56043","miles_from_dt":19.51},{"city":"Mason City","state_name":"Iowa","lat":43.15389,"lng":-93.20006,"zip":"50401","miles_from_dt":20.25},{"city":"Hanlontown","state_name":"Iowa","lat":43.29258,"lng":-93.38601,"zip":"50444","miles_from_dt":20.41},{"city":"Mason City","state_name":"Iowa","lat":43.15167,"lng":-93.20448,"zip":"50402","miles_from_dt":20.49},{"city":"Taopi","state_name":"Minnesota","lat":43.55371,"lng":-92.64792,"zip":"55977","miles_from_dt":20.88},{"city":"Orchard","state_name":"Iowa","lat":43.2259,"lng":-92.6902,"zip":"50460","miles_from_dt":21.03},{"city":"Floyd","state_name":"Iowa","lat":43.15752,"lng":-92.76877,"zip":"50435","miles_from_dt":21.75},{"city":"Joice","state_name":"Iowa","lat":43.33821,"lng":-93.45394,"zip":"50446","miles_from_dt":22.62},{"city":"Lansing","state_name":"Minnesota","lat":43.74341,"lng":-92.96618,"zip":"55950","miles_from_dt":22.81},{"city":"Albert Lea","state_name":"Minnesota","lat":43.66085,"lng":-93.3238,"zip":"56007","miles_from_dt":22.91},{"city":"Elkton","state_name":"Minnesota","lat":43.64787,"lng":-92.68504,"zip":"55933","miles_from_dt":23.16},{"city":"Twin Lakes","state_name":"Minnesota","lat":43.55631,"lng":-93.4508,"zip":"56089","miles_from_dt":23.88},{"city":"Brownsdale","state_name":"Minnesota","lat":43.74236,"lng":-92.84673,"zip":"55918","miles_from_dt":24.16},{"city":"Riceville","state_name":"Iowa","lat":43.38782,"lng":-92.53815,"zip":"50466","miles_from_dt":24.19},{"city":"Fertile","state_name":"Iowa","lat":43.25857,"lng":-93.45758,"zip":"50434","miles_from_dt":24.68},{"city":"Lake Mills","state_name":"Iowa","lat":43.42045,"lng":-93.51998,"zip":"50450","miles_from_dt":25.3},{"city":"Rockford","state_name":"Iowa","lat":43.04631,"lng":-92.95703,"zip":"50468","miles_from_dt":25.64},{"city":"Hollandale","state_name":"Minnesota","lat":43.75977,"lng":-93.20948,"zip":"56045","miles_from_dt":25.68},{"city":"Clear Lake","state_name":"Iowa","lat":43.13573,"lng":-93.38815,"zip":"50428","miles_from_dt":26.87},{"city":"Emmons","state_name":"Minnesota","lat":43.52519,"lng":-93.53003,"zip":"56029","miles_from_dt":26.88},{"city":"Dexter","state_name":"Minnesota","lat":43.74279,"lng":-92.70689,"zip":"55926","miles_from_dt":27.47},{"city":"Colwell","state_name":"Iowa","lat":43.15712,"lng":-92.5912,"zip":"50620","miles_from_dt":27.9},{"city":"Le Roy","state_name":"Minnesota","lat":43.53529,"lng":-92.48414,"zip":"55951","miles_from_dt":28.05},{"city":"Waltham","state_name":"Minnesota","lat":43.81582,"lng":-92.886,"zip":"55982","miles_from_dt":28.44},{"city":"Conger","state_name":"Minnesota","lat":43.6146,"lng":-93.53019,"zip":"56020","miles_from_dt":29.22},{"city":"Clarks Grove","state_name":"Minnesota","lat":43.76378,"lng":-93.34855,"zip":"56016","miles_from_dt":29.26},{"city":"Charles City","state_name":"Iowa","lat":43.07978,"lng":-92.66104,"zip":"50616","miles_from_dt":29.3},{"city":"Grand Meadow","state_name":"Minnesota","lat":43.70943,"lng":-92.58524,"zip":"55936","miles_from_dt":29.72},{"city":"Sargeant","state_name":"Minnesota","lat":43.80794,"lng":-92.772,"zip":"55973","miles_from_dt":29.78}],"targetCityZipCode":"50426","targetCityState":"Iowa"},"__N_SSG":true}