{"pageProps":{"stateName":"Iowa","cityName":"decorah","nearbyCities":[{"city":"Highlandville","state_name":"Iowa","lat":43.30536,"lng":-91.78988,"zip":"52149","miles_from_dt":3.81},{"city":"Ridgeway","state_name":"Iowa","lat":43.30671,"lng":-91.98465,"zip":"52165","miles_from_dt":11.61},{"city":"Calmar","state_name":"Iowa","lat":43.2067,"lng":-91.91881,"zip":"52132","miles_from_dt":12.98},{"city":"Dorchester","state_name":"Iowa","lat":43.44173,"lng":-91.53108,"zip":"52140","miles_from_dt":13.13},{"city":"Spillville","state_name":"Iowa","lat":43.20339,"lng":-91.95338,"zip":"52168","miles_from_dt":14.26},{"city":"Mabel","state_name":"Minnesota","lat":43.56422,"lng":-91.78455,"zip":"55954","miles_from_dt":14.31},{"city":"Waukon","state_name":"Iowa","lat":43.27117,"lng":-91.48382,"zip":"52172","miles_from_dt":15.37},{"city":"Canton","state_name":"Minnesota","lat":43.5621,"lng":-91.89562,"zip":"55922","miles_from_dt":15.58},{"city":"Ossian","state_name":"Iowa","lat":43.12733,"lng":-91.75623,"zip":"52161","miles_from_dt":15.89},{"city":"Spring Grove","state_name":"Minnesota","lat":43.57968,"lng":-91.64382,"zip":"55974","miles_from_dt":16.51},{"city":"Cresco","state_name":"Iowa","lat":43.37139,"lng":-92.11289,"zip":"52136","miles_from_dt":17.55},{"city":"Castalia","state_name":"Iowa","lat":43.10702,"lng":-91.66854,"zip":"52133","miles_from_dt":17.96},{"city":"Fort Atkinson","state_name":"Iowa","lat":43.13961,"lng":-91.96075,"zip":"52144","miles_from_dt":17.99},{"city":"Protivin","state_name":"Iowa","lat":43.21976,"lng":-92.10315,"zip":"52163","miles_from_dt":19.52},{"city":"Postville","state_name":"Iowa","lat":43.11062,"lng":-91.55266,"zip":"52162","miles_from_dt":20.13},{"city":"Harmony","state_name":"Minnesota","lat":43.54682,"lng":-92.08144,"zip":"55939","miles_from_dt":20.6},{"city":"Eitzen","state_name":"Minnesota","lat":43.51424,"lng":-91.39703,"zip":"55931","miles_from_dt":21.44},{"city":"Saint Lucas","state_name":"Iowa","lat":43.06791,"lng":-91.93547,"zip":"52166","miles_from_dt":21.76},{"city":"New Albin","state_name":"Iowa","lat":43.46733,"lng":-91.3521,"zip":"52160","miles_from_dt":22.12},{"city":"Caledonia","state_name":"Minnesota","lat":43.62265,"lng":-91.46388,"zip":"55921","miles_from_dt":23.75},{"city":"Clermont","state_name":"Iowa","lat":43.01945,"lng":-91.66204,"zip":"52135","miles_from_dt":23.9},{"city":"Waucoma","state_name":"Iowa","lat":43.07451,"lng":-92.04808,"zip":"52171","miles_from_dt":24.2},{"city":"Lansing","state_name":"Iowa","lat":43.34706,"lng":-91.28013,"zip":"52151","miles_from_dt":24.43},{"city":"Waterville","state_name":"Iowa","lat":43.22886,"lng":-91.30485,"zip":"52170","miles_from_dt":24.84},{"city":"West Union","state_name":"Iowa","lat":42.99372,"lng":-91.82389,"zip":"52175","miles_from_dt":25.28},{"city":"Luana","state_name":"Iowa","lat":43.05316,"lng":-91.46534,"zip":"52156","miles_from_dt":25.88},{"city":"Lawler","state_name":"Iowa","lat":43.12201,"lng":-92.16519,"zip":"52154","miles_from_dt":25.93},{"city":"Lanesboro","state_name":"Minnesota","lat":43.71156,"lng":-91.94032,"zip":"55949","miles_from_dt":25.99},{"city":"Preston","state_name":"Minnesota","lat":43.62913,"lng":-92.13282,"zip":"55965","miles_from_dt":26.34},{"city":"Lime Springs","state_name":"Iowa","lat":43.41412,"lng":-92.29683,"zip":"52155","miles_from_dt":27.06},{"city":"Monona","state_name":"Iowa","lat":43.07979,"lng":-91.36134,"zip":"52159","miles_from_dt":27.97},{"city":"Peterson","state_name":"Minnesota","lat":43.76213,"lng":-91.84219,"zip":"55962","miles_from_dt":28.21},{"city":"Brownsville","state_name":"Minnesota","lat":43.61443,"lng":-91.2941,"zip":"55919","miles_from_dt":29.58},{"city":"Elgin","state_name":"Iowa","lat":42.93924,"lng":-91.63007,"zip":"52141","miles_from_dt":29.66},{"city":"Hawkeye","state_name":"Iowa","lat":42.94957,"lng":-91.96106,"zip":"52147","miles_from_dt":29.85}],"targetCityZipCode":"52101","targetCityState":"Iowa"},"__N_SSG":true}