{"pageProps":{"stateName":"Iowa","cityName":"dyersville","nearbyCities":[{"city":"New Vienna","state_name":"Iowa","lat":42.58353,"lng":-91.10202,"zip":"52065","miles_from_dt":5.34},{"city":"Earlville","state_name":"Iowa","lat":42.5051,"lng":-91.25515,"zip":"52041","miles_from_dt":5.95},{"city":"Luxemburg","state_name":"Iowa","lat":42.60401,"lng":-91.07257,"zip":"52056","miles_from_dt":7.25},{"city":"Worthington","state_name":"Iowa","lat":42.39506,"lng":-91.11534,"zip":"52078","miles_from_dt":8.1},{"city":"Farley","state_name":"Iowa","lat":42.44024,"lng":-91.0119,"zip":"52046","miles_from_dt":8.13},{"city":"Colesburg","state_name":"Iowa","lat":42.65996,"lng":-91.18784,"zip":"52035","miles_from_dt":10.57},{"city":"Delaware","state_name":"Iowa","lat":42.47285,"lng":-91.34086,"zip":"52036","miles_from_dt":10.65},{"city":"Holy Cross","state_name":"Iowa","lat":42.60656,"lng":-90.96399,"zip":"52053","miles_from_dt":11.09},{"city":"Epworth","state_name":"Iowa","lat":42.45485,"lng":-90.93113,"zip":"52045","miles_from_dt":11.3},{"city":"Delhi","state_name":"Iowa","lat":42.41315,"lng":-91.32408,"zip":"52223","miles_from_dt":11.63},{"city":"Greeley","state_name":"Iowa","lat":42.60532,"lng":-91.33204,"zip":"52050","miles_from_dt":11.81},{"city":"Hopkinton","state_name":"Iowa","lat":42.34368,"lng":-91.25193,"zip":"52237","miles_from_dt":12.92},{"city":"Durango","state_name":"Iowa","lat":42.53807,"lng":-90.85745,"zip":"52039","miles_from_dt":14.49},{"city":"North Buena Vista","state_name":"Iowa","lat":42.693,"lng":-90.96925,"zip":"52066","miles_from_dt":15.24},{"city":"Guttenberg","state_name":"Iowa","lat":42.7411,"lng":-91.12083,"zip":"52052","miles_from_dt":15.9},{"city":"Manchester","state_name":"Iowa","lat":42.4916,"lng":-91.45333,"zip":"52057","miles_from_dt":16.12},{"city":"Edgewood","state_name":"Iowa","lat":42.68098,"lng":-91.36517,"zip":"52042","miles_from_dt":16.45},{"city":"Garber","state_name":"Iowa","lat":42.73735,"lng":-91.25584,"zip":"52048","miles_from_dt":16.71},{"city":"Cascade","state_name":"Iowa","lat":42.27941,"lng":-91.00177,"zip":"52033","miles_from_dt":17.46},{"city":"Peosta","state_name":"Iowa","lat":42.42382,"lng":-90.81128,"zip":"52068","miles_from_dt":17.79},{"city":"Sherrill","state_name":"Iowa","lat":42.62331,"lng":-90.82069,"zip":"52073","miles_from_dt":17.98},{"city":"Dubuque","state_name":"Iowa","lat":42.52481,"lng":-90.77184,"zip":"52002","miles_from_dt":18.76},{"city":"Cassville","state_name":"Wisconsin","lat":42.73554,"lng":-90.92544,"zip":"53806","miles_from_dt":18.93},{"city":"Elkport","state_name":"Iowa","lat":42.76808,"lng":-91.32328,"zip":"52044","miles_from_dt":20.07},{"city":"Monticello","state_name":"Iowa","lat":42.21983,"lng":-91.19737,"zip":"52310","miles_from_dt":20.33},{"city":"Bernard","state_name":"Iowa","lat":42.29006,"lng":-90.84317,"zip":"52032","miles_from_dt":21.49},{"city":"Ryan","state_name":"Iowa","lat":42.35261,"lng":-91.50076,"zip":"52330","miles_from_dt":21.5},{"city":"Dundee","state_name":"Iowa","lat":42.58586,"lng":-91.55685,"zip":"52038","miles_from_dt":21.95},{"city":"Langworthy","state_name":"Iowa","lat":42.19712,"lng":-91.22727,"zip":"52252","miles_from_dt":22.14},{"city":"Glen Haven","state_name":"Wisconsin","lat":42.82144,"lng":-90.9984,"zip":"53810","miles_from_dt":22.58},{"city":"Dubuque","state_name":"Iowa","lat":42.54819,"lng":-90.69348,"zip":"52001","miles_from_dt":22.88},{"city":"Strawberry Point","state_name":"Iowa","lat":42.69805,"lng":-91.50984,"zip":"52076","miles_from_dt":22.9},{"city":"Beetown","state_name":"Wisconsin","lat":42.80538,"lng":-90.89358,"zip":"53802","miles_from_dt":23.85},{"city":"Prairieburg","state_name":"Iowa","lat":42.23758,"lng":-91.42576,"zip":"52219","miles_from_dt":23.92},{"city":"Dubuque","state_name":"Iowa","lat":42.5001,"lng":-90.66775,"zip":"52004","miles_from_dt":24.07},{"city":"Dubuque","state_name":"Iowa","lat":42.49588,"lng":-90.66751,"zip":"52099","miles_from_dt":24.1},{"city":"Dubuque","state_name":"Iowa","lat":42.43434,"lng":-90.67506,"zip":"52003","miles_from_dt":24.28},{"city":"Masonville","state_name":"Iowa","lat":42.45812,"lng":-91.60933,"zip":"50654","miles_from_dt":24.31},{"city":"Coggon","state_name":"Iowa","lat":42.2946,"lng":-91.53826,"zip":"52218","miles_from_dt":25.32},{"city":"Potosi","state_name":"Wisconsin","lat":42.69649,"lng":-90.70984,"zip":"53820","miles_from_dt":25.34},{"city":"Garnavillo","state_name":"Iowa","lat":42.8823,"lng":-91.20521,"zip":"52049","miles_from_dt":25.84},{"city":"Zwingle","state_name":"Iowa","lat":42.28781,"lng":-90.71908,"zip":"52079","miles_from_dt":26.43},{"city":"Onslow","state_name":"Iowa","lat":42.14168,"lng":-90.98307,"zip":"52321","miles_from_dt":26.72},{"city":"Elkader","state_name":"Iowa","lat":42.84403,"lng":-91.42201,"zip":"52043","miles_from_dt":27.13},{"city":"Lamont","state_name":"Iowa","lat":42.61915,"lng":-91.65429,"zip":"50650","miles_from_dt":27.34},{"city":"Kieler","state_name":"Wisconsin","lat":42.5808,"lng":-90.60239,"zip":"53812","miles_from_dt":27.8},{"city":"Bloomington","state_name":"Wisconsin","lat":42.87645,"lng":-90.90798,"zip":"53804","miles_from_dt":27.82},{"city":"Center Junction","state_name":"Iowa","lat":42.10954,"lng":-91.08929,"zip":"52212","miles_from_dt":27.84},{"city":"Anamosa","state_name":"Iowa","lat":42.11754,"lng":-91.28806,"zip":"52205","miles_from_dt":28.22},{"city":"Bagley","state_name":"Wisconsin","lat":42.92505,"lng":-91.06959,"zip":"53801","miles_from_dt":28.79},{"city":"Winthrop","state_name":"Iowa","lat":42.45241,"lng":-91.69893,"zip":"50682","miles_from_dt":28.9},{"city":"Central City","state_name":"Iowa","lat":42.19056,"lng":-91.50704,"zip":"52214","miles_from_dt":29.07},{"city":"Dickeyville","state_name":"Wisconsin","lat":42.63745,"lng":-90.59204,"zip":"53808","miles_from_dt":29.23},{"city":"Monmouth","state_name":"Iowa","lat":42.12415,"lng":-90.88733,"zip":"52309","miles_from_dt":29.66},{"city":"La Motte","state_name":"Iowa","lat":42.30569,"lng":-90.62811,"zip":"52054","miles_from_dt":29.72},{"city":"East Dubuque","state_name":"Illinois","lat":42.46958,"lng":-90.55904,"zip":"61025","miles_from_dt":29.76}],"targetCityZipCode":"52040","targetCityState":"Iowa"},"__N_SSG":true}