{"pageProps":{"stateName":"Iowa","cityName":"george","nearbyCities":[{"city":"Matlock","state_name":"Iowa","lat":43.2443,"lng":-95.93436,"zip":"51244","miles_from_dt":7.33},{"city":"Little Rock","state_name":"Iowa","lat":43.4425,"lng":-95.90287,"zip":"51243","miles_from_dt":8.68},{"city":"Ashton","state_name":"Iowa","lat":43.30097,"lng":-95.8162,"zip":"51232","miles_from_dt":9.65},{"city":"Boyden","state_name":"Iowa","lat":43.19412,"lng":-96.01992,"zip":"51234","miles_from_dt":10.04},{"city":"Rock Rapids","state_name":"Iowa","lat":43.42764,"lng":-96.16564,"zip":"51246","miles_from_dt":10.33},{"city":"Doon","state_name":"Iowa","lat":43.29488,"lng":-96.21531,"zip":"51235","miles_from_dt":11.25},{"city":"Hull","state_name":"Iowa","lat":43.20238,"lng":-96.14522,"zip":"51239","miles_from_dt":11.92},{"city":"Sheldon","state_name":"Iowa","lat":43.18331,"lng":-95.8657,"zip":"51201","miles_from_dt":12.71},{"city":"Ellsworth","state_name":"Minnesota","lat":43.52775,"lng":-96.04327,"zip":"56129","miles_from_dt":13.22},{"city":"Sibley","state_name":"Iowa","lat":43.41068,"lng":-95.73203,"zip":"51249","miles_from_dt":14.4},{"city":"Alvord","state_name":"Iowa","lat":43.3562,"lng":-96.32217,"zip":"51230","miles_from_dt":16.25},{"city":"Kanaranzi","state_name":"Minnesota","lat":43.58006,"lng":-96.10343,"zip":"56146","miles_from_dt":17.44},{"city":"Steen","state_name":"Minnesota","lat":43.52505,"lng":-96.24186,"zip":"56173","miles_from_dt":17.68},{"city":"Lester","state_name":"Iowa","lat":43.43227,"lng":-96.33806,"zip":"51242","miles_from_dt":18.18},{"city":"Hospers","state_name":"Iowa","lat":43.0758,"lng":-95.89071,"zip":"51238","miles_from_dt":18.99},{"city":"Sanborn","state_name":"Iowa","lat":43.20445,"lng":-95.65911,"zip":"51248","miles_from_dt":19.56},{"city":"Adrian","state_name":"Minnesota","lat":43.62115,"lng":-95.94093,"zip":"56110","miles_from_dt":19.72},{"city":"Rock Valley","state_name":"Iowa","lat":43.19259,"lng":-96.33723,"zip":"51247","miles_from_dt":19.76},{"city":"Melvin","state_name":"Iowa","lat":43.30752,"lng":-95.59827,"zip":"51350","miles_from_dt":20.39},{"city":"Bigelow","state_name":"Minnesota","lat":43.52662,"lng":-95.68607,"zip":"56117","miles_from_dt":20.45},{"city":"Sioux Center","state_name":"Iowa","lat":43.08437,"lng":-96.21232,"zip":"51250","miles_from_dt":20.57},{"city":"Magnolia","state_name":"Minnesota","lat":43.6337,"lng":-96.07465,"zip":"56158","miles_from_dt":20.69},{"city":"Archer","state_name":"Iowa","lat":43.10567,"lng":-95.74131,"zip":"51231","miles_from_dt":20.74},{"city":"Rushmore","state_name":"Minnesota","lat":43.61552,"lng":-95.80358,"zip":"56168","miles_from_dt":21.51},{"city":"Orange City","state_name":"Iowa","lat":43.02443,"lng":-96.07701,"zip":"51041","miles_from_dt":22.05},{"city":"Inwood","state_name":"Iowa","lat":43.30986,"lng":-96.45727,"zip":"51240","miles_from_dt":23.11},{"city":"Hills","state_name":"Minnesota","lat":43.53279,"lng":-96.38348,"zip":"56138","miles_from_dt":23.46},{"city":"Ocheyedan","state_name":"Iowa","lat":43.41267,"lng":-95.54352,"zip":"51354","miles_from_dt":23.57},{"city":"Larchwood","state_name":"Iowa","lat":43.44992,"lng":-96.46001,"zip":"51241","miles_from_dt":24.37},{"city":"Alton","state_name":"Iowa","lat":42.98355,"lng":-95.98642,"zip":"51003","miles_from_dt":24.54},{"city":"Luverne","state_name":"Minnesota","lat":43.66196,"lng":-96.22466,"zip":"56156","miles_from_dt":24.99},{"city":"Granville","state_name":"Iowa","lat":42.97819,"lng":-95.84722,"zip":"51022","miles_from_dt":26.07},{"city":"Primghar","state_name":"Iowa","lat":43.07788,"lng":-95.60149,"zip":"51245","miles_from_dt":27.03},{"city":"Beaver Creek","state_name":"Minnesota","lat":43.61782,"lng":-96.37893,"zip":"56116","miles_from_dt":27.07},{"city":"Maurice","state_name":"Iowa","lat":42.97074,"lng":-96.18938,"zip":"51036","miles_from_dt":27.15},{"city":"Fairview","state_name":"South Dakota","lat":43.19461,"lng":-96.50933,"zip":"57027","miles_from_dt":27.53},{"city":"Worthington","state_name":"Minnesota","lat":43.62357,"lng":-95.58507,"zip":"56187","miles_from_dt":28.68},{"city":"Kenneth","state_name":"Minnesota","lat":43.75726,"lng":-96.05985,"zip":"56147","miles_from_dt":29.04},{"city":"Harris","state_name":"Iowa","lat":43.4181,"lng":-95.43209,"zip":"51345","miles_from_dt":29.14},{"city":"Hartley","state_name":"Iowa","lat":43.18638,"lng":-95.45927,"zip":"51346","miles_from_dt":29.26},{"city":"Valley Springs","state_name":"South Dakota","lat":43.57435,"lng":-96.49361,"zip":"57068","miles_from_dt":29.65},{"city":"Lismore","state_name":"Minnesota","lat":43.76707,"lng":-95.94117,"zip":"56155","miles_from_dt":29.71}],"targetCityZipCode":"51237","targetCityState":"Iowa"},"__N_SSG":true}