{"pageProps":{"stateName":"Iowa","cityName":"latimer","nearbyCities":[{"city":"Coulter","state_name":"Iowa","lat":42.73648,"lng":-93.36989,"zip":"50431","miles_from_dt":3},{"city":"Alexander","state_name":"Iowa","lat":42.80621,"lng":-93.45677,"zip":"50420","miles_from_dt":4.52},{"city":"Hampton","state_name":"Iowa","lat":42.73938,"lng":-93.22146,"zip":"50441","miles_from_dt":8.31},{"city":"Chapin","state_name":"Iowa","lat":42.83557,"lng":-93.22116,"zip":"50427","miles_from_dt":8.74},{"city":"Rowan","state_name":"Iowa","lat":42.74652,"lng":-93.55374,"zip":"50470","miles_from_dt":9.35},{"city":"Sheffield","state_name":"Iowa","lat":42.87902,"lng":-93.21852,"zip":"50475","miles_from_dt":10.51},{"city":"Meservey","state_name":"Iowa","lat":42.91418,"lng":-93.4928,"zip":"50457","miles_from_dt":11.03},{"city":"Dows","state_name":"Iowa","lat":42.64931,"lng":-93.50597,"zip":"50071","miles_from_dt":11.19},{"city":"Thornton","state_name":"Iowa","lat":42.94121,"lng":-93.4082,"zip":"50479","miles_from_dt":11.27},{"city":"Bradford","state_name":"Iowa","lat":42.63429,"lng":-93.24662,"zip":"50041","miles_from_dt":11.99},{"city":"Popejoy","state_name":"Iowa","lat":42.59388,"lng":-93.42818,"zip":"50227","miles_from_dt":13.1},{"city":"Belmond","state_name":"Iowa","lat":42.84246,"lng":-93.62148,"zip":"50421","miles_from_dt":13.23},{"city":"Swaledale","state_name":"Iowa","lat":42.98743,"lng":-93.32731,"zip":"50477","miles_from_dt":14.55},{"city":"Geneva","state_name":"Iowa","lat":42.67203,"lng":-93.12664,"zip":"50633","miles_from_dt":14.68},{"city":"Galt","state_name":"Iowa","lat":42.66713,"lng":-93.63423,"zip":"50101","miles_from_dt":15.29},{"city":"Goodell","state_name":"Iowa","lat":42.94578,"lng":-93.6345,"zip":"50439","miles_from_dt":17.45},{"city":"Rockwell","state_name":"Iowa","lat":42.99922,"lng":-93.19767,"zip":"50469","miles_from_dt":17.64},{"city":"Klemme","state_name":"Iowa","lat":43.00129,"lng":-93.55629,"zip":"50449","miles_from_dt":17.84},{"city":"Aredale","state_name":"Iowa","lat":42.83559,"lng":-93.03276,"zip":"50605","miles_from_dt":17.84},{"city":"Buckeye","state_name":"Iowa","lat":42.52028,"lng":-93.37583,"zip":"50043","miles_from_dt":17.91},{"city":"Alden","state_name":"Iowa","lat":42.51354,"lng":-93.40227,"zip":"50006","miles_from_dt":18.42},{"city":"Clarion","state_name":"Iowa","lat":42.73289,"lng":-93.73254,"zip":"50526","miles_from_dt":18.45},{"city":"Clarion","state_name":"Iowa","lat":42.73875,"lng":-93.74907,"zip":"50525","miles_from_dt":19.21},{"city":"Dougherty","state_name":"Iowa","lat":42.92852,"lng":-93.04774,"zip":"50433","miles_from_dt":19.56},{"city":"Iowa Falls","state_name":"Iowa","lat":42.50875,"lng":-93.24815,"zip":"50126","miles_from_dt":19.79},{"city":"Dumont","state_name":"Iowa","lat":42.75071,"lng":-92.98691,"zip":"50625","miles_from_dt":19.86},{"city":"Ackley","state_name":"Iowa","lat":42.56612,"lng":-93.05665,"zip":"50601","miles_from_dt":21.93},{"city":"Williams","state_name":"Iowa","lat":42.48444,"lng":-93.54489,"zip":"50271","miles_from_dt":22.13},{"city":"Blairsburg","state_name":"Iowa","lat":42.52921,"lng":-93.65438,"zip":"50034","miles_from_dt":22.38},{"city":"Bristow","state_name":"Iowa","lat":42.8193,"lng":-92.91114,"zip":"50611","miles_from_dt":23.76},{"city":"Kanawha","state_name":"Iowa","lat":42.92719,"lng":-93.80118,"zip":"50447","miles_from_dt":23.9},{"city":"Ventura","state_name":"Iowa","lat":43.12356,"lng":-93.48167,"zip":"50482","miles_from_dt":24.34},{"city":"Clear Lake","state_name":"Iowa","lat":43.13573,"lng":-93.38815,"zip":"50428","miles_from_dt":24.59},{"city":"Austinville","state_name":"Iowa","lat":42.58815,"lng":-92.96075,"zip":"50608","miles_from_dt":24.91},{"city":"Kesley","state_name":"Iowa","lat":42.66249,"lng":-92.90973,"zip":"50649","miles_from_dt":25.04},{"city":"Garner","state_name":"Iowa","lat":43.11018,"lng":-93.61841,"zip":"50438","miles_from_dt":25.93},{"city":"Woolstock","state_name":"Iowa","lat":42.58089,"lng":-93.81471,"zip":"50599","miles_from_dt":26.25},{"city":"Aplington","state_name":"Iowa","lat":42.60484,"lng":-92.90299,"zip":"50604","miles_from_dt":26.91},{"city":"Mason City","state_name":"Iowa","lat":43.15167,"lng":-93.20448,"zip":"50402","miles_from_dt":27.1},{"city":"Mason City","state_name":"Iowa","lat":43.15389,"lng":-93.20006,"zip":"50401","miles_from_dt":27.32},{"city":"Marble Rock","state_name":"Iowa","lat":42.96737,"lng":-92.88927,"zip":"50653","miles_from_dt":27.88},{"city":"Rockford","state_name":"Iowa","lat":43.04631,"lng":-92.95703,"zip":"50468","miles_from_dt":28.1},{"city":"Eagle Grove","state_name":"Iowa","lat":42.65251,"lng":-93.91109,"zip":"50533","miles_from_dt":28.64},{"city":"Goldfield","state_name":"Iowa","lat":42.7794,"lng":-93.94594,"zip":"50542","miles_from_dt":29.01},{"city":"Allison","state_name":"Iowa","lat":42.74036,"lng":-92.80581,"zip":"50602","miles_from_dt":29.1},{"city":"Steamboat Rock","state_name":"Iowa","lat":42.4247,"lng":-93.06545,"zip":"50672","miles_from_dt":29.16},{"city":"Greene","state_name":"Iowa","lat":42.89439,"lng":-92.80745,"zip":"50636","miles_from_dt":29.92}],"targetCityZipCode":"50452","targetCityState":"Iowa"},"__N_SSG":true}