{"pageProps":{"stateName":"Iowa","cityName":"leighton","nearbyCities":[{"city":"Pella","state_name":"Iowa","lat":41.42243,"lng":-92.90132,"zip":"50219","miles_from_dt":7.67},{"city":"Beacon","state_name":"Iowa","lat":41.27342,"lng":-92.6806,"zip":"52534","miles_from_dt":7.78},{"city":"Tracy","state_name":"Iowa","lat":41.2664,"lng":-92.91114,"zip":"50256","miles_from_dt":7.85},{"city":"Harvey","state_name":"Iowa","lat":41.31089,"lng":-92.94587,"zip":"50119","miles_from_dt":7.95},{"city":"Oskaloosa","state_name":"Iowa","lat":41.27174,"lng":-92.6602,"zip":"52577","miles_from_dt":8.71},{"city":"University Park","state_name":"Iowa","lat":41.28847,"lng":-92.61506,"zip":"52595","miles_from_dt":10.27},{"city":"New Sharon","state_name":"Iowa","lat":41.43344,"lng":-92.6381,"zip":"50207","miles_from_dt":10.45},{"city":"Bussey","state_name":"Iowa","lat":41.20247,"lng":-92.88907,"zip":"50044","miles_from_dt":10.74},{"city":"Hamilton","state_name":"Iowa","lat":41.17812,"lng":-92.98247,"zip":"50116","miles_from_dt":14.83},{"city":"Eddyville","state_name":"Iowa","lat":41.14865,"lng":-92.65668,"zip":"52553","miles_from_dt":15.29},{"city":"Otley","state_name":"Iowa","lat":41.46246,"lng":-93.05528,"zip":"50214","miles_from_dt":15.68},{"city":"Sully","state_name":"Iowa","lat":41.56883,"lng":-92.87007,"zip":"50251","miles_from_dt":16.05},{"city":"Lynnville","state_name":"Iowa","lat":41.57669,"lng":-92.80033,"zip":"50153","miles_from_dt":16.17},{"city":"Knoxville","state_name":"Iowa","lat":41.30246,"lng":-93.10534,"zip":"50138","miles_from_dt":16.18},{"city":"Searsboro","state_name":"Iowa","lat":41.56332,"lng":-92.69428,"zip":"50242","miles_from_dt":16.18},{"city":"Rose Hill","state_name":"Iowa","lat":41.34573,"lng":-92.46694,"zip":"52586","miles_from_dt":17.27},{"city":"Reasnor","state_name":"Iowa","lat":41.55761,"lng":-92.96868,"zip":"50232","miles_from_dt":17.27},{"city":"Lovilia","state_name":"Iowa","lat":41.12771,"lng":-92.97404,"zip":"50150","miles_from_dt":17.4},{"city":"Cedar","state_name":"Iowa","lat":41.20065,"lng":-92.51773,"zip":"52543","miles_from_dt":17.61},{"city":"Barnes City","state_name":"Iowa","lat":41.4739,"lng":-92.47194,"zip":"50027","miles_from_dt":19.26},{"city":"Killduff","state_name":"Iowa","lat":41.60872,"lng":-92.92126,"zip":"50137","miles_from_dt":19.44},{"city":"Fremont","state_name":"Iowa","lat":41.22135,"lng":-92.44081,"zip":"52561","miles_from_dt":20.43},{"city":"Monroe","state_name":"Iowa","lat":41.52911,"lng":-93.11546,"zip":"50170","miles_from_dt":20.88},{"city":"Kirkville","state_name":"Iowa","lat":41.12887,"lng":-92.50547,"zip":"52566","miles_from_dt":21.24},{"city":"Columbia","state_name":"Iowa","lat":41.17859,"lng":-93.14554,"zip":"50057","miles_from_dt":21.3},{"city":"Albia","state_name":"Iowa","lat":41.02684,"lng":-92.81562,"zip":"52531","miles_from_dt":21.8},{"city":"Montezuma","state_name":"Iowa","lat":41.58434,"lng":-92.52584,"zip":"50171","miles_from_dt":21.9},{"city":"Chillicothe","state_name":"Iowa","lat":41.0855,"lng":-92.5306,"zip":"52548","miles_from_dt":22.58},{"city":"Delta","state_name":"Iowa","lat":41.31635,"lng":-92.36254,"zip":"52550","miles_from_dt":22.77},{"city":"What Cheer","state_name":"Iowa","lat":41.40695,"lng":-92.36227,"zip":"50268","miles_from_dt":23.13},{"city":"Gibson","state_name":"Iowa","lat":41.49458,"lng":-92.38841,"zip":"50104","miles_from_dt":23.77},{"city":"Melcher Dallas","state_name":"Iowa","lat":41.23499,"lng":-93.24425,"zip":"50062","miles_from_dt":24.34},{"city":"Melcher Dallas","state_name":"Iowa","lat":41.2223,"lng":-93.24101,"zip":"50163","miles_from_dt":24.46},{"city":"Pleasantville","state_name":"Iowa","lat":41.3823,"lng":-93.27103,"zip":"50225","miles_from_dt":24.7},{"city":"Thornburg","state_name":"Iowa","lat":41.45593,"lng":-92.33207,"zip":"50255","miles_from_dt":25.49},{"city":"Grinnell","state_name":"Iowa","lat":41.7319,"lng":-92.71591,"zip":"50112","miles_from_dt":27.22},{"city":"Prairie City","state_name":"Iowa","lat":41.57008,"lng":-93.24154,"zip":"50228","miles_from_dt":27.84},{"city":"Keswick","state_name":"Iowa","lat":41.46984,"lng":-92.28927,"zip":"50136","miles_from_dt":27.9},{"city":"Swan","state_name":"Iowa","lat":41.45881,"lng":-93.31518,"zip":"50252","miles_from_dt":28},{"city":"Melrose","state_name":"Iowa","lat":40.97968,"lng":-93.04939,"zip":"52569","miles_from_dt":28.24},{"city":"Newton","state_name":"Iowa","lat":41.71129,"lng":-93.03924,"zip":"50208","miles_from_dt":28.34},{"city":"Kellogg","state_name":"Iowa","lat":41.7475,"lng":-92.89096,"zip":"50135","miles_from_dt":28.36},{"city":"Ottumwa","state_name":"Iowa","lat":41.03828,"lng":-92.43252,"zip":"52501","miles_from_dt":28.38},{"city":"Blakesburg","state_name":"Iowa","lat":40.95291,"lng":-92.61802,"zip":"52536","miles_from_dt":28.49},{"city":"Deep River","state_name":"Iowa","lat":41.57623,"lng":-92.33693,"zip":"52222","miles_from_dt":28.91},{"city":"Hayesville","state_name":"Iowa","lat":41.26539,"lng":-92.24858,"zip":"52562","miles_from_dt":29.13},{"city":"Hedrick","state_name":"Iowa","lat":41.17295,"lng":-92.27765,"zip":"52563","miles_from_dt":29.56},{"city":"Williamson","state_name":"Iowa","lat":41.08809,"lng":-93.25682,"zip":"50272","miles_from_dt":29.62}],"targetCityZipCode":"50143","targetCityState":"Iowa"},"__N_SSG":true}