{"pageProps":{"stateName":"Iowa","cityName":"okoboji","nearbyCities":[{"city":"Arnolds Park","state_name":"Iowa","lat":43.36431,"lng":-95.13028,"zip":"51331","miles_from_dt":1.85},{"city":"Spirit Lake","state_name":"Iowa","lat":43.43626,"lng":-95.08556,"zip":"51360","miles_from_dt":4.24},{"city":"Milford","state_name":"Iowa","lat":43.31656,"lng":-95.18626,"zip":"51351","miles_from_dt":5.56},{"city":"Lake Park","state_name":"Iowa","lat":43.42547,"lng":-95.31363,"zip":"51347","miles_from_dt":9.04},{"city":"Superior","state_name":"Iowa","lat":43.43363,"lng":-94.94678,"zip":"51363","miles_from_dt":10.22},{"city":"Fostoria","state_name":"Iowa","lat":43.2404,"lng":-95.15613,"zip":"51340","miles_from_dt":10.35},{"city":"Terril","state_name":"Iowa","lat":43.2993,"lng":-94.96293,"zip":"51364","miles_from_dt":10.93},{"city":"Harris","state_name":"Iowa","lat":43.4181,"lng":-95.43209,"zip":"51345","miles_from_dt":14.79},{"city":"Everly","state_name":"Iowa","lat":43.2065,"lng":-95.32378,"zip":"51338","miles_from_dt":15.67},{"city":"Spencer","state_name":"Iowa","lat":43.15314,"lng":-95.14973,"zip":"51301","miles_from_dt":16.35},{"city":"Estherville","state_name":"Iowa","lat":43.40379,"lng":-94.80698,"zip":"51334","miles_from_dt":16.83},{"city":"Lakefield","state_name":"Minnesota","lat":43.63469,"lng":-95.21266,"zip":"56150","miles_from_dt":17.28},{"city":"Round Lake","state_name":"Minnesota","lat":43.55082,"lng":-95.40524,"zip":"56167","miles_from_dt":17.32},{"city":"Jackson","state_name":"Minnesota","lat":43.62803,"lng":-95.00759,"zip":"56143","miles_from_dt":17.75},{"city":"Dickens","state_name":"Iowa","lat":43.1324,"lng":-95.00437,"zip":"51333","miles_from_dt":19.07},{"city":"Ocheyedan","state_name":"Iowa","lat":43.41267,"lng":-95.54352,"zip":"51354","miles_from_dt":20.33},{"city":"Wallingford","state_name":"Iowa","lat":43.30652,"lng":-94.7349,"zip":"51365","miles_from_dt":21.25},{"city":"Hartley","state_name":"Iowa","lat":43.18638,"lng":-95.45927,"zip":"51346","miles_from_dt":21.34},{"city":"Dunnell","state_name":"Minnesota","lat":43.54892,"lng":-94.77261,"zip":"56127","miles_from_dt":21.52},{"city":"Alpha","state_name":"Minnesota","lat":43.64155,"lng":-94.8799,"zip":"56111","miles_from_dt":21.76},{"city":"Ruthven","state_name":"Iowa","lat":43.13033,"lng":-94.89579,"zip":"51358","miles_from_dt":21.77},{"city":"Graettinger","state_name":"Iowa","lat":43.24359,"lng":-94.73832,"zip":"51342","miles_from_dt":22.67},{"city":"Okabena","state_name":"Minnesota","lat":43.70637,"lng":-95.32519,"zip":"56161","miles_from_dt":23.72},{"city":"Melvin","state_name":"Iowa","lat":43.30752,"lng":-95.59827,"zip":"51350","miles_from_dt":23.74},{"city":"Royal","state_name":"Iowa","lat":43.06215,"lng":-95.28762,"zip":"51357","miles_from_dt":23.81},{"city":"Greenville","state_name":"Iowa","lat":43.01804,"lng":-95.11445,"zip":"51343","miles_from_dt":25.71},{"city":"Gillett Grove","state_name":"Iowa","lat":43.01665,"lng":-95.04132,"zip":"51341","miles_from_dt":26.26},{"city":"Dolliver","state_name":"Iowa","lat":43.45841,"lng":-94.61417,"zip":"50531","miles_from_dt":26.92},{"city":"Sherburn","state_name":"Minnesota","lat":43.66902,"lng":-94.75925,"zip":"56171","miles_from_dt":27.18},{"city":"Worthington","state_name":"Minnesota","lat":43.62357,"lng":-95.58507,"zip":"56187","miles_from_dt":27.54},{"city":"Brewster","state_name":"Minnesota","lat":43.71159,"lng":-95.46702,"zip":"56119","miles_from_dt":27.59},{"city":"Ceylon","state_name":"Minnesota","lat":43.53858,"lng":-94.61051,"zip":"56121","miles_from_dt":28.57},{"city":"Ayrshire","state_name":"Iowa","lat":43.01993,"lng":-94.87812,"zip":"50515","miles_from_dt":28.78},{"city":"Bigelow","state_name":"Minnesota","lat":43.52662,"lng":-95.68607,"zip":"56117","miles_from_dt":29},{"city":"Sanborn","state_name":"Iowa","lat":43.20445,"lng":-95.65911,"zip":"51248","miles_from_dt":29.1},{"city":"Emmetsburg","state_name":"Iowa","lat":43.11605,"lng":-94.69716,"zip":"50536","miles_from_dt":29.3},{"city":"Sibley","state_name":"Iowa","lat":43.41068,"lng":-95.73203,"zip":"51249","miles_from_dt":29.79}],"targetCityZipCode":"51355","targetCityState":"Iowa"},"__N_SSG":true}