{"pageProps":{"stateName":"Iowa","cityName":"paullina","nearbyCities":[{"city":"Calumet","state_name":"Iowa","lat":42.94499,"lng":-95.55142,"zip":"51009","miles_from_dt":6.66},{"city":"Granville","state_name":"Iowa","lat":42.97819,"lng":-95.84722,"zip":"51022","miles_from_dt":8.54},{"city":"Primghar","state_name":"Iowa","lat":43.07788,"lng":-95.60149,"zip":"51245","miles_from_dt":8.66},{"city":"Larrabee","state_name":"Iowa","lat":42.88549,"lng":-95.5414,"zip":"51029","miles_from_dt":8.95},{"city":"Meriden","state_name":"Iowa","lat":42.82567,"lng":-95.64269,"zip":"51037","miles_from_dt":9.88},{"city":"Archer","state_name":"Iowa","lat":43.10567,"lng":-95.74131,"zip":"51231","miles_from_dt":10.12},{"city":"Sutherland","state_name":"Iowa","lat":42.98367,"lng":-95.46879,"zip":"51058","miles_from_dt":10.75},{"city":"Cleghorn","state_name":"Iowa","lat":42.78428,"lng":-95.71155,"zip":"51014","miles_from_dt":12.66},{"city":"Hospers","state_name":"Iowa","lat":43.0758,"lng":-95.89071,"zip":"51238","miles_from_dt":13.1},{"city":"Marcus","state_name":"Iowa","lat":42.78086,"lng":-95.80054,"zip":"51035","miles_from_dt":14.19},{"city":"Alton","state_name":"Iowa","lat":42.98355,"lng":-95.98642,"zip":"51003","miles_from_dt":15.6},{"city":"Cherokee","state_name":"Iowa","lat":42.74474,"lng":-95.56171,"zip":"51012","miles_from_dt":16.42},{"city":"Peterson","state_name":"Iowa","lat":42.93523,"lng":-95.35752,"zip":"51047","miles_from_dt":16.47},{"city":"Sanborn","state_name":"Iowa","lat":43.20445,"lng":-95.65911,"zip":"51248","miles_from_dt":16.48},{"city":"Sheldon","state_name":"Iowa","lat":43.18331,"lng":-95.8657,"zip":"51201","miles_from_dt":17.7},{"city":"Remsen","state_name":"Iowa","lat":42.79545,"lng":-95.94772,"zip":"51050","miles_from_dt":18.01},{"city":"Hartley","state_name":"Iowa","lat":43.18638,"lng":-95.45927,"zip":"51346","miles_from_dt":18.85},{"city":"Orange City","state_name":"Iowa","lat":43.02443,"lng":-96.07701,"zip":"51041","miles_from_dt":20.54},{"city":"Royal","state_name":"Iowa","lat":43.06215,"lng":-95.28762,"zip":"51357","miles_from_dt":20.93},{"city":"Aurelia","state_name":"Iowa","lat":42.72044,"lng":-95.42405,"zip":"51005","miles_from_dt":21.36},{"city":"Oyens","state_name":"Iowa","lat":42.82019,"lng":-96.05772,"zip":"51045","miles_from_dt":21.68},{"city":"Linn Grove","state_name":"Iowa","lat":42.91653,"lng":-95.25324,"zip":"51033","miles_from_dt":21.89},{"city":"Matlock","state_name":"Iowa","lat":43.2443,"lng":-95.93436,"zip":"51244","miles_from_dt":23.12},{"city":"Quimby","state_name":"Iowa","lat":42.63005,"lng":-95.64463,"zip":"51049","miles_from_dt":23.27},{"city":"Boyden","state_name":"Iowa","lat":43.19412,"lng":-96.01992,"zip":"51234","miles_from_dt":23.33},{"city":"Melvin","state_name":"Iowa","lat":43.30752,"lng":-95.59827,"zip":"51350","miles_from_dt":23.92},{"city":"Ashton","state_name":"Iowa","lat":43.30097,"lng":-95.8162,"zip":"51232","miles_from_dt":24.12},{"city":"Everly","state_name":"Iowa","lat":43.2065,"lng":-95.32378,"zip":"51338","miles_from_dt":24.48},{"city":"Maurice","state_name":"Iowa","lat":42.97074,"lng":-96.18938,"zip":"51036","miles_from_dt":25.85},{"city":"Alta","state_name":"Iowa","lat":42.69859,"lng":-95.31863,"zip":"51002","miles_from_dt":26.03},{"city":"Washta","state_name":"Iowa","lat":42.57983,"lng":-95.72036,"zip":"51061","miles_from_dt":26.75},{"city":"Sioux Rapids","state_name":"Iowa","lat":42.91154,"lng":-95.1407,"zip":"50585","miles_from_dt":27.59},{"city":"Le Mars","state_name":"Iowa","lat":42.80282,"lng":-96.18092,"zip":"51031","miles_from_dt":27.84},{"city":"Rembrandt","state_name":"Iowa","lat":42.80267,"lng":-95.17727,"zip":"50576","miles_from_dt":27.88},{"city":"Sioux Center","state_name":"Iowa","lat":43.08437,"lng":-96.21232,"zip":"51250","miles_from_dt":28.19},{"city":"Pierson","state_name":"Iowa","lat":42.57963,"lng":-95.86412,"zip":"51048","miles_from_dt":28.29},{"city":"Hull","state_name":"Iowa","lat":43.20238,"lng":-96.14522,"zip":"51239","miles_from_dt":28.65},{"city":"Greenville","state_name":"Iowa","lat":43.01804,"lng":-95.11445,"zip":"51343","miles_from_dt":28.86},{"city":"Spencer","state_name":"Iowa","lat":43.15314,"lng":-95.14973,"zip":"51301","miles_from_dt":29.76},{"city":"Kingsley","state_name":"Iowa","lat":42.59909,"lng":-95.99199,"zip":"51028","miles_from_dt":29.91}],"targetCityZipCode":"51046","targetCityState":"Iowa"},"__N_SSG":true}