{"pageProps":{"stateName":"Iowa","cityName":"rockwell","nearbyCities":[{"city":"Swaledale","state_name":"Iowa","lat":42.98743,"lng":-93.32731,"zip":"50477","miles_from_dt":6.62},{"city":"Sheffield","state_name":"Iowa","lat":42.87902,"lng":-93.21852,"zip":"50475","miles_from_dt":8.36},{"city":"Dougherty","state_name":"Iowa","lat":42.92852,"lng":-93.04774,"zip":"50433","miles_from_dt":9.03},{"city":"Mason City","state_name":"Iowa","lat":43.15167,"lng":-93.20448,"zip":"50402","miles_from_dt":10.53},{"city":"Mason City","state_name":"Iowa","lat":43.15389,"lng":-93.20006,"zip":"50401","miles_from_dt":10.68},{"city":"Chapin","state_name":"Iowa","lat":42.83557,"lng":-93.22116,"zip":"50427","miles_from_dt":11.36},{"city":"Thornton","state_name":"Iowa","lat":42.94121,"lng":-93.4082,"zip":"50479","miles_from_dt":11.4},{"city":"Rockford","state_name":"Iowa","lat":43.04631,"lng":-92.95703,"zip":"50468","miles_from_dt":12.61},{"city":"Clear Lake","state_name":"Iowa","lat":43.13573,"lng":-93.38815,"zip":"50428","miles_from_dt":13.48},{"city":"Aredale","state_name":"Iowa","lat":42.83559,"lng":-93.03276,"zip":"50605","miles_from_dt":14.06},{"city":"Nora Springs","state_name":"Iowa","lat":43.15969,"lng":-93.00609,"zip":"50458","miles_from_dt":14.72},{"city":"Marble Rock","state_name":"Iowa","lat":42.96737,"lng":-92.88927,"zip":"50653","miles_from_dt":15.78},{"city":"Rock Falls","state_name":"Iowa","lat":43.20916,"lng":-93.06608,"zip":"50467","miles_from_dt":15.95},{"city":"Meservey","state_name":"Iowa","lat":42.91418,"lng":-93.4928,"zip":"50457","miles_from_dt":16.07},{"city":"Ventura","state_name":"Iowa","lat":43.12356,"lng":-93.48167,"zip":"50482","miles_from_dt":16.74},{"city":"Latimer","state_name":"Iowa","lat":42.77969,"lng":-93.37542,"zip":"50452","miles_from_dt":17.64},{"city":"Hampton","state_name":"Iowa","lat":42.73938,"lng":-93.22146,"zip":"50441","miles_from_dt":17.98},{"city":"Klemme","state_name":"Iowa","lat":43.00129,"lng":-93.55629,"zip":"50449","miles_from_dt":18.17},{"city":"Plymouth","state_name":"Iowa","lat":43.25146,"lng":-93.0765,"zip":"50464","miles_from_dt":18.46},{"city":"Alexander","state_name":"Iowa","lat":42.80621,"lng":-93.45677,"zip":"50420","miles_from_dt":18.72},{"city":"Bristow","state_name":"Iowa","lat":42.8193,"lng":-92.91114,"zip":"50611","miles_from_dt":19.12},{"city":"Rudd","state_name":"Iowa","lat":43.16486,"lng":-92.87834,"zip":"50471","miles_from_dt":19.79},{"city":"Manly","state_name":"Iowa","lat":43.28812,"lng":-93.21579,"zip":"50456","miles_from_dt":19.96},{"city":"Coulter","state_name":"Iowa","lat":42.73648,"lng":-93.36989,"zip":"50431","miles_from_dt":20.13},{"city":"Dumont","state_name":"Iowa","lat":42.75071,"lng":-92.98691,"zip":"50625","miles_from_dt":20.22},{"city":"Greene","state_name":"Iowa","lat":42.89439,"lng":-92.80745,"zip":"50636","miles_from_dt":21.07},{"city":"Fertile","state_name":"Iowa","lat":43.25857,"lng":-93.45758,"zip":"50434","miles_from_dt":22.21},{"city":"Hanlontown","state_name":"Iowa","lat":43.29258,"lng":-93.38601,"zip":"50444","miles_from_dt":22.38},{"city":"Goodell","state_name":"Iowa","lat":42.94578,"lng":-93.6345,"zip":"50439","miles_from_dt":22.45},{"city":"Garner","state_name":"Iowa","lat":43.11018,"lng":-93.61841,"zip":"50438","miles_from_dt":22.63},{"city":"Geneva","state_name":"Iowa","lat":42.67203,"lng":-93.12664,"zip":"50633","miles_from_dt":22.87},{"city":"Grafton","state_name":"Iowa","lat":43.33213,"lng":-93.06891,"zip":"50440","miles_from_dt":23.88},{"city":"Belmond","state_name":"Iowa","lat":42.84246,"lng":-93.62148,"zip":"50421","miles_from_dt":24.07},{"city":"Floyd","state_name":"Iowa","lat":43.15752,"lng":-92.76877,"zip":"50435","miles_from_dt":24.3},{"city":"Kensett","state_name":"Iowa","lat":43.35053,"lng":-93.24753,"zip":"50448","miles_from_dt":24.38},{"city":"Rowan","state_name":"Iowa","lat":42.74652,"lng":-93.55374,"zip":"50470","miles_from_dt":25.12},{"city":"Bradford","state_name":"Iowa","lat":42.63429,"lng":-93.24662,"zip":"50041","miles_from_dt":25.31},{"city":"Allison","state_name":"Iowa","lat":42.74036,"lng":-92.80581,"zip":"50602","miles_from_dt":26.74},{"city":"Joice","state_name":"Iowa","lat":43.33821,"lng":-93.45394,"zip":"50446","miles_from_dt":26.74},{"city":"Kesley","state_name":"Iowa","lat":42.66249,"lng":-92.90973,"zip":"50649","miles_from_dt":27.46},{"city":"Charles City","state_name":"Iowa","lat":43.07978,"lng":-92.66104,"zip":"50616","miles_from_dt":27.74},{"city":"Osage","state_name":"Iowa","lat":43.29995,"lng":-92.81412,"zip":"50461","miles_from_dt":28.4},{"city":"Dows","state_name":"Iowa","lat":42.64931,"lng":-93.50597,"zip":"50071","miles_from_dt":28.79},{"city":"Forest City","state_name":"Iowa","lat":43.26256,"lng":-93.66242,"zip":"50436","miles_from_dt":29.71},{"city":"Toeterville","state_name":"Iowa","lat":43.37833,"lng":-92.91861,"zip":"50481","miles_from_dt":29.73}],"targetCityZipCode":"50469","targetCityState":"Iowa"},"__N_SSG":true}