{"pageProps":{"stateName":"Iowa","cityName":"university-park","nearbyCities":[{"city":"Oskaloosa","state_name":"Iowa","lat":41.27174,"lng":-92.6602,"zip":"52577","miles_from_dt":2.62},{"city":"Beacon","state_name":"Iowa","lat":41.27342,"lng":-92.6806,"zip":"52534","miles_from_dt":3.57},{"city":"Cedar","state_name":"Iowa","lat":41.20065,"lng":-92.51773,"zip":"52543","miles_from_dt":7.9},{"city":"Rose Hill","state_name":"Iowa","lat":41.34573,"lng":-92.46694,"zip":"52586","miles_from_dt":8.66},{"city":"Eddyville","state_name":"Iowa","lat":41.14865,"lng":-92.65668,"zip":"52553","miles_from_dt":9.89},{"city":"New Sharon","state_name":"Iowa","lat":41.43344,"lng":-92.6381,"zip":"50207","miles_from_dt":10.08},{"city":"Fremont","state_name":"Iowa","lat":41.22135,"lng":-92.44081,"zip":"52561","miles_from_dt":10.19},{"city":"Leighton","state_name":"Iowa","lat":41.34245,"lng":-92.79893,"zip":"50143","miles_from_dt":10.27},{"city":"Kirkville","state_name":"Iowa","lat":41.12887,"lng":-92.50547,"zip":"52566","miles_from_dt":12.41},{"city":"Delta","state_name":"Iowa","lat":41.31635,"lng":-92.36254,"zip":"52550","miles_from_dt":13.28},{"city":"Chillicothe","state_name":"Iowa","lat":41.0855,"lng":-92.5306,"zip":"52548","miles_from_dt":14.68},{"city":"Barnes City","state_name":"Iowa","lat":41.4739,"lng":-92.47194,"zip":"50027","miles_from_dt":14.8},{"city":"Bussey","state_name":"Iowa","lat":41.20247,"lng":-92.88907,"zip":"50044","miles_from_dt":15.46},{"city":"What Cheer","state_name":"Iowa","lat":41.40695,"lng":-92.36227,"zip":"50268","miles_from_dt":15.48},{"city":"Tracy","state_name":"Iowa","lat":41.2664,"lng":-92.91114,"zip":"50256","miles_from_dt":15.49},{"city":"Harvey","state_name":"Iowa","lat":41.31089,"lng":-92.94587,"zip":"50119","miles_from_dt":17.29},{"city":"Pella","state_name":"Iowa","lat":41.42243,"lng":-92.90132,"zip":"50219","miles_from_dt":17.52},{"city":"Gibson","state_name":"Iowa","lat":41.49458,"lng":-92.38841,"zip":"50104","miles_from_dt":18.47},{"city":"Thornburg","state_name":"Iowa","lat":41.45593,"lng":-92.33207,"zip":"50255","miles_from_dt":18.71},{"city":"Hayesville","state_name":"Iowa","lat":41.26539,"lng":-92.24858,"zip":"52562","miles_from_dt":19.15},{"city":"Hedrick","state_name":"Iowa","lat":41.17295,"lng":-92.27765,"zip":"52563","miles_from_dt":19.3},{"city":"Searsboro","state_name":"Iowa","lat":41.56332,"lng":-92.69428,"zip":"50242","miles_from_dt":19.41},{"city":"Ottumwa","state_name":"Iowa","lat":41.03828,"lng":-92.43252,"zip":"52501","miles_from_dt":19.72},{"city":"Martinsburg","state_name":"Iowa","lat":41.1779,"lng":-92.25077,"zip":"52568","miles_from_dt":20.45},{"city":"Hamilton","state_name":"Iowa","lat":41.17812,"lng":-92.98247,"zip":"50116","miles_from_dt":20.6},{"city":"Albia","state_name":"Iowa","lat":41.02684,"lng":-92.81562,"zip":"52531","miles_from_dt":20.87},{"city":"Montezuma","state_name":"Iowa","lat":41.58434,"lng":-92.52584,"zip":"50171","miles_from_dt":20.94},{"city":"Keswick","state_name":"Iowa","lat":41.46984,"lng":-92.28927,"zip":"50136","miles_from_dt":21.06},{"city":"Lovilia","state_name":"Iowa","lat":41.12771,"lng":-92.97404,"zip":"50150","miles_from_dt":21.75},{"city":"Sigourney","state_name":"Iowa","lat":41.31988,"lng":-92.19465,"zip":"52591","miles_from_dt":21.98},{"city":"Lynnville","state_name":"Iowa","lat":41.57669,"lng":-92.80033,"zip":"50153","miles_from_dt":22.1},{"city":"Blakesburg","state_name":"Iowa","lat":40.95291,"lng":-92.61802,"zip":"52536","miles_from_dt":23.16},{"city":"Sully","state_name":"Iowa","lat":41.56883,"lng":-92.87007,"zip":"50251","miles_from_dt":23.45},{"city":"Deep River","state_name":"Iowa","lat":41.57623,"lng":-92.33693,"zip":"52222","miles_from_dt":24.56},{"city":"Webster","state_name":"Iowa","lat":41.4576,"lng":-92.18387,"zip":"52355","miles_from_dt":25.27},{"city":"Knoxville","state_name":"Iowa","lat":41.30246,"lng":-93.10534,"zip":"50138","miles_from_dt":25.53},{"city":"Otley","state_name":"Iowa","lat":41.46246,"lng":-93.05528,"zip":"50214","miles_from_dt":25.84},{"city":"Reasnor","state_name":"Iowa","lat":41.55761,"lng":-92.96868,"zip":"50232","miles_from_dt":26.12},{"city":"Agency","state_name":"Iowa","lat":40.98953,"lng":-92.29492,"zip":"52530","miles_from_dt":26.54},{"city":"Ollie","state_name":"Iowa","lat":41.21337,"lng":-92.1125,"zip":"52576","miles_from_dt":26.68},{"city":"Killduff","state_name":"Iowa","lat":41.60872,"lng":-92.92126,"zip":"50137","miles_from_dt":27.23},{"city":"Guernsey","state_name":"Iowa","lat":41.64151,"lng":-92.33215,"zip":"52221","miles_from_dt":28.45},{"city":"Columbia","state_name":"Iowa","lat":41.17859,"lng":-93.14554,"zip":"50057","miles_from_dt":28.66},{"city":"Harper","state_name":"Iowa","lat":41.36371,"lng":-92.05912,"zip":"52231","miles_from_dt":29.38},{"city":"Packwood","state_name":"Iowa","lat":41.12039,"lng":-92.09069,"zip":"52580","miles_from_dt":29.69}],"targetCityZipCode":"52595","targetCityState":"Iowa"},"__N_SSG":true}