{"pageProps":{"stateName":"Iowa","cityName":"wayland","nearbyCities":[{"city":"Olds","state_name":"Iowa","lat":41.1342,"lng":-91.54506,"zip":"52647","miles_from_dt":6.47},{"city":"Swedesburg","state_name":"Iowa","lat":41.09796,"lng":-91.5542,"zip":"52652","miles_from_dt":6.53},{"city":"Brighton","state_name":"Iowa","lat":41.15769,"lng":-91.82281,"zip":"52540","miles_from_dt":8.17},{"city":"Crawfordsville","state_name":"Iowa","lat":41.20821,"lng":-91.53209,"zip":"52621","miles_from_dt":8.71},{"city":"Rome","state_name":"Iowa","lat":40.98152,"lng":-91.68088,"zip":"52642","miles_from_dt":10.67},{"city":"Lockridge","state_name":"Iowa","lat":40.99117,"lng":-91.75843,"zip":"52635","miles_from_dt":11.02},{"city":"Mount Pleasant","state_name":"Iowa","lat":40.98799,"lng":-91.58531,"zip":"52641","miles_from_dt":11.1},{"city":"Washington","state_name":"Iowa","lat":41.29923,"lng":-91.71596,"zip":"52353","miles_from_dt":11.54},{"city":"Winfield","state_name":"Iowa","lat":41.13285,"lng":-91.43658,"zip":"52659","miles_from_dt":12.13},{"city":"Mount Union","state_name":"Iowa","lat":41.03988,"lng":-91.41535,"zip":"52644","miles_from_dt":14.8},{"city":"Ainsworth","state_name":"Iowa","lat":41.33218,"lng":-91.54704,"zip":"52201","miles_from_dt":14.97},{"city":"Fairfield","state_name":"Iowa","lat":41.01842,"lng":-91.9264,"zip":"52556","miles_from_dt":15.69},{"city":"West Chester","state_name":"Iowa","lat":41.35428,"lng":-91.81006,"zip":"52359","miles_from_dt":16.77},{"city":"Richland","state_name":"Iowa","lat":41.18902,"lng":-91.98863,"zip":"52585","miles_from_dt":17.07},{"city":"Fairfield","state_name":"Iowa","lat":41.02026,"lng":-91.96653,"zip":"52557","miles_from_dt":17.46},{"city":"Columbus City","state_name":"Iowa","lat":41.25918,"lng":-91.37478,"zip":"52737","miles_from_dt":17.54},{"city":"Columbus Junction","state_name":"Iowa","lat":41.2736,"lng":-91.38072,"zip":"52738","miles_from_dt":17.78},{"city":"Keota","state_name":"Iowa","lat":41.34386,"lng":-91.93891,"zip":"52248","miles_from_dt":20.1},{"city":"Morning Sun","state_name":"Iowa","lat":41.09649,"lng":-91.28205,"zip":"52640","miles_from_dt":20.37},{"city":"Stockport","state_name":"Iowa","lat":40.85819,"lng":-91.81323,"zip":"52651","miles_from_dt":20.59},{"city":"New London","state_name":"Iowa","lat":40.91429,"lng":-91.40138,"zip":"52645","miles_from_dt":20.72},{"city":"Salem","state_name":"Iowa","lat":40.83827,"lng":-91.60647,"zip":"52649","miles_from_dt":20.79},{"city":"Yarmouth","state_name":"Iowa","lat":40.99146,"lng":-91.29998,"zip":"52660","miles_from_dt":21.69},{"city":"Packwood","state_name":"Iowa","lat":41.12039,"lng":-92.09069,"zip":"52580","miles_from_dt":22.03},{"city":"Conesville","state_name":"Iowa","lat":41.3728,"lng":-91.36823,"zip":"52739","miles_from_dt":22.64},{"city":"Hillsboro","state_name":"Iowa","lat":40.80375,"lng":-91.7038,"zip":"52630","miles_from_dt":22.99},{"city":"Ollie","state_name":"Iowa","lat":41.21337,"lng":-92.1125,"zip":"52576","miles_from_dt":23.74},{"city":"Riverside","state_name":"Iowa","lat":41.477,"lng":-91.58046,"zip":"52327","miles_from_dt":23.99},{"city":"Birmingham","state_name":"Iowa","lat":40.86533,"lng":-91.96407,"zip":"52535","miles_from_dt":24.21},{"city":"Houghton","state_name":"Iowa","lat":40.78308,"lng":-91.61209,"zip":"52631","miles_from_dt":24.52},{"city":"Wellman","state_name":"Iowa","lat":41.4749,"lng":-91.84769,"zip":"52356","miles_from_dt":25.18},{"city":"Libertyville","state_name":"Iowa","lat":40.93174,"lng":-92.07224,"zip":"52567","miles_from_dt":25.34},{"city":"Harper","state_name":"Iowa","lat":41.36371,"lng":-92.05912,"zip":"52231","miles_from_dt":25.69},{"city":"Danville","state_name":"Iowa","lat":40.85569,"lng":-91.33998,"zip":"52623","miles_from_dt":25.87},{"city":"Pilot Grove","state_name":"Iowa","lat":40.7703,"lng":-91.54758,"zip":"52648","miles_from_dt":26.01},{"city":"Kalona","state_name":"Iowa","lat":41.51503,"lng":-91.71774,"zip":"52247","miles_from_dt":26.29},{"city":"Letts","state_name":"Iowa","lat":41.34254,"lng":-91.24144,"zip":"52754","miles_from_dt":26.45},{"city":"Batavia","state_name":"Iowa","lat":41.01228,"lng":-92.15043,"zip":"52533","miles_from_dt":26.55},{"city":"Saint Paul","state_name":"Iowa","lat":40.76784,"lng":-91.5164,"zip":"52657","miles_from_dt":26.62},{"city":"Grandview","state_name":"Iowa","lat":41.27465,"lng":-91.1911,"zip":"52752","miles_from_dt":26.68},{"city":"Lone Tree","state_name":"Iowa","lat":41.48015,"lng":-91.43349,"zip":"52755","miles_from_dt":26.74},{"city":"Wapello","state_name":"Iowa","lat":41.16642,"lng":-91.15597,"zip":"52653","miles_from_dt":26.84},{"city":"Mediapolis","state_name":"Iowa","lat":41.01949,"lng":-91.13774,"zip":"52637","miles_from_dt":28.88},{"city":"West Point","state_name":"Iowa","lat":40.73844,"lng":-91.4611,"zip":"52656","miles_from_dt":29.5},{"city":"Nichols","state_name":"Iowa","lat":41.46407,"lng":-91.30061,"zip":"52766","miles_from_dt":29.68},{"city":"Sperry","state_name":"Iowa","lat":40.94782,"lng":-91.15687,"zip":"52650","miles_from_dt":29.73}],"targetCityZipCode":"52654","targetCityState":"Iowa"},"__N_SSG":true}