{"pageProps":{"stateName":"North-dakota","cityName":"portal","nearbyCities":[{"city":"Lignite","state_name":"North Dakota","lat":48.82146,"lng":-102.59927,"zip":"58752","miles_from_dt":9.62},{"city":"Flaxton","state_name":"North Dakota","lat":48.90743,"lng":-102.39392,"zip":"58737","miles_from_dt":10.6},{"city":"Columbus","state_name":"North Dakota","lat":48.85542,"lng":-102.80479,"zip":"58727","miles_from_dt":11.38},{"city":"Bowbells","state_name":"North Dakota","lat":48.82069,"lng":-102.25667,"zip":"58721","miles_from_dt":18.86},{"city":"Noonan","state_name":"North Dakota","lat":48.87261,"lng":-103.03805,"zip":"58765","miles_from_dt":20.31},{"city":"Powers Lake","state_name":"North Dakota","lat":48.58631,"lng":-102.66852,"zip":"58773","miles_from_dt":25.97},{"city":"Mcgregor","state_name":"North Dakota","lat":48.62857,"lng":-102.94666,"zip":"58755","miles_from_dt":27.54},{"city":"Kenmare","state_name":"North Dakota","lat":48.71921,"lng":-102.10115,"zip":"58746","miles_from_dt":28.66}],"targetCityZipCode":"58772","targetCityState":"North Dakota"},"__N_SSG":true}