{"pageProps":{"stateName":"North-dakota","cityName":"powers-lake","nearbyCities":[{"city":"Mcgregor","state_name":"North Dakota","lat":48.62857,"lng":-102.94666,"zip":"58755","miles_from_dt":13.08},{"city":"Lignite","state_name":"North Dakota","lat":48.82146,"lng":-102.59927,"zip":"58752","miles_from_dt":16.55},{"city":"Tioga","state_name":"North Dakota","lat":48.38037,"lng":-102.93276,"zip":"58852","miles_from_dt":18.7},{"city":"Stanley","state_name":"North Dakota","lat":48.36212,"lng":-102.42273,"zip":"58784","miles_from_dt":19.17},{"city":"Columbus","state_name":"North Dakota","lat":48.85542,"lng":-102.80479,"zip":"58727","miles_from_dt":19.61},{"city":"Wildrose","state_name":"North Dakota","lat":48.64198,"lng":-103.15094,"zip":"58795","miles_from_dt":22.44},{"city":"White Earth","state_name":"North Dakota","lat":48.25916,"lng":-102.76683,"zip":"58794","miles_from_dt":23.05},{"city":"Ross","state_name":"North Dakota","lat":48.25079,"lng":-102.61543,"zip":"58776","miles_from_dt":23.31},{"city":"Bowbells","state_name":"North Dakota","lat":48.82069,"lng":-102.25667,"zip":"58721","miles_from_dt":24.84},{"city":"Flaxton","state_name":"North Dakota","lat":48.90743,"lng":-102.39392,"zip":"58737","miles_from_dt":25.49},{"city":"Portal","state_name":"North Dakota","lat":48.96035,"lng":-102.61236,"zip":"58772","miles_from_dt":25.97},{"city":"Noonan","state_name":"North Dakota","lat":48.87261,"lng":-103.03805,"zip":"58765","miles_from_dt":26.01},{"city":"Kenmare","state_name":"North Dakota","lat":48.71921,"lng":-102.10115,"zip":"58746","miles_from_dt":27.55},{"city":"Palermo","state_name":"North Dakota","lat":48.30082,"lng":-102.22721,"zip":"58769","miles_from_dt":28.3},{"city":"Ray","state_name":"North Dakota","lat":48.30906,"lng":-103.15697,"zip":"58849","miles_from_dt":29.51}],"targetCityZipCode":"58773","targetCityState":"North Dakota"},"__N_SSG":true}