{"pageProps":{"stateName":"West-virginia","cityName":"chester","nearbyCities":[{"city":"Newell","state_name":"West Virginia","lat":40.60108,"lng":-80.62646,"zip":"26050","miles_from_dt":3.92},{"city":"Georgetown","state_name":"Pennsylvania","lat":40.55585,"lng":-80.48994,"zip":"15043","miles_from_dt":4.22},{"city":"New Cumberland","state_name":"West Virginia","lat":40.53223,"lng":-80.5837,"zip":"26047","miles_from_dt":4.57},{"city":"New Manchester","state_name":"West Virginia","lat":40.5211,"lng":-80.57022,"zip":"26056","miles_from_dt":5.12},{"city":"East Liverpool","state_name":"Ohio","lat":40.67608,"lng":-80.57965,"zip":"43920","miles_from_dt":5.84},{"city":"Hookstown","state_name":"Pennsylvania","lat":40.5617,"lng":-80.44038,"zip":"15050","miles_from_dt":6.31},{"city":"Stratton","state_name":"Ohio","lat":40.52343,"lng":-80.63025,"zip":"43961","miles_from_dt":6.36},{"city":"Midland","state_name":"Pennsylvania","lat":40.68056,"lng":-80.49182,"zip":"15059","miles_from_dt":6.77},{"city":"Empire","state_name":"Ohio","lat":40.51068,"lng":-80.62252,"zip":"43926","miles_from_dt":6.83},{"city":"Shippingport","state_name":"Pennsylvania","lat":40.62517,"lng":-80.4173,"zip":"15077","miles_from_dt":7.43},{"city":"Wellsville","state_name":"Ohio","lat":40.63365,"lng":-80.68729,"zip":"43968","miles_from_dt":7.59},{"city":"Industry","state_name":"Pennsylvania","lat":40.6669,"lng":-80.43318,"zip":"15052","miles_from_dt":8.04},{"city":"Toronto","state_name":"Ohio","lat":40.48695,"lng":-80.66928,"zip":"43964","miles_from_dt":9.61},{"city":"Irondale","state_name":"Ohio","lat":40.53145,"lng":-80.74699,"zip":"43932","miles_from_dt":11.1},{"city":"West Point","state_name":"Ohio","lat":40.70796,"lng":-80.70221,"zip":"44492","miles_from_dt":11.12},{"city":"Negley","state_name":"Ohio","lat":40.75802,"lng":-80.55264,"zip":"44441","miles_from_dt":11.31},{"city":"Hammondsville","state_name":"Ohio","lat":40.56978,"lng":-80.77372,"zip":"43930","miles_from_dt":11.75},{"city":"Clinton","state_name":"Pennsylvania","lat":40.51043,"lng":-80.35662,"zip":"15026","miles_from_dt":11.82},{"city":"Weirton","state_name":"West Virginia","lat":40.42189,"lng":-80.56123,"zip":"26062","miles_from_dt":11.89},{"city":"Aliquippa","state_name":"Pennsylvania","lat":40.59161,"lng":-80.32078,"zip":"15001","miles_from_dt":12.19},{"city":"Beaver","state_name":"Pennsylvania","lat":40.69933,"lng":-80.36464,"zip":"15009","miles_from_dt":12.26},{"city":"Rogers","state_name":"Ohio","lat":40.77581,"lng":-80.60485,"zip":"44455","miles_from_dt":12.84},{"city":"Monaca","state_name":"Pennsylvania","lat":40.66013,"lng":-80.31082,"zip":"15061","miles_from_dt":13.5},{"city":"Elkton","state_name":"Ohio","lat":40.77068,"lng":-80.70455,"zip":"44415","miles_from_dt":14.57},{"city":"Darlington","state_name":"Pennsylvania","lat":40.79433,"lng":-80.46289,"zip":"16115","miles_from_dt":14.6},{"city":"Steubenville","state_name":"Ohio","lat":40.39763,"lng":-80.66278,"zip":"43952","miles_from_dt":14.74},{"city":"Lisbon","state_name":"Ohio","lat":40.74974,"lng":-80.75149,"zip":"44432","miles_from_dt":14.99},{"city":"Burgettstown","state_name":"Pennsylvania","lat":40.39373,"lng":-80.43583,"zip":"15021","miles_from_dt":15.13},{"city":"Richmond","state_name":"Ohio","lat":40.43623,"lng":-80.76853,"zip":"43944","miles_from_dt":15.74},{"city":"Salineville","state_name":"Ohio","lat":40.63156,"lng":-80.84797,"zip":"43945","miles_from_dt":15.75},{"city":"Beaver Falls","state_name":"Pennsylvania","lat":40.76829,"lng":-80.35873,"zip":"15010","miles_from_dt":15.76},{"city":"South Heights","state_name":"Pennsylvania","lat":40.57471,"lng":-80.23614,"zip":"15081","miles_from_dt":16.7},{"city":"Imperial","state_name":"Pennsylvania","lat":40.46019,"lng":-80.28727,"zip":"15126","miles_from_dt":16.75},{"city":"Colliers","state_name":"West Virginia","lat":40.3482,"lng":-80.55522,"zip":"26035","miles_from_dt":16.96},{"city":"Conway","state_name":"Pennsylvania","lat":40.66706,"lng":-80.23988,"zip":"15027","miles_from_dt":17.19},{"city":"Crescent","state_name":"Pennsylvania","lat":40.55618,"lng":-80.22868,"zip":"15046","miles_from_dt":17.24},{"city":"Bulger","state_name":"Pennsylvania","lat":40.40805,"lng":-80.33053,"zip":"15019","miles_from_dt":17.36},{"city":"East Palestine","state_name":"Ohio","lat":40.84803,"lng":-80.5549,"zip":"44413","miles_from_dt":17.53},{"city":"Langeloth","state_name":"Pennsylvania","lat":40.36353,"lng":-80.4008,"zip":"15054","miles_from_dt":17.8},{"city":"Ambridge","state_name":"Pennsylvania","lat":40.60153,"lng":-80.21415,"zip":"15003","miles_from_dt":17.81},{"city":"New Waterford","state_name":"Ohio","lat":40.84834,"lng":-80.61732,"zip":"44445","miles_from_dt":17.87},{"city":"Bergholz","state_name":"Ohio","lat":40.50867,"lng":-80.87349,"zip":"43908","miles_from_dt":17.89},{"city":"Joffre","state_name":"Pennsylvania","lat":40.38056,"lng":-80.35975,"zip":"15053","miles_from_dt":17.89},{"city":"Leetsdale","state_name":"Pennsylvania","lat":40.56512,"lng":-80.21407,"zip":"15056","miles_from_dt":17.92},{"city":"Follansbee","state_name":"West Virginia","lat":40.3344,"lng":-80.58494,"zip":"26037","miles_from_dt":18},{"city":"Steubenville","state_name":"Ohio","lat":40.35815,"lng":-80.70548,"zip":"43953","miles_from_dt":18.16},{"city":"Slovan","state_name":"Pennsylvania","lat":40.35949,"lng":-80.38501,"zip":"15078","miles_from_dt":18.44},{"city":"Summitville","state_name":"Ohio","lat":40.67315,"lng":-80.88919,"zip":"43962","miles_from_dt":18.52},{"city":"New Brighton","state_name":"Pennsylvania","lat":40.75119,"lng":-80.25269,"zip":"15066","miles_from_dt":19.13},{"city":"East Springfield","state_name":"Ohio","lat":40.44583,"lng":-80.86242,"zip":"43925","miles_from_dt":19.26},{"city":"Freedom","state_name":"Pennsylvania","lat":40.68786,"lng":-80.20411,"zip":"15042","miles_from_dt":19.43},{"city":"Atlasburg","state_name":"Pennsylvania","lat":40.34216,"lng":-80.38289,"zip":"15004","miles_from_dt":19.55},{"city":"Coraopolis","state_name":"Pennsylvania","lat":40.50006,"lng":-80.20031,"zip":"15108","miles_from_dt":19.64},{"city":"Wolf Run","state_name":"Ohio","lat":40.46564,"lng":-80.88599,"zip":"43970","miles_from_dt":19.66},{"city":"Rochester","state_name":"Pennsylvania","lat":40.72837,"lng":-80.21937,"zip":"15074","miles_from_dt":19.81},{"city":"Baden","state_name":"Pennsylvania","lat":40.64431,"lng":-80.17607,"zip":"15005","miles_from_dt":20.1},{"city":"Pittsburgh","state_name":"Pennsylvania","lat":40.50277,"lng":-80.18917,"zip":"15231","miles_from_dt":20.14},{"city":"Midway","state_name":"Pennsylvania","lat":40.37695,"lng":-80.29113,"zip":"15060","miles_from_dt":20.35},{"city":"Leetonia","state_name":"Ohio","lat":40.84748,"lng":-80.75365,"zip":"44431","miles_from_dt":20.43},{"city":"Koppel","state_name":"Pennsylvania","lat":40.83425,"lng":-80.32369,"zip":"16136","miles_from_dt":20.47},{"city":"New Galilee","state_name":"Pennsylvania","lat":40.87237,"lng":-80.3968,"zip":"16141","miles_from_dt":20.87},{"city":"Bloomingdale","state_name":"Ohio","lat":40.37039,"lng":-80.8214,"zip":"43910","miles_from_dt":20.95},{"city":"Enon Valley","state_name":"Pennsylvania","lat":40.892,"lng":-80.47344,"zip":"16120","miles_from_dt":20.98},{"city":"Mingo Junction","state_name":"Ohio","lat":40.30138,"lng":-80.67199,"zip":"43938","miles_from_dt":21.15},{"city":"Columbiana","state_name":"Ohio","lat":40.88487,"lng":-80.68569,"zip":"44408","miles_from_dt":21.25},{"city":"Hanoverton","state_name":"Ohio","lat":40.7524,"lng":-80.89963,"zip":"44423","miles_from_dt":21.26},{"city":"Mechanicstown","state_name":"Ohio","lat":40.6231,"lng":-80.9556,"zip":"44651","miles_from_dt":21.29},{"city":"Sewickley","state_name":"Pennsylvania","lat":40.57298,"lng":-80.14725,"zip":"15143","miles_from_dt":21.37},{"city":"Pittsburgh","state_name":"Pennsylvania","lat":40.45246,"lng":-80.18405,"zip":"15275","miles_from_dt":21.72},{"city":"Petersburg","state_name":"Ohio","lat":40.9197,"lng":-80.53976,"zip":"44454","miles_from_dt":22.48},{"city":"Amsterdam","state_name":"Ohio","lat":40.47042,"lng":-80.95131,"zip":"43903","miles_from_dt":22.66},{"city":"Brilliant","state_name":"Ohio","lat":40.27048,"lng":-80.63154,"zip":"43913","miles_from_dt":22.71},{"city":"Oakdale","state_name":"Pennsylvania","lat":40.41486,"lng":-80.18981,"zip":"15071","miles_from_dt":22.76},{"city":"New Springfield","state_name":"Ohio","lat":40.92351,"lng":-80.59473,"zip":"44443","miles_from_dt":22.84},{"city":"Kensington","state_name":"Ohio","lat":40.71672,"lng":-80.95686,"zip":"44427","miles_from_dt":22.87},{"city":"McDonald","state_name":"Pennsylvania","lat":40.35571,"lng":-80.24713,"zip":"15057","miles_from_dt":23.01},{"city":"Sturgeon","state_name":"Pennsylvania","lat":40.38031,"lng":-80.21061,"zip":"15082","miles_from_dt":23.28},{"city":"Wampum","state_name":"Pennsylvania","lat":40.88902,"lng":-80.33509,"zip":"16157","miles_from_dt":23.34},{"city":"Warrendale","state_name":"Pennsylvania","lat":40.6433,"lng":-80.10951,"zip":"15095","miles_from_dt":23.54},{"city":"Southview","state_name":"Pennsylvania","lat":40.33277,"lng":-80.2623,"zip":"15361","miles_from_dt":23.64},{"city":"Winona","state_name":"Ohio","lat":40.82192,"lng":-80.88864,"zip":"44493","miles_from_dt":23.64},{"city":"Wellsburg","state_name":"West Virginia","lat":40.25008,"lng":-80.58037,"zip":"26070","miles_from_dt":23.78},{"city":"Washingtonville","state_name":"Ohio","lat":40.90041,"lng":-80.76801,"zip":"44490","miles_from_dt":23.97},{"city":"Pittsburgh","state_name":"Pennsylvania","lat":40.50636,"lng":-80.1116,"zip":"15225","miles_from_dt":23.99},{"city":"Warrendale","state_name":"Pennsylvania","lat":40.67161,"lng":-80.10344,"zip":"15096","miles_from_dt":24.21},{"city":"Hopedale","state_name":"Ohio","lat":40.36981,"lng":-80.90655,"zip":"43976","miles_from_dt":24.23},{"city":"Avella","state_name":"Pennsylvania","lat":40.25404,"lng":-80.43757,"zip":"15312","miles_from_dt":24.23},{"city":"Fombell","state_name":"Pennsylvania","lat":40.82389,"lng":-80.19844,"zip":"16123","miles_from_dt":24.44},{"city":"Hickory","state_name":"Pennsylvania","lat":40.28654,"lng":-80.32258,"zip":"15340","miles_from_dt":24.44},{"city":"Warrendale","state_name":"Pennsylvania","lat":40.664,"lng":-80.09593,"zip":"15086","miles_from_dt":24.49},{"city":"Ellwood City","state_name":"Pennsylvania","lat":40.8743,"lng":-80.2568,"zip":"16117","miles_from_dt":24.8},{"city":"Cranberry Township","state_name":"Pennsylvania","lat":40.71114,"lng":-80.10606,"zip":"16066","miles_from_dt":24.82},{"city":"Bradfordwoods","state_name":"Pennsylvania","lat":40.63622,"lng":-80.08164,"zip":"15015","miles_from_dt":24.93},{"city":"North Lima","state_name":"Ohio","lat":40.94711,"lng":-80.66232,"zip":"44452","miles_from_dt":25.03},{"city":"West Middletown","state_name":"Pennsylvania","lat":40.2432,"lng":-80.42519,"zip":"15379","miles_from_dt":25.12},{"city":"West Pittsburg","state_name":"Pennsylvania","lat":40.9283,"lng":-80.36235,"zip":"16160","miles_from_dt":25.13},{"city":"Zelienople","state_name":"Pennsylvania","lat":40.76352,"lng":-80.12773,"zip":"16063","miles_from_dt":25.2},{"city":"McKees Rocks","state_name":"Pennsylvania","lat":40.46872,"lng":-80.10233,"zip":"15136","miles_from_dt":25.23},{"city":"Smithfield","state_name":"Ohio","lat":40.26847,"lng":-80.78002,"zip":"43948","miles_from_dt":25.46},{"city":"Pittsburgh","state_name":"Pennsylvania","lat":40.51194,"lng":-80.07968,"zip":"15278","miles_from_dt":25.53},{"city":"Wexford","state_name":"Pennsylvania","lat":40.62587,"lng":-80.06766,"zip":"15090","miles_from_dt":25.59},{"city":"New Middletown","state_name":"Ohio","lat":40.96591,"lng":-80.54963,"zip":"44442","miles_from_dt":25.66},{"city":"Ingomar","state_name":"Pennsylvania","lat":40.58104,"lng":-80.06113,"zip":"15127","miles_from_dt":25.87},{"city":"Pittsburgh","state_name":"Pennsylvania","lat":40.4381,"lng":-80.10552,"zip":"15205","miles_from_dt":25.88},{"city":"Augusta","state_name":"Ohio","lat":40.69589,"lng":-81.02685,"zip":"44607","miles_from_dt":25.9},{"city":"Bessemer","state_name":"Pennsylvania","lat":40.96812,"lng":-80.50099,"zip":"16112","miles_from_dt":25.95},{"city":"Pittsburgh","state_name":"Pennsylvania","lat":40.44139,"lng":-80.0978,"zip":"15277","miles_from_dt":26.16},{"city":"Pittsburgh","state_name":"Pennsylvania","lat":40.50566,"lng":-80.06902,"zip":"15202","miles_from_dt":26.17},{"city":"East Rochester","state_name":"Ohio","lat":40.7623,"lng":-80.99919,"zip":"44625","miles_from_dt":26.18},{"city":"Westland","state_name":"Pennsylvania","lat":40.27771,"lng":-80.27433,"zip":"15378","miles_from_dt":26.3},{"city":"New Castle","state_name":"Pennsylvania","lat":40.96173,"lng":-80.41616,"zip":"16102","miles_from_dt":26.36},{"city":"Pittsburgh","state_name":"Pennsylvania","lat":40.43803,"lng":-80.09376,"zip":"15276","miles_from_dt":26.45},{"city":"Beech Bottom","state_name":"West Virginia","lat":40.21662,"lng":-80.65965,"zip":"26030","miles_from_dt":26.65},{"city":"Carnegie","state_name":"Pennsylvania","lat":40.40882,"lng":-80.10863,"zip":"15106","miles_from_dt":26.65},{"city":"Cuddy","state_name":"Pennsylvania","lat":40.34802,"lng":-80.16235,"zip":"15031","miles_from_dt":26.66},{"city":"Pittsburgh","state_name":"Pennsylvania","lat":40.54834,"lng":-80.04682,"zip":"15237","miles_from_dt":26.8},{"city":"Presto","state_name":"Pennsylvania","lat":40.38474,"lng":-80.12231,"zip":"15142","miles_from_dt":26.88},{"city":"Cecil","state_name":"Pennsylvania","lat":40.32167,"lng":-80.18716,"zip":"15321","miles_from_dt":26.91},{"city":"Morgan","state_name":"Pennsylvania","lat":40.35538,"lng":-80.14849,"zip":"15064","miles_from_dt":26.92},{"city":"Salem","state_name":"Ohio","lat":40.90221,"lng":-80.87026,"zip":"44460","miles_from_dt":27.02},{"city":"Rayland","state_name":"Ohio","lat":40.2242,"lng":-80.73269,"zip":"43943","miles_from_dt":27.23},{"city":"Greenford","state_name":"Ohio","lat":40.94502,"lng":-80.79206,"zip":"44422","miles_from_dt":27.28},{"city":"Piney Fork","state_name":"Ohio","lat":40.25258,"lng":-80.81345,"zip":"43941","miles_from_dt":27.28},{"city":"Jewett","state_name":"Ohio","lat":40.3784,"lng":-80.99036,"zip":"43986","miles_from_dt":27.45},{"city":"Carrollton","state_name":"Ohio","lat":40.5669,"lng":-81.0739,"zip":"44615","miles_from_dt":27.49},{"city":"Pittsburgh","state_name":"Pennsylvania","lat":40.51995,"lng":-80.03866,"zip":"15229","miles_from_dt":27.53},{"city":"Pittsburgh","state_name":"Pennsylvania","lat":40.45597,"lng":-80.06051,"zip":"15204","miles_from_dt":27.6},{"city":"Windsor Heights","state_name":"West Virginia","lat":40.19748,"lng":-80.64567,"zip":"26075","miles_from_dt":27.8},{"city":"Muse","state_name":"Pennsylvania","lat":40.29377,"lng":-80.20056,"zip":"15350","miles_from_dt":27.81},{"city":"Youngstown","state_name":"Ohio","lat":40.99838,"lng":-80.60868,"zip":"44514","miles_from_dt":28.06},{"city":"Bethany","state_name":"West Virginia","lat":40.18646,"lng":-80.55024,"zip":"26032","miles_from_dt":28.12},{"city":"North Georgetown","state_name":"Ohio","lat":40.83555,"lng":-80.98706,"zip":"44665","miles_from_dt":28.25},{"city":"Bridgeville","state_name":"Pennsylvania","lat":40.34348,"lng":-80.12865,"zip":"15017","miles_from_dt":28.25},{"city":"Pittsburgh","state_name":"Pennsylvania","lat":40.46551,"lng":-80.0383,"zip":"15279","miles_from_dt":28.49},{"city":"Pittsburgh","state_name":"Pennsylvania","lat":40.46742,"lng":-80.03747,"zip":"15268","miles_from_dt":28.49},{"city":"Pittsburgh","state_name":"Pennsylvania","lat":40.46742,"lng":-80.03747,"zip":"15267","miles_from_dt":28.49},{"city":"Mars","state_name":"Pennsylvania","lat":40.70192,"lng":-80.02866,"zip":"16046","miles_from_dt":28.52},{"city":"Hillsville","state_name":"Pennsylvania","lat":41.00603,"lng":-80.50449,"zip":"16132","miles_from_dt":28.54},{"city":"Harmony","state_name":"Pennsylvania","lat":40.85103,"lng":-80.12592,"zip":"16037","miles_from_dt":28.57},{"city":"New Rumley","state_name":"Ohio","lat":40.39926,"lng":-81.03393,"zip":"43984","miles_from_dt":28.7},{"city":"Short Creek","state_name":"West Virginia","lat":40.18622,"lng":-80.66453,"zip":"26058","miles_from_dt":28.75},{"city":"Dillonvale","state_name":"Ohio","lat":40.22396,"lng":-80.80546,"zip":"43917","miles_from_dt":28.81},{"city":"Pittsburgh","state_name":"Pennsylvania","lat":40.45985,"lng":-80.03387,"zip":"15233","miles_from_dt":28.84},{"city":"Callery","state_name":"Pennsylvania","lat":40.73961,"lng":-80.03719,"zip":"16024","miles_from_dt":28.88},{"city":"Pittsburgh","state_name":"Pennsylvania","lat":40.45873,"lng":-80.03122,"zip":"15286","miles_from_dt":28.99},{"city":"Pittsburgh","state_name":"Pennsylvania","lat":40.42,"lng":-80.05002,"zip":"15244","miles_from_dt":29.06},{"city":"Pittsburgh","state_name":"Pennsylvania","lat":40.42,"lng":-80.05002,"zip":"15242","miles_from_dt":29.06},{"city":"Pittsburgh","state_name":"Pennsylvania","lat":40.41875,"lng":-80.04894,"zip":"15220","miles_from_dt":29.15},{"city":"Pittsburgh","state_name":"Pennsylvania","lat":40.42209,"lng":-80.04637,"zip":"15283","miles_from_dt":29.18},{"city":"Hendersonville","state_name":"Pennsylvania","lat":40.29892,"lng":-80.1547,"zip":"15339","miles_from_dt":29.23},{"city":"Pittsburgh","state_name":"Pennsylvania","lat":40.48541,"lng":-80.01455,"zip":"15214","miles_from_dt":29.3},{"city":"West Liberty","state_name":"West Virginia","lat":40.16889,"lng":-80.59813,"zip":"26074","miles_from_dt":29.43},{"city":"Pittsburgh","state_name":"Pennsylvania","lat":40.37474,"lng":-80.07305,"zip":"15243","miles_from_dt":29.45},{"city":"Pittsburgh","state_name":"Pennsylvania","lat":40.45589,"lng":-80.02196,"zip":"15255","miles_from_dt":29.52},{"city":"Pittsburgh","state_name":"Pennsylvania","lat":40.45735,"lng":-80.01932,"zip":"15290","miles_from_dt":29.62},{"city":"Houston","state_name":"Pennsylvania","lat":40.24533,"lng":-80.22061,"zip":"15342","miles_from_dt":29.76},{"city":"Pittsburgh","state_name":"Pennsylvania","lat":40.47106,"lng":-80.00844,"zip":"15212","miles_from_dt":29.88},{"city":"Evans City","state_name":"Pennsylvania","lat":40.79355,"lng":-80.04618,"zip":"16033","miles_from_dt":29.95},{"city":"New Castle","state_name":"Pennsylvania","lat":40.99992,"lng":-80.35011,"zip":"16107","miles_from_dt":29.95},{"city":"New Castle","state_name":"Pennsylvania","lat":40.99983,"lng":-80.35011,"zip":"16103","miles_from_dt":29.95}],"targetCityZipCode":"26034","targetCityState":"West Virginia"},"__N_SSG":true}