{"pageProps":{"stateName":"West-virginia","cityName":"parsons","nearbyCities":[{"city":"Hambleton","state_name":"West Virginia","lat":39.11612,"lng":-79.61617,"zip":"26269","miles_from_dt":5.3},{"city":"Thomas","state_name":"West Virginia","lat":39.15247,"lng":-79.52916,"zip":"26292","miles_from_dt":8.72},{"city":"Montrose","state_name":"West Virginia","lat":39.06436,"lng":-79.82088,"zip":"26283","miles_from_dt":9.94},{"city":"Kerens","state_name":"West Virginia","lat":39.03201,"lng":-79.75659,"zip":"26276","miles_from_dt":9.94},{"city":"Rowlesburg","state_name":"West Virginia","lat":39.3116,"lng":-79.68651,"zip":"26425","miles_from_dt":10.01},{"city":"Hendricks","state_name":"West Virginia","lat":39.049,"lng":-79.55194,"zip":"26271","miles_from_dt":11.01},{"city":"Eglon","state_name":"West Virginia","lat":39.2641,"lng":-79.51892,"zip":"26716","miles_from_dt":11.41},{"city":"Moatsville","state_name":"West Virginia","lat":39.23093,"lng":-79.89076,"zip":"26405","miles_from_dt":11.63},{"city":"Aurora","state_name":"West Virginia","lat":39.32388,"lng":-79.56663,"zip":"26705","miles_from_dt":12.73},{"city":"Tunnelton","state_name":"West Virginia","lat":39.36861,"lng":-79.7626,"zip":"26444","miles_from_dt":14.46},{"city":"Red Creek","state_name":"West Virginia","lat":38.98972,"lng":-79.51268,"zip":"26289","miles_from_dt":15.5},{"city":"Davis","state_name":"West Virginia","lat":39.08923,"lng":-79.41147,"zip":"26260","miles_from_dt":15.92},{"city":"Thornton","state_name":"West Virginia","lat":39.32947,"lng":-79.90625,"zip":"26440","miles_from_dt":16.13},{"city":"Bayard","state_name":"West Virginia","lat":39.22275,"lng":-79.39418,"zip":"26707","miles_from_dt":16.38},{"city":"Belington","state_name":"West Virginia","lat":39.02757,"lng":-79.96198,"zip":"26250","miles_from_dt":17.46},{"city":"Bowden","state_name":"West Virginia","lat":38.91261,"lng":-79.65341,"zip":"26254","miles_from_dt":17.63},{"city":"Philippi","state_name":"West Virginia","lat":39.16349,"lng":-80.02245,"zip":"26416","miles_from_dt":17.82},{"city":"Newburg","state_name":"West Virginia","lat":39.4032,"lng":-79.82389,"zip":"26410","miles_from_dt":17.82},{"city":"Elkins","state_name":"West Virginia","lat":38.9163,"lng":-79.79229,"zip":"26241","miles_from_dt":18.11},{"city":"Junior","state_name":"West Virginia","lat":38.98313,"lng":-79.94583,"zip":"26275","miles_from_dt":18.67},{"city":"Dryfork","state_name":"West Virginia","lat":38.95705,"lng":-79.43586,"zip":"26263","miles_from_dt":19.91},{"city":"Gormania","state_name":"West Virginia","lat":39.27761,"lng":-79.33126,"zip":"26720","miles_from_dt":20.75},{"city":"Terra Alta","state_name":"West Virginia","lat":39.45042,"lng":-79.56035,"zip":"26764","miles_from_dt":20.79},{"city":"Independence","state_name":"West Virginia","lat":39.44755,"lng":-79.88101,"zip":"26374","miles_from_dt":21.91},{"city":"Kingwood","state_name":"West Virginia","lat":39.4846,"lng":-79.71189,"zip":"26537","miles_from_dt":21.97},{"city":"Grafton","state_name":"West Virginia","lat":39.34847,"lng":-80.02866,"zip":"26354","miles_from_dt":22.05},{"city":"Oakland","state_name":"Maryland","lat":39.39107,"lng":-79.39085,"zip":"21550","miles_from_dt":22.32},{"city":"Simpson","state_name":"West Virginia","lat":39.26743,"lng":-80.08875,"zip":"26435","miles_from_dt":22.47},{"city":"Norton","state_name":"West Virginia","lat":38.9102,"lng":-79.94945,"zip":"26285","miles_from_dt":22.51},{"city":"Galloway","state_name":"West Virginia","lat":39.22757,"lng":-80.11098,"zip":"26349","miles_from_dt":22.96},{"city":"Mount Storm","state_name":"West Virginia","lat":39.21508,"lng":-79.2647,"zip":"26739","miles_from_dt":23.11},{"city":"Coalton","state_name":"West Virginia","lat":38.9226,"lng":-80.01239,"zip":"26257","miles_from_dt":24.14},{"city":"Arthurdale","state_name":"West Virginia","lat":39.50105,"lng":-79.82393,"zip":"26520","miles_from_dt":24.16},{"city":"Flemington","state_name":"West Virginia","lat":39.26371,"lng":-80.1261,"zip":"26347","miles_from_dt":24.31},{"city":"Reedsville","state_name":"West Virginia","lat":39.5133,"lng":-79.80757,"zip":"26547","miles_from_dt":24.73},{"city":"Onego","state_name":"West Virginia","lat":38.88742,"lng":-79.40064,"zip":"26886","miles_from_dt":24.78},{"city":"Harman","state_name":"West Virginia","lat":38.81229,"lng":-79.60034,"zip":"26270","miles_from_dt":24.92},{"city":"Volga","state_name":"West Virginia","lat":39.10178,"lng":-80.1584,"zip":"26238","miles_from_dt":25.53},{"city":"Beverly","state_name":"West Virginia","lat":38.80772,"lng":-79.85654,"zip":"26253","miles_from_dt":26.32},{"city":"Dailey","state_name":"West Virginia","lat":38.82536,"lng":-79.91528,"zip":"26259","miles_from_dt":26.46},{"city":"Bretz","state_name":"West Virginia","lat":39.54075,"lng":-79.80716,"zip":"26524","miles_from_dt":26.56},{"city":"Maysville","state_name":"West Virginia","lat":39.08119,"lng":-79.2083,"zip":"26833","miles_from_dt":26.57},{"city":"Albright","state_name":"West Virginia","lat":39.55179,"lng":-79.63212,"zip":"26519","miles_from_dt":26.76},{"city":"Ellamore","state_name":"West Virginia","lat":38.92557,"lng":-80.08069,"zip":"26267","miles_from_dt":26.77},{"city":"Cabins","state_name":"West Virginia","lat":38.96933,"lng":-79.25935,"zip":"26855","miles_from_dt":26.89},{"city":"Rosemont","state_name":"West Virginia","lat":39.28117,"lng":-80.17272,"zip":"26424","miles_from_dt":27.05},{"city":"Seneca Rocks","state_name":"West Virginia","lat":38.84273,"lng":-79.40118,"zip":"26884","miles_from_dt":27.23},{"city":"Masontown","state_name":"West Virginia","lat":39.573,"lng":-79.79041,"zip":"26542","miles_from_dt":28.54},{"city":"Whitmer","state_name":"West Virginia","lat":38.75425,"lng":-79.56369,"zip":"26296","miles_from_dt":29.25},{"city":"Valley Bend","state_name":"West Virginia","lat":38.7824,"lng":-79.9365,"zip":"26293","miles_from_dt":29.63},{"city":"Mabie","state_name":"West Virginia","lat":38.82572,"lng":-80.02547,"zip":"26278","miles_from_dt":29.63},{"city":"Bridgeport","state_name":"West Virginia","lat":39.28837,"lng":-80.22109,"zip":"26330","miles_from_dt":29.68},{"city":"Buckhannon","state_name":"West Virginia","lat":39.00082,"lng":-80.20249,"zip":"26201","miles_from_dt":29.8},{"city":"Kitzmiller","state_name":"Maryland","lat":39.40133,"lng":-79.22109,"zip":"21538","miles_from_dt":29.93},{"city":"Colfax","state_name":"West Virginia","lat":39.43521,"lng":-80.12954,"zip":"26566","miles_from_dt":29.95}],"targetCityZipCode":"26287","targetCityState":"West Virginia"},"__N_SSG":true}