{"pageProps":{"stateName":"Michigan","cityName":"ontonagon","nearbyCities":[{"city":"Rockland","state_name":"Michigan","lat":46.71139,"lng":-89.25085,"zip":"49960","miles_from_dt":10.01},{"city":"White Pine","state_name":"Michigan","lat":46.71043,"lng":-89.62866,"zip":"49971","miles_from_dt":11.25},{"city":"Bergland","state_name":"Michigan","lat":46.61815,"lng":-89.54308,"zip":"49910","miles_from_dt":13.34},{"city":"Greenland","state_name":"Michigan","lat":46.79874,"lng":-89.09567,"zip":"49929","miles_from_dt":15.62},{"city":"Ewen","state_name":"Michigan","lat":46.55088,"lng":-89.37681,"zip":"49925","miles_from_dt":16.9},{"city":"Mass City","state_name":"Michigan","lat":46.74567,"lng":-88.99919,"zip":"49948","miles_from_dt":20.46},{"city":"Bruce Crossing","state_name":"Michigan","lat":46.49393,"lng":-89.20017,"zip":"49912","miles_from_dt":23.27},{"city":"Marenisco","state_name":"Michigan","lat":46.42589,"lng":-89.60536,"zip":"49947","miles_from_dt":26.79},{"city":"Toivola","state_name":"Michigan","lat":46.94752,"lng":-88.85878,"zip":"49965","miles_from_dt":28.85},{"city":"Wakefield","state_name":"Michigan","lat":46.50199,"lng":-89.88314,"zip":"49968","miles_from_dt":29.67}],"targetCityZipCode":"49953","targetCityState":"Michigan"},"__N_SSG":true}