{"pageProps":{"stateName":"Michigan","cityName":"rapid-river","nearbyCities":[{"city":"Perkins","state_name":"Michigan","lat":46.01824,"lng":-87.08222,"zip":"49872","miles_from_dt":11.23},{"city":"Gladstone","state_name":"Michigan","lat":45.87129,"lng":-87.09781,"zip":"49837","miles_from_dt":12.73},{"city":"Nahma","state_name":"Michigan","lat":45.84444,"lng":-86.65104,"zip":"49864","miles_from_dt":12.99},{"city":"Wells","state_name":"Michigan","lat":45.78292,"lng":-87.07634,"zip":"49894","miles_from_dt":15.84},{"city":"Wetmore","state_name":"Michigan","lat":46.16807,"lng":-86.66593,"zip":"49895","miles_from_dt":17.36},{"city":"Cooks","state_name":"Michigan","lat":45.94711,"lng":-86.49946,"zip":"49817","miles_from_dt":17.63},{"city":"Escanaba","state_name":"Michigan","lat":45.76773,"lng":-87.16522,"zip":"49829","miles_from_dt":19.58},{"city":"Garden","state_name":"Michigan","lat":45.74396,"lng":-86.57555,"zip":"49835","miles_from_dt":20.37},{"city":"Trenary","state_name":"Michigan","lat":46.23206,"lng":-87.02828,"zip":"49891","miles_from_dt":20.45},{"city":"Rock","state_name":"Michigan","lat":46.11693,"lng":-87.22515,"zip":"49880","miles_from_dt":20.48},{"city":"Chatham","state_name":"Michigan","lat":46.27517,"lng":-86.89863,"zip":"49816","miles_from_dt":21.93},{"city":"Cornell","state_name":"Michigan","lat":45.98223,"lng":-87.34745,"zip":"49818","miles_from_dt":23.28},{"city":"Manistique","state_name":"Michigan","lat":46.09581,"lng":-86.36453,"zip":"49854","miles_from_dt":25.88},{"city":"Bark River","state_name":"Michigan","lat":45.71211,"lng":-87.28885,"zip":"49807","miles_from_dt":26.61},{"city":"Rumely","state_name":"Michigan","lat":46.32316,"lng":-87.04567,"zip":"49826","miles_from_dt":26.63},{"city":"Eben Junction","state_name":"Michigan","lat":46.36039,"lng":-86.98462,"zip":"49825","miles_from_dt":28.34},{"city":"Harris","state_name":"Michigan","lat":45.70291,"lng":-87.34728,"zip":"49845","miles_from_dt":29.21},{"city":"Little Lake","state_name":"Michigan","lat":46.27504,"lng":-87.29142,"zip":"49833","miles_from_dt":29.95}],"targetCityZipCode":"49878","targetCityState":"Michigan"},"__N_SSG":true}