{"pageProps":{"stateName":"Kansas","cityName":"chanute","nearbyCities":[{"city":"Humboldt","state_name":"Kansas","lat":37.79882,"lng":-95.43577,"zip":"66748","miles_from_dt":10.59},{"city":"Altoona","state_name":"Kansas","lat":37.55301,"lng":-95.63104,"zip":"66710","miles_from_dt":11.42},{"city":"Erie","state_name":"Kansas","lat":37.59014,"lng":-95.25282,"zip":"66733","miles_from_dt":11.96},{"city":"Thayer","state_name":"Kansas","lat":37.46848,"lng":-95.48893,"zip":"66776","miles_from_dt":12.37},{"city":"Buffalo","state_name":"Kansas","lat":37.69671,"lng":-95.68672,"zip":"66717","miles_from_dt":12.96},{"city":"Benedict","state_name":"Kansas","lat":37.63369,"lng":-95.70484,"zip":"66714","miles_from_dt":13.51},{"city":"Galesburg","state_name":"Kansas","lat":37.4621,"lng":-95.36641,"zip":"66740","miles_from_dt":13.68},{"city":"Savonburg","state_name":"Kansas","lat":37.74559,"lng":-95.18813,"zip":"66772","miles_from_dt":16.35},{"city":"Stark","state_name":"Kansas","lat":37.69957,"lng":-95.14855,"zip":"66775","miles_from_dt":17.41},{"city":"Elsmore","state_name":"Kansas","lat":37.80097,"lng":-95.1947,"zip":"66732","miles_from_dt":17.98},{"city":"Piqua","state_name":"Kansas","lat":37.91469,"lng":-95.56694,"zip":"66761","miles_from_dt":19.43},{"city":"Gas","state_name":"Kansas","lat":37.92023,"lng":-95.34755,"zip":"66742","miles_from_dt":19.85},{"city":"Saint Paul","state_name":"Kansas","lat":37.49211,"lng":-95.14883,"zip":"66771","miles_from_dt":20.07},{"city":"Iola","state_name":"Kansas","lat":37.93597,"lng":-95.41069,"zip":"66749","miles_from_dt":20.15},{"city":"Neodesha","state_name":"Kansas","lat":37.41602,"lng":-95.69874,"zip":"66757","miles_from_dt":20.63},{"city":"Dennis","state_name":"Kansas","lat":37.34406,"lng":-95.42963,"zip":"67341","miles_from_dt":20.91},{"city":"Yates Center","state_name":"Kansas","lat":37.87682,"lng":-95.73322,"zip":"66783","miles_from_dt":21.87},{"city":"La Harpe","state_name":"Kansas","lat":37.93421,"lng":-95.28466,"zip":"66751","miles_from_dt":22.03},{"city":"Walnut","state_name":"Kansas","lat":37.60895,"lng":-95.05881,"zip":"66780","miles_from_dt":22.1},{"city":"Fredonia","state_name":"Kansas","lat":37.55335,"lng":-95.86381,"zip":"66736","miles_from_dt":23.12},{"city":"Parsons","state_name":"Kansas","lat":37.33951,"lng":-95.25261,"zip":"67357","miles_from_dt":24.01},{"city":"Moran","state_name":"Kansas","lat":37.91211,"lng":-95.16727,"zip":"66755","miles_from_dt":24.31},{"city":"Cherryvale","state_name":"Kansas","lat":37.28005,"lng":-95.53381,"zip":"67335","miles_from_dt":25.59},{"city":"Sycamore","state_name":"Kansas","lat":37.32934,"lng":-95.71819,"zip":"67363","miles_from_dt":26.09},{"city":"Neosho Falls","state_name":"Kansas","lat":38.01862,"lng":-95.59602,"zip":"66758","miles_from_dt":26.75},{"city":"Hepler","state_name":"Kansas","lat":37.6708,"lng":-94.95317,"zip":"66746","miles_from_dt":27.79},{"city":"Colony","state_name":"Kansas","lat":38.06786,"lng":-95.40395,"zip":"66015","miles_from_dt":29.23},{"city":"Uniontown","state_name":"Kansas","lat":37.83751,"lng":-94.97867,"zip":"66779","miles_from_dt":29.43},{"city":"Toronto","state_name":"Kansas","lat":37.79087,"lng":-95.9684,"zip":"66777","miles_from_dt":29.63}],"targetCityZipCode":"66720","targetCityState":"Kansas"},"__N_SSG":true}