{"pageProps":{"stateName":"Kansas","cityName":"la-crosse","nearbyCities":[{"city":"Liebenthal","state_name":"Kansas","lat":38.65444,"lng":-99.32017,"zip":"67553","miles_from_dt":4.32},{"city":"Bison","state_name":"Kansas","lat":38.58781,"lng":-99.18302,"zip":"67520","miles_from_dt":8.28},{"city":"Schoenchen","state_name":"Kansas","lat":38.71304,"lng":-99.33249,"zip":"67667","miles_from_dt":8.28},{"city":"McCracken","state_name":"Kansas","lat":38.60719,"lng":-99.52436,"zip":"67556","miles_from_dt":10.25},{"city":"Pfeifer","state_name":"Kansas","lat":38.71752,"lng":-99.14806,"zip":"67660","miles_from_dt":13.3},{"city":"Rush Center","state_name":"Kansas","lat":38.40711,"lng":-99.25681,"zip":"67575","miles_from_dt":13.52},{"city":"Alexander","state_name":"Kansas","lat":38.43892,"lng":-99.53846,"zip":"67513","miles_from_dt":15.28},{"city":"Otis","state_name":"Kansas","lat":38.60428,"lng":-99.04439,"zip":"67565","miles_from_dt":15.79},{"city":"Nekoma","state_name":"Kansas","lat":38.37645,"lng":-99.44966,"zip":"67559","miles_from_dt":16.16},{"city":"Albert","state_name":"Kansas","lat":38.43365,"lng":-99.05058,"zip":"67511","miles_from_dt":18.97},{"city":"Hays","state_name":"Kansas","lat":38.873,"lng":-99.34032,"zip":"67601","miles_from_dt":19.32},{"city":"Brownell","state_name":"Kansas","lat":38.62575,"lng":-99.72253,"zip":"67521","miles_from_dt":21.05},{"city":"Victoria","state_name":"Kansas","lat":38.87559,"lng":-99.14432,"zip":"67671","miles_from_dt":22.07},{"city":"Olmitz","state_name":"Kansas","lat":38.52855,"lng":-98.92845,"zip":"67564","miles_from_dt":22.5},{"city":"Bazine","state_name":"Kansas","lat":38.38768,"lng":-99.68486,"zip":"67516","miles_from_dt":23.64},{"city":"Catharine","state_name":"Kansas","lat":38.92224,"lng":-99.21343,"zip":"67627","miles_from_dt":23.65},{"city":"Walker","state_name":"Kansas","lat":38.87446,"lng":-99.08197,"zip":"67674","miles_from_dt":23.77},{"city":"Rozel","state_name":"Kansas","lat":38.22045,"lng":-99.39185,"zip":"67574","miles_from_dt":25.88},{"city":"Gorham","state_name":"Kansas","lat":38.89853,"lng":-99.04925,"zip":"67640","miles_from_dt":26.15},{"city":"Ellis","state_name":"Kansas","lat":38.94008,"lng":-99.59197,"zip":"67637","miles_from_dt":27.65},{"city":"Burdett","state_name":"Kansas","lat":38.19687,"lng":-99.55256,"zip":"67523","miles_from_dt":29.75},{"city":"Pawnee Rock","state_name":"Kansas","lat":38.26632,"lng":-98.97241,"zip":"67567","miles_from_dt":29.94}],"targetCityZipCode":"67548","targetCityState":"Kansas"},"__N_SSG":true}