{"pageProps":{"stateName":"Kansas","cityName":"minneapolis","nearbyCities":[{"city":"Delphos","state_name":"Kansas","lat":39.28071,"lng":-97.72454,"zip":"67436","miles_from_dt":9.37},{"city":"Bennington","state_name":"Kansas","lat":39.03127,"lng":-97.59849,"zip":"67422","miles_from_dt":9.61},{"city":"Tescott","state_name":"Kansas","lat":38.99603,"lng":-97.83617,"zip":"67484","miles_from_dt":12.73},{"city":"Glasco","state_name":"Kansas","lat":39.37789,"lng":-97.8172,"zip":"67445","miles_from_dt":17.18},{"city":"Miltonvale","state_name":"Kansas","lat":39.32787,"lng":-97.47905,"zip":"67466","miles_from_dt":17.21},{"city":"Barnard","state_name":"Kansas","lat":39.18692,"lng":-98.05214,"zip":"67418","miles_from_dt":19.17},{"city":"Beverly","state_name":"Kansas","lat":38.97018,"lng":-97.98058,"zip":"67423","miles_from_dt":19.42},{"city":"New Cambria","state_name":"Kansas","lat":38.91077,"lng":-97.49513,"zip":"67470","miles_from_dt":19.61},{"city":"Solomon","state_name":"Kansas","lat":38.97073,"lng":-97.40282,"zip":"67480","miles_from_dt":20.02},{"city":"Longford","state_name":"Kansas","lat":39.16595,"lng":-97.30441,"zip":"67458","miles_from_dt":21.24},{"city":"Simpson","state_name":"Kansas","lat":39.38572,"lng":-97.94988,"zip":"67478","miles_from_dt":21.3},{"city":"Aurora","state_name":"Kansas","lat":39.43382,"lng":-97.55015,"zip":"67417","miles_from_dt":21.38},{"city":"Salina","state_name":"Kansas","lat":38.83554,"lng":-97.64621,"zip":"67401","miles_from_dt":21.63},{"city":"Salina","state_name":"Kansas","lat":38.83888,"lng":-97.60819,"zip":"67402","miles_from_dt":21.77},{"city":"Talmage","state_name":"Kansas","lat":39.02686,"lng":-97.25976,"zip":"67482","miles_from_dt":25.02},{"city":"Lincoln","state_name":"Kansas","lat":39.02765,"lng":-98.16478,"zip":"67455","miles_from_dt":26.34},{"city":"Beloit","state_name":"Kansas","lat":39.40035,"lng":-98.08527,"zip":"67420","miles_from_dt":27.12},{"city":"Brookville","state_name":"Kansas","lat":38.77991,"lng":-97.92492,"zip":"67425","miles_from_dt":28.05},{"city":"Concordia","state_name":"Kansas","lat":39.55618,"lng":-97.64317,"zip":"66901","miles_from_dt":28.43},{"city":"Abilene","state_name":"Kansas","lat":38.95632,"lng":-97.22104,"zip":"67410","miles_from_dt":28.86}],"targetCityZipCode":"67467","targetCityState":"Kansas"},"__N_SSG":true}