{"pageProps":{"stateName":"Kansas","cityName":"raymond","nearbyCities":[{"city":"Alden","state_name":"Kansas","lat":38.23289,"lng":-98.32645,"zip":"67512","miles_from_dt":5.23},{"city":"Ellinwood","state_name":"Kansas","lat":38.29764,"lng":-98.54711,"zip":"67526","miles_from_dt":7.58},{"city":"Chase","state_name":"Kansas","lat":38.37797,"lng":-98.37398,"zip":"67524","miles_from_dt":8.3},{"city":"Sterling","state_name":"Kansas","lat":38.18615,"lng":-98.20861,"zip":"67579","miles_from_dt":12.4},{"city":"Hudson","state_name":"Kansas","lat":38.17644,"lng":-98.6417,"zip":"67545","miles_from_dt":13.67},{"city":"Lyons","state_name":"Kansas","lat":38.37489,"lng":-98.1858,"zip":"67554","miles_from_dt":14.69},{"city":"Bushton","state_name":"Kansas","lat":38.50364,"lng":-98.39977,"zip":"67427","miles_from_dt":16.68},{"city":"Plevna","state_name":"Kansas","lat":38.01729,"lng":-98.30888,"zip":"67568","miles_from_dt":17.85},{"city":"Sylvia","state_name":"Kansas","lat":37.99316,"lng":-98.41068,"zip":"67581","miles_from_dt":18.55},{"city":"Nickerson","state_name":"Kansas","lat":38.10427,"lng":-98.09921,"zip":"67561","miles_from_dt":20.36},{"city":"Abbyville","state_name":"Kansas","lat":37.99839,"lng":-98.21127,"zip":"67510","miles_from_dt":21.32},{"city":"Great Bend","state_name":"Kansas","lat":38.35149,"lng":-98.79678,"zip":"67530","miles_from_dt":21.64},{"city":"Stafford","state_name":"Kansas","lat":37.96922,"lng":-98.59105,"zip":"67578","miles_from_dt":22.36},{"city":"Claflin","state_name":"Kansas","lat":38.57205,"lng":-98.57111,"zip":"67525","miles_from_dt":22.99},{"city":"Lorraine","state_name":"Kansas","lat":38.60781,"lng":-98.33913,"zip":"67459","miles_from_dt":24.2},{"city":"Little River","state_name":"Kansas","lat":38.38746,"lng":-97.99143,"zip":"67457","miles_from_dt":24.59},{"city":"Geneseo","state_name":"Kansas","lat":38.54759,"lng":-98.12702,"zip":"67444","miles_from_dt":25.14},{"city":"Holyrood","state_name":"Kansas","lat":38.62746,"lng":-98.45788,"zip":"67450","miles_from_dt":25.3},{"city":"St John","state_name":"Kansas","lat":38.03228,"lng":-98.79343,"zip":"67576","miles_from_dt":26},{"city":"Partridge","state_name":"Kansas","lat":37.944,"lng":-98.09938,"zip":"67566","miles_from_dt":27.89},{"city":"Hutchinson","state_name":"Kansas","lat":38.12146,"lng":-97.92673,"zip":"67502","miles_from_dt":28.3},{"city":"Hoisington","state_name":"Kansas","lat":38.57584,"lng":-98.75456,"zip":"67544","miles_from_dt":28.41},{"city":"Windom","state_name":"Kansas","lat":38.38837,"lng":-97.90051,"zip":"67491","miles_from_dt":29.29}],"targetCityZipCode":"67573","targetCityState":"Kansas"},"__N_SSG":true}