{"pageProps":{"stateName":"Kansas","cityName":"sawyer","nearbyCities":[{"city":"Isabel","state_name":"Kansas","lat":37.48295,"lng":-98.52989,"zip":"67065","miles_from_dt":8.38},{"city":"Pratt","state_name":"Kansas","lat":37.63644,"lng":-98.77236,"zip":"67124","miles_from_dt":11.57},{"city":"Nashville","state_name":"Kansas","lat":37.44915,"lng":-98.41941,"zip":"67112","miles_from_dt":14.66},{"city":"Medicine Lodge","state_name":"Kansas","lat":37.27286,"lng":-98.65223,"zip":"67104","miles_from_dt":14.71},{"city":"Coats","state_name":"Kansas","lat":37.47226,"lng":-98.96561,"zip":"67028","miles_from_dt":15.59},{"city":"Sun City","state_name":"Kansas","lat":37.33284,"lng":-98.94434,"zip":"67143","miles_from_dt":17.82},{"city":"Cunningham","state_name":"Kansas","lat":37.64845,"lng":-98.39338,"zip":"67035","miles_from_dt":19.47},{"city":"Iuka","state_name":"Kansas","lat":37.77374,"lng":-98.75798,"zip":"67066","miles_from_dt":20.36},{"city":"Zenda","state_name":"Kansas","lat":37.42053,"lng":-98.30948,"zip":"67159","miles_from_dt":20.98},{"city":"Sharon","state_name":"Kansas","lat":37.25996,"lng":-98.41858,"zip":"67138","miles_from_dt":21.24},{"city":"Lake City","state_name":"Kansas","lat":37.21423,"lng":-98.88522,"zip":"67071","miles_from_dt":21.74},{"city":"Byers","state_name":"Kansas","lat":37.77615,"lng":-98.91045,"zip":"67021","miles_from_dt":23.67},{"city":"Turon","state_name":"Kansas","lat":37.79997,"lng":-98.4714,"zip":"67583","miles_from_dt":24.63},{"city":"Haviland","state_name":"Kansas","lat":37.65102,"lng":-99.10046,"zip":"67059","miles_from_dt":25.66},{"city":"Wilmore","state_name":"Kansas","lat":37.28171,"lng":-99.13233,"zip":"67155","miles_from_dt":28.44},{"city":"Attica","state_name":"Kansas","lat":37.22153,"lng":-98.26369,"zip":"67009","miles_from_dt":29.34},{"city":"Kiowa","state_name":"Kansas","lat":37.0696,"lng":-98.53204,"zip":"67070","miles_from_dt":29.8},{"city":"Hardtner","state_name":"Kansas","lat":37.05954,"lng":-98.77864,"zip":"67057","miles_from_dt":29.8}],"targetCityZipCode":"67134","targetCityState":"Kansas"},"__N_SSG":true}