{"pageProps":{"stateName":"Kansas","cityName":"vassar","nearbyCities":[{"city":"Lyndon","state_name":"Kansas","lat":38.60841,"lng":-95.67236,"zip":"66451","miles_from_dt":4.53},{"city":"Quenemo","state_name":"Kansas","lat":38.59711,"lng":-95.5344,"zip":"66528","miles_from_dt":4.71},{"city":"Pomona","state_name":"Kansas","lat":38.62811,"lng":-95.43917,"zip":"66076","miles_from_dt":8.77},{"city":"Scranton","state_name":"Kansas","lat":38.75118,"lng":-95.72255,"zip":"66537","miles_from_dt":10.03},{"city":"Melvern","state_name":"Kansas","lat":38.49297,"lng":-95.6104,"zip":"66510","miles_from_dt":10.28},{"city":"Overbrook","state_name":"Kansas","lat":38.78948,"lng":-95.50695,"zip":"66524","miles_from_dt":11.37},{"city":"Osage City","state_name":"Kansas","lat":38.60993,"lng":-95.83791,"zip":"66523","miles_from_dt":13.04},{"city":"Carbondale","state_name":"Kansas","lat":38.82631,"lng":-95.68563,"zip":"66414","miles_from_dt":13.54},{"city":"Williamsburg","state_name":"Kansas","lat":38.44631,"lng":-95.43015,"zip":"66095","miles_from_dt":16.33},{"city":"Ottawa","state_name":"Kansas","lat":38.61877,"lng":-95.27566,"zip":"66067","miles_from_dt":17.64},{"city":"Burlingame","state_name":"Kansas","lat":38.77375,"lng":-95.88305,"zip":"66413","miles_from_dt":17.79},{"city":"Wakarusa","state_name":"Kansas","lat":38.8941,"lng":-95.72589,"zip":"66546","miles_from_dt":18.68},{"city":"Waverly","state_name":"Kansas","lat":38.35941,"lng":-95.61815,"zip":"66871","miles_from_dt":19.5},{"city":"Berryton","state_name":"Kansas","lat":38.92508,"lng":-95.55589,"zip":"66409","miles_from_dt":19.69},{"city":"Lebo","state_name":"Kansas","lat":38.39853,"lng":-95.81838,"zip":"66856","miles_from_dt":20.52},{"city":"Princeton","state_name":"Kansas","lat":38.48321,"lng":-95.2621,"zip":"66078","miles_from_dt":21.33},{"city":"Lawrence","state_name":"Kansas","lat":38.88484,"lng":-95.35096,"zip":"66047","miles_from_dt":21.51},{"city":"Topeka","state_name":"Kansas","lat":38.94661,"lng":-95.68993,"zip":"66619","miles_from_dt":21.58},{"city":"Reading","state_name":"Kansas","lat":38.54284,"lng":-95.98387,"zip":"66868","miles_from_dt":21.86},{"city":"Topeka","state_name":"Kansas","lat":38.94662,"lng":-95.71574,"zip":"66620","miles_from_dt":21.93},{"city":"Baldwin City","state_name":"Kansas","lat":38.79433,"lng":-95.23936,"zip":"66006","miles_from_dt":22.16},{"city":"Auburn","state_name":"Kansas","lat":38.91782,"lng":-95.84926,"zip":"66402","miles_from_dt":23.31},{"city":"Topeka","state_name":"Kansas","lat":38.98193,"lng":-95.66974,"zip":"66609","miles_from_dt":23.76},{"city":"Harveyville","state_name":"Kansas","lat":38.80851,"lng":-96.00241,"zip":"66431","miles_from_dt":24.59},{"city":"Richmond","state_name":"Kansas","lat":38.4053,"lng":-95.25646,"zip":"66080","miles_from_dt":24.76},{"city":"Topeka","state_name":"Kansas","lat":39.01167,"lng":-95.63283,"zip":"66605","miles_from_dt":25.58},{"city":"Tecumseh","state_name":"Kansas","lat":39.01273,"lng":-95.54442,"zip":"66542","miles_from_dt":25.77},{"city":"Topeka","state_name":"Kansas","lat":39.01635,"lng":-95.67207,"zip":"66624","miles_from_dt":26.13},{"city":"Topeka","state_name":"Kansas","lat":39.01526,"lng":-95.69601,"zip":"66611","miles_from_dt":26.28},{"city":"Topeka","state_name":"Kansas","lat":38.97277,"lng":-95.84718,"zip":"66610","miles_from_dt":26.44},{"city":"Admire","state_name":"Kansas","lat":38.59733,"lng":-96.08755,"zip":"66830","miles_from_dt":26.55},{"city":"Lawrence","state_name":"Kansas","lat":38.97773,"lng":-95.34729,"zip":"66049","miles_from_dt":26.9},{"city":"Wellsville","state_name":"Kansas","lat":38.69305,"lng":-95.10548,"zip":"66092","miles_from_dt":26.99},{"city":"Rantoul","state_name":"Kansas","lat":38.53828,"lng":-95.11371,"zip":"66079","miles_from_dt":27.29},{"city":"Topeka","state_name":"Kansas","lat":39.02631,"lng":-95.72231,"zip":"66622","miles_from_dt":27.33},{"city":"Lecompton","state_name":"Kansas","lat":39.01961,"lng":-95.43697,"zip":"66050","miles_from_dt":27.51},{"city":"Topeka","state_name":"Kansas","lat":39.03313,"lng":-95.70237,"zip":"66621","miles_from_dt":27.55},{"city":"Topeka","state_name":"Kansas","lat":39.0422,"lng":-95.63502,"zip":"66607","miles_from_dt":27.69},{"city":"Topeka","state_name":"Kansas","lat":39.04026,"lng":-95.68037,"zip":"66612","miles_from_dt":27.83},{"city":"Lawrence","state_name":"Kansas","lat":38.909,"lng":-95.21061,"zip":"66046","miles_from_dt":27.97},{"city":"Topeka","state_name":"Kansas","lat":39.03883,"lng":-95.72523,"zip":"66647","miles_from_dt":28.21},{"city":"Topeka","state_name":"Kansas","lat":39.03875,"lng":-95.72623,"zip":"66604","miles_from_dt":28.22},{"city":"Lawrence","state_name":"Kansas","lat":38.95408,"lng":-95.26078,"zip":"66045","miles_from_dt":28.28},{"city":"Topeka","state_name":"Kansas","lat":39.04725,"lng":-95.68282,"zip":"66626","miles_from_dt":28.32},{"city":"Neosho Rapids","state_name":"Kansas","lat":38.36132,"lng":-95.98207,"zip":"66864","miles_from_dt":28.33},{"city":"Topeka","state_name":"Kansas","lat":39.04781,"lng":-95.68325,"zip":"66625","miles_from_dt":28.37},{"city":"Topeka","state_name":"Kansas","lat":39.04806,"lng":-95.68262,"zip":"66629","miles_from_dt":28.38},{"city":"Topeka","state_name":"Kansas","lat":39.04185,"lng":-95.72735,"zip":"66667","miles_from_dt":28.44},{"city":"Topeka","state_name":"Kansas","lat":39.0535,"lng":-95.67307,"zip":"66699","miles_from_dt":28.67},{"city":"Topeka","state_name":"Kansas","lat":39.01362,"lng":-95.84115,"zip":"66614","miles_from_dt":28.76},{"city":"Topeka","state_name":"Kansas","lat":39.05585,"lng":-95.67322,"zip":"66683","miles_from_dt":28.83},{"city":"Topeka","state_name":"Kansas","lat":39.05634,"lng":-95.67566,"zip":"66636","miles_from_dt":28.89},{"city":"Topeka","state_name":"Kansas","lat":39.01324,"lng":-95.84812,"zip":"66630","miles_from_dt":28.9},{"city":"Dover","state_name":"Kansas","lat":38.97046,"lng":-95.93279,"zip":"66420","miles_from_dt":28.92},{"city":"Topeka","state_name":"Kansas","lat":39.05711,"lng":-95.67655,"zip":"66601","miles_from_dt":28.95},{"city":"Topeka","state_name":"Kansas","lat":39.05742,"lng":-95.67539,"zip":"66603","miles_from_dt":28.96},{"city":"Topeka","state_name":"Kansas","lat":39.06845,"lng":-95.62388,"zip":"66616","miles_from_dt":29.46},{"city":"Topeka","state_name":"Kansas","lat":39.06888,"lng":-95.66674,"zip":"66675","miles_from_dt":29.68},{"city":"Topeka","state_name":"Kansas","lat":39.06191,"lng":-95.72296,"zip":"66606","miles_from_dt":29.73}],"targetCityZipCode":"66543","targetCityState":"Kansas"},"__N_SSG":true}