{"pageProps":{"stateName":"Mississippi","cityName":"sherman","nearbyCities":[{"city":"Belden","state_name":"Mississippi","lat":34.30164,"lng":-88.84655,"zip":"38826","miles_from_dt":3.81},{"city":"Blue Springs","state_name":"Mississippi","lat":34.42365,"lng":-88.86789,"zip":"38828","miles_from_dt":4.98},{"city":"Saltillo","state_name":"Mississippi","lat":34.36644,"lng":-88.68187,"zip":"38866","miles_from_dt":8.86},{"city":"Tupelo","state_name":"Mississippi","lat":34.27134,"lng":-88.70311,"zip":"38803","miles_from_dt":9.61},{"city":"Tupelo","state_name":"Mississippi","lat":34.27274,"lng":-88.70048,"zip":"38802","miles_from_dt":9.67},{"city":"Tupelo","state_name":"Mississippi","lat":34.22256,"lng":-88.7762,"zip":"38801","miles_from_dt":9.84},{"city":"Guntown","state_name":"Mississippi","lat":34.45442,"lng":-88.69319,"zip":"38849","miles_from_dt":10.61},{"city":"Ecru","state_name":"Mississippi","lat":34.34943,"lng":-89.02237,"zip":"38841","miles_from_dt":10.64},{"city":"Tupelo","state_name":"Mississippi","lat":34.28094,"lng":-88.67246,"zip":"38804","miles_from_dt":10.71},{"city":"New Albany","state_name":"Mississippi","lat":34.48545,"lng":-88.99652,"zip":"38652","miles_from_dt":12.77},{"city":"Verona","state_name":"Mississippi","lat":34.19519,"lng":-88.71209,"zip":"38879","miles_from_dt":13.18},{"city":"Algoma","state_name":"Mississippi","lat":34.17894,"lng":-88.96575,"zip":"38820","miles_from_dt":14.29},{"city":"Pontotoc","state_name":"Mississippi","lat":34.2167,"lng":-89.02738,"zip":"38863","miles_from_dt":14.56},{"city":"Mooreville","state_name":"Mississippi","lat":34.28004,"lng":-88.57808,"zip":"38857","miles_from_dt":15.68},{"city":"Baldwyn","state_name":"Mississippi","lat":34.52303,"lng":-88.64334,"zip":"38824","miles_from_dt":15.93},{"city":"Wheeler","state_name":"Mississippi","lat":34.53513,"lng":-88.63686,"zip":"38880","miles_from_dt":16.79},{"city":"Shannon","state_name":"Mississippi","lat":34.12168,"lng":-88.74692,"zip":"38868","miles_from_dt":16.96},{"city":"Plantersville","state_name":"Mississippi","lat":34.16871,"lng":-88.62048,"zip":"38862","miles_from_dt":17.88},{"city":"Dumas","state_name":"Mississippi","lat":34.61866,"lng":-88.8334,"zip":"38625","miles_from_dt":18.09},{"city":"Toccopola","state_name":"Mississippi","lat":34.30486,"lng":-89.1585,"zip":"38874","miles_from_dt":18.76},{"city":"Mantachie","state_name":"Mississippi","lat":34.32646,"lng":-88.48659,"zip":"38855","miles_from_dt":20.1},{"city":"Myrtle","state_name":"Mississippi","lat":34.52776,"lng":-89.14165,"zip":"38650","miles_from_dt":21.06},{"city":"Thaxton","state_name":"Mississippi","lat":34.33582,"lng":-89.2055,"zip":"38871","miles_from_dt":21.15},{"city":"Blue Mountain","state_name":"Mississippi","lat":34.65357,"lng":-89.02637,"zip":"38610","miles_from_dt":23.18},{"city":"Marietta","state_name":"Mississippi","lat":34.46835,"lng":-88.44553,"zip":"38856","miles_from_dt":23.62},{"city":"Etta","state_name":"Mississippi","lat":34.44503,"lng":-89.24563,"zip":"38627","miles_from_dt":24.17},{"city":"Nettleton","state_name":"Mississippi","lat":34.10145,"lng":-88.53726,"zip":"38858","miles_from_dt":24.53},{"city":"Houlka","state_name":"Mississippi","lat":34.04792,"lng":-89.06705,"zip":"38850","miles_from_dt":25.03},{"city":"Randolph","state_name":"Mississippi","lat":34.14325,"lng":-89.20167,"zip":"38864","miles_from_dt":25.55},{"city":"Okolona","state_name":"Mississippi","lat":33.97649,"lng":-88.75879,"zip":"38860","miles_from_dt":26.55},{"city":"Booneville","state_name":"Mississippi","lat":34.65229,"lng":-88.53639,"zip":"38829","miles_from_dt":26.63},{"city":"Ripley","state_name":"Mississippi","lat":34.74111,"lng":-88.89718,"zip":"38663","miles_from_dt":26.75},{"city":"Fulton","state_name":"Mississippi","lat":34.26753,"lng":-88.37437,"zip":"38843","miles_from_dt":27.12},{"city":"Hickory Flat","state_name":"Mississippi","lat":34.64206,"lng":-89.19671,"zip":"38633","miles_from_dt":28.48},{"city":"New Site","state_name":"Mississippi","lat":34.52865,"lng":-88.37548,"zip":"38859","miles_from_dt":28.88}],"targetCityZipCode":"38869","targetCityState":"Mississippi"},"__N_SSG":true}