{"pageProps":{"stateName":"Mississippi","cityName":"sunflower","nearbyCities":[{"city":"Doddsville","state_name":"Mississippi","lat":33.64389,"lng":-90.54173,"zip":"38736","miles_from_dt":6.9},{"city":"Moorhead","state_name":"Mississippi","lat":33.42507,"lng":-90.47658,"zip":"38761","miles_from_dt":8.65},{"city":"Itta Bena","state_name":"Mississippi","lat":33.48655,"lng":-90.35909,"zip":"38941","miles_from_dt":10.05},{"city":"Indianola","state_name":"Mississippi","lat":33.45083,"lng":-90.655,"zip":"38749","miles_from_dt":10.25},{"city":"Indianola","state_name":"Mississippi","lat":33.45326,"lng":-90.67469,"zip":"38751","miles_from_dt":11.05},{"city":"Schlater","state_name":"Mississippi","lat":33.63041,"lng":-90.33711,"zip":"38952","miles_from_dt":11.97},{"city":"Swiftown","state_name":"Mississippi","lat":33.40762,"lng":-90.37472,"zip":"38959","miles_from_dt":12.62},{"city":"Ruleville","state_name":"Mississippi","lat":33.73914,"lng":-90.5243,"zip":"38771","miles_from_dt":13.34},{"city":"Inverness","state_name":"Mississippi","lat":33.34845,"lng":-90.58583,"zip":"38753","miles_from_dt":14.14},{"city":"Morgan City","state_name":"Mississippi","lat":33.37701,"lng":-90.35591,"zip":"38946","miles_from_dt":14.94},{"city":"Shaw","state_name":"Mississippi","lat":33.60455,"lng":-90.77388,"zip":"38773","miles_from_dt":15.29},{"city":"Minter City","state_name":"Mississippi","lat":33.76106,"lng":-90.34242,"zip":"38944","miles_from_dt":17.98},{"city":"Cleveland","state_name":"Mississippi","lat":33.74463,"lng":-90.73504,"zip":"38733","miles_from_dt":18.55},{"city":"Cleveland","state_name":"Mississippi","lat":33.75556,"lng":-90.72558,"zip":"38732","miles_from_dt":18.76},{"city":"Boyle","state_name":"Mississippi","lat":33.6883,"lng":-90.79932,"zip":"38730","miles_from_dt":18.95},{"city":"Greenwood","state_name":"Mississippi","lat":33.52027,"lng":-90.18058,"zip":"38945","miles_from_dt":19.57},{"city":"Greenwood","state_name":"Mississippi","lat":33.52226,"lng":-90.17898,"zip":"38935","miles_from_dt":19.65},{"city":"Sidon","state_name":"Mississippi","lat":33.41301,"lng":-90.21536,"zip":"38954","miles_from_dt":19.74},{"city":"Isola","state_name":"Mississippi","lat":33.24816,"lng":-90.62066,"zip":"38754","miles_from_dt":21.34},{"city":"Drew","state_name":"Mississippi","lat":33.85683,"lng":-90.4928,"zip":"38737","miles_from_dt":21.5},{"city":"Greenwood","state_name":"Mississippi","lat":33.52845,"lng":-90.14245,"zip":"38930","miles_from_dt":21.73},{"city":"Leland","state_name":"Mississippi","lat":33.39326,"lng":-90.85827,"zip":"38756","miles_from_dt":22.27},{"city":"Merigold","state_name":"Mississippi","lat":33.82495,"lng":-90.73501,"zip":"38759","miles_from_dt":22.94},{"city":"Philipp","state_name":"Mississippi","lat":33.74281,"lng":-90.19758,"zip":"38950","miles_from_dt":22.95},{"city":"Belzoni","state_name":"Mississippi","lat":33.20179,"lng":-90.47023,"zip":"39038","miles_from_dt":23.86},{"city":"Cruger","state_name":"Mississippi","lat":33.29342,"lng":-90.22392,"zip":"38924","miles_from_dt":24.32},{"city":"Stoneville","state_name":"Mississippi","lat":33.42466,"lng":-90.92752,"zip":"38776","miles_from_dt":25.06},{"city":"Glendora","state_name":"Mississippi","lat":33.85405,"lng":-90.28731,"zip":"38928","miles_from_dt":25.08},{"city":"Mound Bayou","state_name":"Mississippi","lat":33.8885,"lng":-90.72681,"zip":"38762","miles_from_dt":26.51},{"city":"Parchman","state_name":"Mississippi","lat":33.93049,"lng":-90.53653,"zip":"38738","miles_from_dt":26.54},{"city":"Pace","state_name":"Mississippi","lat":33.79878,"lng":-90.87965,"zip":"38764","miles_from_dt":27.16},{"city":"Metcalfe","state_name":"Mississippi","lat":33.4535,"lng":-90.99394,"zip":"38760","miles_from_dt":28.19},{"city":"Webb","state_name":"Mississippi","lat":33.9202,"lng":-90.31828,"zip":"38966","miles_from_dt":28.27},{"city":"Winstonville","state_name":"Mississippi","lat":33.90876,"lng":-90.75684,"zip":"38781","miles_from_dt":28.55},{"city":"Arcola","state_name":"Mississippi","lat":33.26116,"lng":-90.88304,"zip":"38722","miles_from_dt":28.79},{"city":"Rome","state_name":"Mississippi","lat":33.96576,"lng":-90.48036,"zip":"38768","miles_from_dt":29.04},{"city":"Tippo","state_name":"Mississippi","lat":33.87201,"lng":-90.18465,"zip":"38962","miles_from_dt":29.59}],"targetCityZipCode":"38778","targetCityState":"Mississippi"},"__N_SSG":true}