{"pageProps":{"stateName":"Pennsylvania","cityName":"bally","nearbyCities":[{"city":"Barto","state_name":"Pennsylvania","lat":40.40699,"lng":-75.58965,"zip":"19504","miles_from_dt":0.75},{"city":"Palm","state_name":"Pennsylvania","lat":40.4317,"lng":-75.53884,"zip":"18070","miles_from_dt":2.53},{"city":"Hereford","state_name":"Pennsylvania","lat":40.44798,"lng":-75.54911,"zip":"18056","miles_from_dt":3.08},{"city":"Bechtelsville","state_name":"Pennsylvania","lat":40.3795,"lng":-75.62331,"zip":"19505","miles_from_dt":3.2},{"city":"East Greenville","state_name":"Pennsylvania","lat":40.41742,"lng":-75.51306,"zip":"18041","miles_from_dt":3.36},{"city":"Sassamansville","state_name":"Pennsylvania","lat":40.34036,"lng":-75.58189,"zip":"19472","miles_from_dt":4.68},{"city":"Zionsville","state_name":"Pennsylvania","lat":40.46844,"lng":-75.51372,"zip":"18092","miles_from_dt":5.29},{"city":"New Berlinville","state_name":"Pennsylvania","lat":40.3411,"lng":-75.62977,"zip":"19545","miles_from_dt":5.44},{"city":"Pennsburg","state_name":"Pennsylvania","lat":40.38378,"lng":-75.47702,"zip":"18073","miles_from_dt":5.46},{"city":"Red Hill","state_name":"Pennsylvania","lat":40.37382,"lng":-75.48154,"zip":"18076","miles_from_dt":5.49},{"city":"Frederick","state_name":"Pennsylvania","lat":40.32788,"lng":-75.56518,"zip":"19435","miles_from_dt":5.56},{"city":"Alburtis","state_name":"Pennsylvania","lat":40.47288,"lng":-75.64395,"zip":"18011","miles_from_dt":5.75},{"city":"Old Zionsville","state_name":"Pennsylvania","lat":40.48776,"lng":-75.52217,"zip":"18068","miles_from_dt":6.17},{"city":"Macungie","state_name":"Pennsylvania","lat":40.5035,"lng":-75.57886,"zip":"18062","miles_from_dt":6.59},{"city":"Boyertown","state_name":"Pennsylvania","lat":40.35,"lng":-75.67937,"zip":"19512","miles_from_dt":6.79},{"city":"Perkiomenville","state_name":"Pennsylvania","lat":40.31971,"lng":-75.51424,"zip":"18074","miles_from_dt":6.9},{"city":"Gilbertsville","state_name":"Pennsylvania","lat":40.30784,"lng":-75.58591,"zip":"19525","miles_from_dt":6.94},{"city":"Spinnerstown","state_name":"Pennsylvania","lat":40.43875,"lng":-75.4362,"zip":"18968","miles_from_dt":7.64},{"city":"Sumneytown","state_name":"Pennsylvania","lat":40.33258,"lng":-75.45839,"zip":"18084","miles_from_dt":8.08},{"city":"Green Lane","state_name":"Pennsylvania","lat":40.35321,"lng":-75.43824,"zip":"18054","miles_from_dt":8.17},{"city":"Mertztown","state_name":"Pennsylvania","lat":40.49071,"lng":-75.68823,"zip":"19539","miles_from_dt":8.24},{"city":"Emmaus","state_name":"Pennsylvania","lat":40.51912,"lng":-75.50018,"zip":"18049","miles_from_dt":8.63},{"city":"Zieglerville","state_name":"Pennsylvania","lat":40.28817,"lng":-75.50623,"zip":"19492","miles_from_dt":9.05},{"city":"Topton","state_name":"Pennsylvania","lat":40.50316,"lng":-75.70135,"zip":"19562","miles_from_dt":9.33},{"city":"Woxall","state_name":"Pennsylvania","lat":40.31151,"lng":-75.44922,"zip":"18979","miles_from_dt":9.42},{"city":"Milford Square","state_name":"Pennsylvania","lat":40.43444,"lng":-75.39714,"zip":"18935","miles_from_dt":9.58},{"city":"Emmaus","state_name":"Pennsylvania","lat":40.53396,"lng":-75.49794,"zip":"18099","miles_from_dt":9.6},{"city":"East Texas","state_name":"Pennsylvania","lat":40.54803,"lng":-75.56029,"zip":"18046","miles_from_dt":9.69},{"city":"Limeport","state_name":"Pennsylvania","lat":40.50754,"lng":-75.44338,"zip":"18060","miles_from_dt":9.78},{"city":"Salford","state_name":"Pennsylvania","lat":40.29607,"lng":-75.45339,"zip":"18957","miles_from_dt":10.06},{"city":"Trexlertown","state_name":"Pennsylvania","lat":40.55398,"lng":-75.59588,"zip":"18087","miles_from_dt":10.12},{"city":"Emmaus","state_name":"Pennsylvania","lat":40.53845,"lng":-75.48389,"zip":"18098","miles_from_dt":10.21},{"city":"Oley","state_name":"Pennsylvania","lat":40.38315,"lng":-75.76644,"zip":"19547","miles_from_dt":10.22},{"city":"Trumbauersville","state_name":"Pennsylvania","lat":40.41212,"lng":-75.38129,"zip":"18970","miles_from_dt":10.25},{"city":"Bowers","state_name":"Pennsylvania","lat":40.48473,"lng":-75.74381,"zip":"19511","miles_from_dt":10.33},{"city":"Pottstown","state_name":"Pennsylvania","lat":40.25882,"lng":-75.616,"zip":"19464","miles_from_dt":10.52},{"city":"Pine Forge","state_name":"Pennsylvania","lat":40.28274,"lng":-75.69204,"zip":"19548","miles_from_dt":10.61},{"city":"Spring Mount","state_name":"Pennsylvania","lat":40.28011,"lng":-75.46001,"zip":"19478","miles_from_dt":10.73},{"city":"Earlville","state_name":"Pennsylvania","lat":40.315,"lng":-75.73839,"zip":"19519","miles_from_dt":10.73},{"city":"Tylersport","state_name":"Pennsylvania","lat":40.35009,"lng":-75.38443,"zip":"18971","miles_from_dt":10.85},{"city":"Breinigsville","state_name":"Pennsylvania","lat":40.554,"lng":-75.65361,"zip":"18031","miles_from_dt":10.88},{"city":"Salfordville","state_name":"Pennsylvania","lat":40.29393,"lng":-75.43295,"zip":"18958","miles_from_dt":10.89},{"city":"Lyon Station","state_name":"Pennsylvania","lat":40.48069,"lng":-75.75891,"zip":"19536","miles_from_dt":10.89},{"city":"Zionhill","state_name":"Pennsylvania","lat":40.48373,"lng":-75.39386,"zip":"18981","miles_from_dt":10.91},{"city":"Allentown","state_name":"Pennsylvania","lat":40.57472,"lng":-75.59542,"zip":"18106","miles_from_dt":11.55},{"city":"Maxatawny","state_name":"Pennsylvania","lat":40.54655,"lng":-75.70023,"zip":"19538","miles_from_dt":11.6},{"city":"Schwenksville","state_name":"Pennsylvania","lat":40.25842,"lng":-75.47363,"zip":"19473","miles_from_dt":11.64},{"city":"Earlington","state_name":"Pennsylvania","lat":40.32391,"lng":-75.37711,"zip":"18918","miles_from_dt":11.97},{"city":"Coopersburg","state_name":"Pennsylvania","lat":40.50925,"lng":-75.38891,"zip":"18036","miles_from_dt":12.06},{"city":"Telford","state_name":"Pennsylvania","lat":40.32644,"lng":-75.37239,"zip":"18969","miles_from_dt":12.11},{"city":"Allentown","state_name":"Pennsylvania","lat":40.57223,"lng":-75.48138,"zip":"18103","miles_from_dt":12.36},{"city":"Allentown","state_name":"Pennsylvania","lat":40.58427,"lng":-75.62479,"zip":"18195","miles_from_dt":12.43},{"city":"Center Valley","state_name":"Pennsylvania","lat":40.54182,"lng":-75.41654,"zip":"18034","miles_from_dt":12.46},{"city":"Limekiln","state_name":"Pennsylvania","lat":40.3394,"lng":-75.79537,"zip":"19535","miles_from_dt":12.53},{"city":"Quakertown","state_name":"Pennsylvania","lat":40.45294,"lng":-75.33833,"zip":"18951","miles_from_dt":12.88},{"city":"Lehigh Valley","state_name":"Pennsylvania","lat":40.58033,"lng":-75.47498,"zip":"18001","miles_from_dt":13.01},{"city":"Fleetwood","state_name":"Pennsylvania","lat":40.44948,"lng":-75.81676,"zip":"19522","miles_from_dt":13.04},{"city":"Douglassville","state_name":"Pennsylvania","lat":40.27187,"lng":-75.74981,"zip":"19518","miles_from_dt":13.15},{"city":"Harleysville","state_name":"Pennsylvania","lat":40.2783,"lng":-75.39044,"zip":"19441","miles_from_dt":13.25},{"city":"Harleysville","state_name":"Pennsylvania","lat":40.27018,"lng":-75.39554,"zip":"19438","miles_from_dt":13.45},{"city":"Lederach","state_name":"Pennsylvania","lat":40.26193,"lng":-75.40575,"zip":"19450","miles_from_dt":13.49},{"city":"Sellersville","state_name":"Pennsylvania","lat":40.36376,"lng":-75.32366,"zip":"18960","miles_from_dt":13.63},{"city":"Fogelsville","state_name":"Pennsylvania","lat":40.59409,"lng":-75.66415,"zip":"18051","miles_from_dt":13.66},{"city":"Kutztown","state_name":"Pennsylvania","lat":40.54012,"lng":-75.77675,"zip":"19530","miles_from_dt":13.98},{"city":"Parker Ford","state_name":"Pennsylvania","lat":40.20512,"lng":-75.58758,"zip":"19457","miles_from_dt":14.02},{"city":"Royersford","state_name":"Pennsylvania","lat":40.20776,"lng":-75.53137,"zip":"19468","miles_from_dt":14.02},{"city":"Allentown","state_name":"Pennsylvania","lat":40.61122,"lng":-75.54699,"zip":"18104","miles_from_dt":14.1},{"city":"Allentown","state_name":"Pennsylvania","lat":40.59981,"lng":-75.47029,"zip":"18105","miles_from_dt":14.34},{"city":"Allentown","state_name":"Pennsylvania","lat":40.60301,"lng":-75.4698,"zip":"18101","miles_from_dt":14.56},{"city":"Allentown","state_name":"Pennsylvania","lat":40.60792,"lng":-75.47613,"zip":"18102","miles_from_dt":14.75},{"city":"Richlandtown","state_name":"Pennsylvania","lat":40.48469,"lng":-75.3141,"zip":"18955","miles_from_dt":14.76},{"city":"Souderton","state_name":"Pennsylvania","lat":40.29759,"lng":-75.33327,"zip":"18964","miles_from_dt":14.89},{"city":"Orefield","state_name":"Pennsylvania","lat":40.626,"lng":-75.616,"zip":"18069","miles_from_dt":15.19},{"city":"Pottstown","state_name":"Pennsylvania","lat":40.19981,"lng":-75.6727,"zip":"19465","miles_from_dt":15.26},{"city":"Mainland","state_name":"Pennsylvania","lat":40.26003,"lng":-75.36002,"zip":"19451","miles_from_dt":15.29},{"city":"Creamery","state_name":"Pennsylvania","lat":40.22035,"lng":-75.41455,"zip":"19430","miles_from_dt":15.49},{"city":"Skippack","state_name":"Pennsylvania","lat":40.22427,"lng":-75.40507,"zip":"19474","miles_from_dt":15.55},{"city":"Reading","state_name":"Pennsylvania","lat":40.3357,"lng":-75.85755,"zip":"19606","miles_from_dt":15.7},{"city":"Blandon","state_name":"Pennsylvania","lat":40.44551,"lng":-75.88179,"zip":"19510","miles_from_dt":16.36},{"city":"Spring City","state_name":"Pennsylvania","lat":40.17028,"lng":-75.60042,"zip":"19475","miles_from_dt":16.46},{"city":"Bethlehem","state_name":"Pennsylvania","lat":40.5887,"lng":-75.36786,"zip":"18015","miles_from_dt":16.58},{"city":"Temple","state_name":"Pennsylvania","lat":40.40053,"lng":-75.88993,"zip":"19560","miles_from_dt":16.59},{"city":"Silverdale","state_name":"Pennsylvania","lat":40.34462,"lng":-75.27033,"zip":"18962","miles_from_dt":16.69},{"city":"Collegeville","state_name":"Pennsylvania","lat":40.18972,"lng":-75.43734,"zip":"19426","miles_from_dt":16.74},{"city":"Kulpsville","state_name":"Pennsylvania","lat":40.24412,"lng":-75.33915,"zip":"19443","miles_from_dt":16.85},{"city":"Cedars","state_name":"Pennsylvania","lat":40.212,"lng":-75.37831,"zip":"19423","miles_from_dt":17.07},{"city":"Hatfield","state_name":"Pennsylvania","lat":40.285,"lng":-75.29102,"zip":"19440","miles_from_dt":17.25},{"city":"Allentown","state_name":"Pennsylvania","lat":40.63673,"lng":-75.44043,"zip":"18109","miles_from_dt":17.31},{"city":"Birdsboro","state_name":"Pennsylvania","lat":40.25913,"lng":-75.83984,"zip":"19508","miles_from_dt":17.33},{"city":"Virginville","state_name":"Pennsylvania","lat":40.51926,"lng":-75.87403,"zip":"19564","miles_from_dt":17.5},{"city":"Whitehall","state_name":"Pennsylvania","lat":40.65668,"lng":-75.50443,"zip":"18052","miles_from_dt":17.56},{"city":"Saint Peters","state_name":"Pennsylvania","lat":40.17967,"lng":-75.73164,"zip":"19470","miles_from_dt":17.79},{"city":"Bethlehem","state_name":"Pennsylvania","lat":40.62766,"lng":-75.39538,"zip":"18018","miles_from_dt":17.87},{"city":"Lehigh Valley","state_name":"Pennsylvania","lat":40.64472,"lng":-75.43468,"zip":"18003","miles_from_dt":17.93},{"city":"Reading","state_name":"Pennsylvania","lat":40.35791,"lng":-75.90954,"zip":"19604","miles_from_dt":17.96},{"city":"Perkasie","state_name":"Pennsylvania","lat":40.39252,"lng":-75.23381,"zip":"18944","miles_from_dt":18.06},{"city":"Reading","state_name":"Pennsylvania","lat":40.36608,"lng":-75.91368,"zip":"19612","miles_from_dt":18.08},{"city":"Catasauqua","state_name":"Pennsylvania","lat":40.65694,"lng":-75.46776,"zip":"18032","miles_from_dt":18.08},{"city":"Bethlehem","state_name":"Pennsylvania","lat":40.62236,"lng":-75.37516,"zip":"18016","miles_from_dt":18.16},{"city":"Blooming Glen","state_name":"Pennsylvania","lat":40.35987,"lng":-75.23369,"zip":"18911","miles_from_dt":18.34},{"city":"Schnecksville","state_name":"Pennsylvania","lat":40.67181,"lng":-75.62096,"zip":"18078","miles_from_dt":18.35},{"city":"Bethlehem","state_name":"Pennsylvania","lat":40.62507,"lng":-75.3712,"zip":"18025","miles_from_dt":18.44},{"city":"Hilltown","state_name":"Pennsylvania","lat":40.31952,"lng":-75.24514,"zip":"18927","miles_from_dt":18.48},{"city":"Line Lexington","state_name":"Pennsylvania","lat":40.29457,"lng":-75.25581,"zip":"18932","miles_from_dt":18.6},{"city":"Springtown","state_name":"Pennsylvania","lat":40.56236,"lng":-75.28396,"zip":"18081","miles_from_dt":18.69},{"city":"Worcester","state_name":"Pennsylvania","lat":40.19673,"lng":-75.35401,"zip":"19490","miles_from_dt":18.7},{"city":"Reading","state_name":"Pennsylvania","lat":40.32695,"lng":-75.91701,"zip":"19602","miles_from_dt":18.87},{"city":"Lansdale","state_name":"Pennsylvania","lat":40.23068,"lng":-75.30369,"zip":"19446","miles_from_dt":18.87},{"city":"Coplay","state_name":"Pennsylvania","lat":40.68203,"lng":-75.54638,"zip":"18037","miles_from_dt":18.96},{"city":"Mont Clare","state_name":"Pennsylvania","lat":40.13886,"lng":-75.50141,"zip":"19453","miles_from_dt":18.98},{"city":"Kimberton","state_name":"Pennsylvania","lat":40.13233,"lng":-75.57863,"zip":"19442","miles_from_dt":19.03},{"city":"Hellertown","state_name":"Pennsylvania","lat":40.58794,"lng":-75.29929,"zip":"18055","miles_from_dt":19.12},{"city":"Colmar","state_name":"Pennsylvania","lat":40.27255,"lng":-75.25628,"zip":"18915","miles_from_dt":19.27},{"city":"Reading","state_name":"Pennsylvania","lat":40.34008,"lng":-75.93014,"zip":"19603","miles_from_dt":19.29},{"city":"Birchrunville","state_name":"Pennsylvania","lat":40.13093,"lng":-75.64029,"zip":"19421","miles_from_dt":19.43},{"city":"Eagleville","state_name":"Pennsylvania","lat":40.16003,"lng":-75.40007,"zip":"19408","miles_from_dt":19.46},{"city":"Reading","state_name":"Pennsylvania","lat":40.39917,"lng":-75.94596,"zip":"19605","miles_from_dt":19.55},{"city":"Phoenixville","state_name":"Pennsylvania","lat":40.12674,"lng":-75.5294,"zip":"19460","miles_from_dt":19.56},{"city":"Reading","state_name":"Pennsylvania","lat":40.3526,"lng":-75.9408,"zip":"19601","miles_from_dt":19.65},{"city":"Oaks","state_name":"Pennsylvania","lat":40.1367,"lng":-75.45962,"zip":"19456","miles_from_dt":19.7},{"city":"New Tripoli","state_name":"Pennsylvania","lat":40.6635,"lng":-75.74492,"zip":"18066","miles_from_dt":19.75},{"city":"Dublin","state_name":"Pennsylvania","lat":40.37088,"lng":-75.202,"zip":"18917","miles_from_dt":19.87},{"city":"Lenhartsville","state_name":"Pennsylvania","lat":40.57813,"lng":-75.88111,"zip":"19534","miles_from_dt":19.92},{"city":"Bethlehem","state_name":"Pennsylvania","lat":40.66069,"lng":-75.38739,"zip":"18017","miles_from_dt":20.05},{"city":"Neffs","state_name":"Pennsylvania","lat":40.69814,"lng":-75.61086,"zip":"18065","miles_from_dt":20.1},{"city":"Reading","state_name":"Pennsylvania","lat":40.32473,"lng":-75.9411,"zip":"19611","miles_from_dt":20.13},{"city":"West Point","state_name":"Pennsylvania","lat":40.20665,"lng":-75.2985,"zip":"19486","miles_from_dt":20.18},{"city":"Valley Forge","state_name":"Pennsylvania","lat":40.12053,"lng":-75.4995,"zip":"19481","miles_from_dt":20.24},{"city":"Geigertown","state_name":"Pennsylvania","lat":40.20116,"lng":-75.84974,"zip":"19523","miles_from_dt":20.34},{"city":"Shoemakersville","state_name":"Pennsylvania","lat":40.49335,"lng":-75.94993,"zip":"19555","miles_from_dt":20.59},{"city":"Audubon","state_name":"Pennsylvania","lat":40.12856,"lng":-75.43766,"zip":"19407","miles_from_dt":20.62},{"city":"Norristown","state_name":"Pennsylvania","lat":40.14898,"lng":-75.38034,"zip":"19403","miles_from_dt":20.64},{"city":"Riegelsville","state_name":"Pennsylvania","lat":40.56603,"lng":-75.24115,"zip":"18077","miles_from_dt":20.71},{"city":"Lehigh Valley","state_name":"Pennsylvania","lat":40.66966,"lng":-75.38022,"zip":"18002","miles_from_dt":20.77},{"city":"North Wales","state_name":"Pennsylvania","lat":40.21106,"lng":-75.2779,"zip":"19455","miles_from_dt":20.78},{"city":"Kintnersville","state_name":"Pennsylvania","lat":40.52926,"lng":-75.2142,"zip":"18930","miles_from_dt":20.79},{"city":"Elverson","state_name":"Pennsylvania","lat":40.15968,"lng":-75.79959,"zip":"19520","miles_from_dt":20.83},{"city":"Bedminster","state_name":"Pennsylvania","lat":40.42639,"lng":-75.17937,"zip":"18910","miles_from_dt":20.93},{"city":"Chalfont","state_name":"Pennsylvania","lat":40.28908,"lng":-75.21046,"zip":"18914","miles_from_dt":20.95},{"city":"Reading","state_name":"Pennsylvania","lat":40.29147,"lng":-75.94521,"zip":"19607","miles_from_dt":21.11},{"city":"Chester Springs","state_name":"Pennsylvania","lat":40.10383,"lng":-75.64476,"zip":"19425","miles_from_dt":21.31},{"city":"Reading","state_name":"Pennsylvania","lat":40.34015,"lng":-75.97612,"zip":"19610","miles_from_dt":21.65},{"city":"Kempton","state_name":"Pennsylvania","lat":40.63387,"lng":-75.86158,"zip":"19529","miles_from_dt":21.67},{"city":"North Wales","state_name":"Pennsylvania","lat":40.22303,"lng":-75.24365,"zip":"19454","miles_from_dt":21.68},{"city":"Fountainville","state_name":"Pennsylvania","lat":40.3532,"lng":-75.16798,"zip":"18923","miles_from_dt":21.83},{"city":"Laurys Station","state_name":"Pennsylvania","lat":40.7233,"lng":-75.53644,"zip":"18059","miles_from_dt":21.85},{"city":"Durham","state_name":"Pennsylvania","lat":40.57631,"lng":-75.22419,"zip":"18039","miles_from_dt":21.85},{"city":"Leesport","state_name":"Pennsylvania","lat":40.42245,"lng":-75.99021,"zip":"19533","miles_from_dt":21.89},{"city":"Montgomeryville","state_name":"Pennsylvania","lat":40.22993,"lng":-75.23154,"zip":"18936","miles_from_dt":21.93},{"city":"Northampton","state_name":"Pennsylvania","lat":40.71792,"lng":-75.47937,"zip":"18067","miles_from_dt":21.97},{"city":"Valley Forge","state_name":"Pennsylvania","lat":40.10004,"lng":-75.47003,"zip":"19482","miles_from_dt":21.97},{"city":"Valley Forge","state_name":"Pennsylvania","lat":40.09729,"lng":-75.46849,"zip":"19496","miles_from_dt":22.18},{"city":"Ottsville","state_name":"Pennsylvania","lat":40.47167,"lng":-75.16261,"zip":"18942","miles_from_dt":22.21},{"city":"Gwynedd","state_name":"Pennsylvania","lat":40.20253,"lng":-75.24842,"zip":"19436","miles_from_dt":22.35},{"city":"Bethlehem","state_name":"Pennsylvania","lat":40.67267,"lng":-75.32692,"zip":"18020","miles_from_dt":22.46},{"city":"Germansville","state_name":"Pennsylvania","lat":40.71802,"lng":-75.70999,"zip":"18053","miles_from_dt":22.53},{"city":"Uwchland","state_name":"Pennsylvania","lat":40.09186,"lng":-75.6913,"zip":"19480","miles_from_dt":22.66},{"city":"Plumsteadville","state_name":"Pennsylvania","lat":40.38488,"lng":-75.14631,"zip":"18949","miles_from_dt":22.7},{"city":"Ferndale","state_name":"Pennsylvania","lat":40.52946,"lng":-75.1738,"zip":"18921","miles_from_dt":22.76},{"city":"Slatington","state_name":"Pennsylvania","lat":40.73618,"lng":-75.63227,"zip":"18080","miles_from_dt":22.84},{"city":"Devault","state_name":"Pennsylvania","lat":40.07829,"lng":-75.53511,"zip":"19432","miles_from_dt":22.85},{"city":"Treichlers","state_name":"Pennsylvania","lat":40.73867,"lng":-75.54757,"zip":"18086","miles_from_dt":22.86},{"city":"Gwynedd Valley","state_name":"Pennsylvania","lat":40.18706,"lng":-75.25274,"zip":"19437","miles_from_dt":22.88},{"city":"Reading","state_name":"Pennsylvania","lat":40.32774,"lng":-75.99622,"zip":"19609","miles_from_dt":22.89},{"city":"Norristown","state_name":"Pennsylvania","lat":40.13042,"lng":-75.33143,"zip":"19401","miles_from_dt":23.1},{"city":"Glenmoore","state_name":"Pennsylvania","lat":40.10203,"lng":-75.75461,"zip":"19343","miles_from_dt":23.14},{"city":"Valley Forge","state_name":"Pennsylvania","lat":40.10016,"lng":-75.40009,"zip":"19484","miles_from_dt":23.18},{"city":"Revere","state_name":"Pennsylvania","lat":40.52487,"lng":-75.16262,"zip":"18953","miles_from_dt":23.2},{"city":"Centerport","state_name":"Pennsylvania","lat":40.48686,"lng":-76.00526,"zip":"19516","miles_from_dt":23.3},{"city":"Blue Bell","state_name":"Pennsylvania","lat":40.15835,"lng":-75.27858,"zip":"19422","miles_from_dt":23.3},{"city":"Fairview Village","state_name":"Pennsylvania","lat":40.12139,"lng":-75.34028,"zip":"19409","miles_from_dt":23.36},{"city":"Eagleville","state_name":"Pennsylvania","lat":40.12,"lng":-75.34219,"zip":"19415","miles_from_dt":23.39},{"city":"Norristown","state_name":"Pennsylvania","lat":40.12022,"lng":-75.34019,"zip":"19404","miles_from_dt":23.43},{"city":"Doylestown","state_name":"Pennsylvania","lat":40.30529,"lng":-75.15026,"zip":"18901","miles_from_dt":23.54},{"city":"Slatedale","state_name":"Pennsylvania","lat":40.74415,"lng":-75.65754,"zip":"18079","miles_from_dt":23.59},{"city":"Morgantown","state_name":"Pennsylvania","lat":40.1697,"lng":-75.89635,"zip":"19543","miles_from_dt":23.62},{"city":"Danboro","state_name":"Pennsylvania","lat":40.355,"lng":-75.13268,"zip":"18916","miles_from_dt":23.65},{"city":"Spring House","state_name":"Pennsylvania","lat":40.18447,"lng":-75.23583,"zip":"19477","miles_from_dt":23.67},{"city":"Cherryville","state_name":"Pennsylvania","lat":40.75053,"lng":-75.54148,"zip":"18035","miles_from_dt":23.7},{"city":"Mohnton","state_name":"Pennsylvania","lat":40.23714,"lng":-75.9658,"zip":"19540","miles_from_dt":23.75},{"city":"King Of Prussia","state_name":"Pennsylvania","lat":40.09467,"lng":-75.38402,"zip":"19406","miles_from_dt":23.88},{"city":"Hamburg","state_name":"Pennsylvania","lat":40.5465,"lng":-75.99802,"zip":"19526","miles_from_dt":24.22},{"city":"Blue Bell","state_name":"Pennsylvania","lat":40.14862,"lng":-75.26616,"zip":"19424","miles_from_dt":24.24},{"city":"Mohrsville","state_name":"Pennsylvania","lat":40.47821,"lng":-76.02597,"zip":"19541","miles_from_dt":24.24},{"city":"Pipersville","state_name":"Pennsylvania","lat":40.42677,"lng":-75.1138,"zip":"18947","miles_from_dt":24.38},{"city":"Valley Forge","state_name":"Pennsylvania","lat":40.05458,"lng":-75.55688,"zip":"19494","miles_from_dt":24.41},{"city":"Valley Forge","state_name":"Pennsylvania","lat":40.054,"lng":-75.55746,"zip":"19495","miles_from_dt":24.45},{"city":"Valley Forge","state_name":"Pennsylvania","lat":40.05394,"lng":-75.55694,"zip":"19493","miles_from_dt":24.45},{"city":"Southeastern","state_name":"Pennsylvania","lat":40.0716,"lng":-75.42816,"zip":"19399","miles_from_dt":24.49},{"city":"Walnutport","state_name":"Pennsylvania","lat":40.76578,"lng":-75.5576,"zip":"18088","miles_from_dt":24.7},{"city":"Ambler","state_name":"Pennsylvania","lat":40.18386,"lng":-75.21104,"zip":"19002","miles_from_dt":24.7},{"city":"Bridgeport","state_name":"Pennsylvania","lat":40.09949,"lng":-75.33497,"zip":"19405","miles_from_dt":24.8},{"city":"Easton","state_name":"Pennsylvania","lat":40.6497,"lng":-75.22376,"zip":"18042","miles_from_dt":24.92},{"city":"Malvern","state_name":"Pennsylvania","lat":40.0466,"lng":-75.5302,"zip":"19355","miles_from_dt":25.06},{"city":"Reading","state_name":"Pennsylvania","lat":40.31401,"lng":-76.03574,"zip":"19608","miles_from_dt":25.14},{"city":"Easton","state_name":"Pennsylvania","lat":40.6919,"lng":-75.27494,"zip":"18045","miles_from_dt":25.17},{"city":"Plymouth Meeting","state_name":"Pennsylvania","lat":40.11542,"lng":-75.28453,"zip":"19462","miles_from_dt":25.38},{"city":"Warrington","state_name":"Pennsylvania","lat":40.24676,"lng":-75.14321,"zip":"18976","miles_from_dt":25.4},{"city":"Doylestown","state_name":"Pennsylvania","lat":40.35474,"lng":-75.09855,"zip":"18902","miles_from_dt":25.43},{"city":"Exton","state_name":"Pennsylvania","lat":40.04213,"lng":-75.63814,"zip":"19341","miles_from_dt":25.47},{"city":"Upper Black Eddy","state_name":"Pennsylvania","lat":40.53395,"lng":-75.11997,"zip":"18972","miles_from_dt":25.53},{"city":"Wayne","state_name":"Pennsylvania","lat":40.06172,"lng":-75.40004,"zip":"19087","miles_from_dt":25.64},{"city":"Lyndell","state_name":"Pennsylvania","lat":40.05937,"lng":-75.74483,"zip":"19354","miles_from_dt":25.67},{"city":"Paoli","state_name":"Pennsylvania","lat":40.0414,"lng":-75.4809,"zip":"19301","miles_from_dt":25.79},{"city":"Lionville","state_name":"Pennsylvania","lat":40.03277,"lng":-75.62202,"zip":"19353","miles_from_dt":26.01},{"city":"Immaculata","state_name":"Pennsylvania","lat":40.02967,"lng":-75.56955,"zip":"19345","miles_from_dt":26.11},{"city":"Bath","state_name":"Pennsylvania","lat":40.7654,"lng":-75.40923,"zip":"18014","miles_from_dt":26.16},{"city":"Erwinna","state_name":"Pennsylvania","lat":40.49264,"lng":-75.09067,"zip":"18920","miles_from_dt":26.21},{"city":"Ashfield","state_name":"Pennsylvania","lat":40.77292,"lng":-75.71883,"zip":"18212","miles_from_dt":26.28},{"city":"Devon","state_name":"Pennsylvania","lat":40.04208,"lng":-75.42331,"zip":"19333","miles_from_dt":26.5},{"city":"Andreas","state_name":"Pennsylvania","lat":40.74315,"lng":-75.82314,"zip":"18211","miles_from_dt":26.54},{"city":"Southeastern","state_name":"Pennsylvania","lat":40.04122,"lng":-75.42075,"zip":"19398","miles_from_dt":26.6},{"city":"Port Clinton","state_name":"Pennsylvania","lat":40.58176,"lng":-76.02672,"zip":"19549","miles_from_dt":26.62},{"city":"Conshohocken","state_name":"Pennsylvania","lat":40.08011,"lng":-75.30317,"zip":"19428","miles_from_dt":26.82},{"city":"Berwyn","state_name":"Pennsylvania","lat":40.0309,"lng":-75.45083,"zip":"19312","miles_from_dt":26.85},{"city":"Conshohocken","state_name":"Pennsylvania","lat":40.08051,"lng":-75.30008,"zip":"19429","miles_from_dt":26.89},{"city":"Mechanicsville","state_name":"Pennsylvania","lat":40.34663,"lng":-75.07211,"zip":"18934","miles_from_dt":26.9},{"city":"Horsham","state_name":"Pennsylvania","lat":40.18901,"lng":-75.15253,"zip":"19044","miles_from_dt":26.98},{"city":"Easton","state_name":"Pennsylvania","lat":40.69004,"lng":-75.22003,"zip":"18044","miles_from_dt":26.99},{"city":"Easton","state_name":"Pennsylvania","lat":40.69,"lng":-75.22001,"zip":"18043","miles_from_dt":26.99},{"city":"Point Pleasant","state_name":"Pennsylvania","lat":40.44709,"lng":-75.06544,"zip":"18950","miles_from_dt":27.03},{"city":"Fort Washington","state_name":"Pennsylvania","lat":40.13353,"lng":-75.20953,"zip":"19034","miles_from_dt":27.07},{"city":"Danielsville","state_name":"Pennsylvania","lat":40.79574,"lng":-75.48246,"zip":"18038","miles_from_dt":27.19},{"city":"Bowmansville","state_name":"Pennsylvania","lat":40.19806,"lng":-76.01624,"zip":"17507","miles_from_dt":27.42},{"city":"Wernersville","state_name":"Pennsylvania","lat":40.34231,"lng":-76.08873,"zip":"19565","miles_from_dt":27.46},{"city":"Carversville","state_name":"Pennsylvania","lat":40.37727,"lng":-75.0545,"zip":"18913","miles_from_dt":27.57},{"city":"Nazareth","state_name":"Pennsylvania","lat":40.75755,"lng":-75.31927,"zip":"18064","miles_from_dt":27.63},{"city":"Downingtown","state_name":"Pennsylvania","lat":40.02271,"lng":-75.72045,"zip":"19335","miles_from_dt":27.67},{"city":"Bowmanstown","state_name":"Pennsylvania","lat":40.80408,"lng":-75.66336,"zip":"18030","miles_from_dt":27.71},{"city":"Honey Brook","state_name":"Pennsylvania","lat":40.08279,"lng":-75.88338,"zip":"19344","miles_from_dt":27.73},{"city":"Aquashicola","state_name":"Pennsylvania","lat":40.81135,"lng":-75.59158,"zip":"18012","miles_from_dt":27.84},{"city":"Lafayette Hill","state_name":"Pennsylvania","lat":40.08686,"lng":-75.25427,"zip":"19444","miles_from_dt":27.92},{"city":"Adamstown","state_name":"Pennsylvania","lat":40.24314,"lng":-76.05822,"zip":"19501","miles_from_dt":27.92},{"city":"Buckingham","state_name":"Pennsylvania","lat":40.32134,"lng":-75.05852,"zip":"18912","miles_from_dt":27.93},{"city":"Brandamore","state_name":"Pennsylvania","lat":40.05597,"lng":-75.83804,"zip":"19316","miles_from_dt":27.98},{"city":"New Ringgold","state_name":"Pennsylvania","lat":40.69932,"lng":-75.94656,"zip":"17960","miles_from_dt":28.02},{"city":"Flourtown","state_name":"Pennsylvania","lat":40.1083,"lng":-75.21747,"zip":"19031","miles_from_dt":28.04},{"city":"Lumberville","state_name":"Pennsylvania","lat":40.40265,"lng":-75.042,"zip":"18933","miles_from_dt":28.14},{"city":"Villanova","state_name":"Pennsylvania","lat":40.03759,"lng":-75.34969,"zip":"19085","miles_from_dt":28.21},{"city":"Jamison","state_name":"Pennsylvania","lat":40.25674,"lng":-75.07885,"zip":"18929","miles_from_dt":28.23},{"city":"Holicong","state_name":"Pennsylvania","lat":40.33594,"lng":-75.04855,"zip":"18928","miles_from_dt":28.25},{"city":"Dresher","state_name":"Pennsylvania","lat":40.14556,"lng":-75.1632,"zip":"19025","miles_from_dt":28.33},{"city":"West Chester","state_name":"Pennsylvania","lat":39.99742,"lng":-75.58076,"zip":"19381","miles_from_dt":28.34},{"city":"Milford","state_name":"New Jersey","lat":40.59386,"lng":-75.09569,"zip":"08848","miles_from_dt":28.34},{"city":"Forest Grove","state_name":"Pennsylvania","lat":40.29883,"lng":-75.05717,"zip":"18922","miles_from_dt":28.38},{"city":"Furlong","state_name":"Pennsylvania","lat":40.2851,"lng":-75.05934,"zip":"18925","miles_from_dt":28.54},{"city":"Tatamy","state_name":"Pennsylvania","lat":40.74174,"lng":-75.25434,"zip":"18085","miles_from_dt":28.56},{"city":"Narvon","state_name":"Pennsylvania","lat":40.12075,"lng":-75.96514,"zip":"17555","miles_from_dt":28.59},{"city":"Shartlesville","state_name":"Pennsylvania","lat":40.51288,"lng":-76.10377,"zip":"19554","miles_from_dt":28.77},{"city":"Oreland","state_name":"Pennsylvania","lat":40.1136,"lng":-75.18852,"zip":"19075","miles_from_dt":28.83},{"city":"Lahaska","state_name":"Pennsylvania","lat":40.34779,"lng":-75.0315,"zip":"18931","miles_from_dt":29.01},{"city":"Stockertown","state_name":"Pennsylvania","lat":40.75494,"lng":-75.2637,"zip":"18083","miles_from_dt":29.02},{"city":"Parryville","state_name":"Pennsylvania","lat":40.82361,"lng":-75.66879,"zip":"18244","miles_from_dt":29.09},{"city":"Reinholds","state_name":"Pennsylvania","lat":40.27043,"lng":-76.09652,"zip":"17569","miles_from_dt":29.1},{"city":"Bernville","state_name":"Pennsylvania","lat":40.45873,"lng":-76.12379,"zip":"19506","miles_from_dt":29.12},{"city":"West Chester","state_name":"Pennsylvania","lat":39.98594,"lng":-75.60358,"zip":"19380","miles_from_dt":29.16},{"city":"Palmerton","state_name":"Pennsylvania","lat":40.83098,"lng":-75.57843,"zip":"18071","miles_from_dt":29.18},{"city":"Gladwyne","state_name":"Pennsylvania","lat":40.04851,"lng":-75.28126,"zip":"19035","miles_from_dt":29.29},{"city":"Warminster","state_name":"Pennsylvania","lat":40.21869,"lng":-75.07568,"zip":"18991","miles_from_dt":29.46},{"city":"Hatboro","state_name":"Pennsylvania","lat":40.17732,"lng":-75.10624,"zip":"19040","miles_from_dt":29.47},{"city":"Bryn Mawr","state_name":"Pennsylvania","lat":40.02362,"lng":-75.3298,"zip":"19010","miles_from_dt":29.54},{"city":"Goodville","state_name":"Pennsylvania","lat":40.12811,"lng":-75.99895,"zip":"17528","miles_from_dt":29.56},{"city":"Southeastern","state_name":"Pennsylvania","lat":39.98224,"lng":-75.50887,"zip":"19397","miles_from_dt":29.59},{"city":"Warminster","state_name":"Pennsylvania","lat":40.21675,"lng":-75.07321,"zip":"18974","miles_from_dt":29.63},{"city":"Thorndale","state_name":"Pennsylvania","lat":39.99941,"lng":-75.75972,"zip":"19372","miles_from_dt":29.83},{"city":"Easton","state_name":"Pennsylvania","lat":40.7459,"lng":-75.22172,"zip":"18040","miles_from_dt":29.83},{"city":"East Earl","state_name":"Pennsylvania","lat":40.14278,"lng":-76.02145,"zip":"17519","miles_from_dt":29.84},{"city":"Willow Grove","state_name":"Pennsylvania","lat":40.1484,"lng":-75.12378,"zip":"19090","miles_from_dt":29.85},{"city":"Bloomsbury","state_name":"New Jersey","lat":40.64412,"lng":-75.09936,"zip":"08804","miles_from_dt":29.9},{"city":"Solebury","state_name":"Pennsylvania","lat":40.38068,"lng":-75.00825,"zip":"18963","miles_from_dt":29.98},{"city":"Frenchtown","state_name":"New Jersey","lat":40.51353,"lng":-75.02341,"zip":"08825","miles_from_dt":29.99}],"targetCityZipCode":"19503","targetCityState":"Pennsylvania"},"__N_SSG":true}