{"pageProps":{"stateName":"Pennsylvania","cityName":"guys-mills","nearbyCities":[{"city":"Townville","state_name":"Pennsylvania","lat":41.68167,"lng":-79.89028,"zip":"16360","miles_from_dt":4.92},{"city":"Cooperstown","state_name":"Pennsylvania","lat":41.53232,"lng":-79.85258,"zip":"16317","miles_from_dt":8.83},{"city":"Cochranton","state_name":"Pennsylvania","lat":41.51895,"lng":-80.06782,"zip":"16314","miles_from_dt":9.65},{"city":"Meadville","state_name":"Pennsylvania","lat":41.64896,"lng":-80.14727,"zip":"16388","miles_from_dt":9.83},{"city":"Meadville","state_name":"Pennsylvania","lat":41.63143,"lng":-80.15378,"zip":"16335","miles_from_dt":10.1},{"city":"Centerville","state_name":"Pennsylvania","lat":41.72483,"lng":-79.79018,"zip":"16404","miles_from_dt":10.81},{"city":"Cambridge Springs","state_name":"Pennsylvania","lat":41.7912,"lng":-80.02017,"zip":"16403","miles_from_dt":11.42},{"city":"Saegertown","state_name":"Pennsylvania","lat":41.73553,"lng":-80.14316,"zip":"16433","miles_from_dt":11.91},{"city":"Hydetown","state_name":"Pennsylvania","lat":41.651,"lng":-79.72716,"zip":"16328","miles_from_dt":12.06},{"city":"Utica","state_name":"Pennsylvania","lat":41.45032,"lng":-79.96284,"zip":"16362","miles_from_dt":12.56},{"city":"Carlton","state_name":"Pennsylvania","lat":41.45706,"lng":-80.03477,"zip":"16311","miles_from_dt":12.72},{"city":"Riceville","state_name":"Pennsylvania","lat":41.77923,"lng":-79.79955,"zip":"16432","miles_from_dt":13.06},{"city":"Titusville","state_name":"Pennsylvania","lat":41.61476,"lng":-79.70637,"zip":"16354","miles_from_dt":13.13},{"city":"Venango","state_name":"Pennsylvania","lat":41.78673,"lng":-80.13088,"zip":"16440","miles_from_dt":13.89},{"city":"Franklin","state_name":"Pennsylvania","lat":41.41286,"lng":-79.83047,"zip":"16323","miles_from_dt":16.54},{"city":"Mill Village","state_name":"Pennsylvania","lat":41.87466,"lng":-79.97132,"zip":"16427","miles_from_dt":16.74},{"city":"Conneaut Lake","state_name":"Pennsylvania","lat":41.6012,"lng":-80.29958,"zip":"16316","miles_from_dt":17.78},{"city":"Reno","state_name":"Pennsylvania","lat":41.42204,"lng":-79.75233,"zip":"16343","miles_from_dt":18.03},{"city":"Sandy Lake","state_name":"Pennsylvania","lat":41.38574,"lng":-80.07422,"zip":"16145","miles_from_dt":18.04},{"city":"Rouseville","state_name":"Pennsylvania","lat":41.47045,"lng":-79.684,"zip":"16344","miles_from_dt":18.1},{"city":"Sheakleyville","state_name":"Pennsylvania","lat":41.4428,"lng":-80.2056,"zip":"16151","miles_from_dt":18.3},{"city":"Edinboro","state_name":"Pennsylvania","lat":41.87071,"lng":-80.12175,"zip":"16444","miles_from_dt":18.48},{"city":"Harmonsburg","state_name":"Pennsylvania","lat":41.66555,"lng":-80.31447,"zip":"16422","miles_from_dt":18.55},{"city":"Atlantic","state_name":"Pennsylvania","lat":41.51936,"lng":-80.28463,"zip":"16111","miles_from_dt":18.6},{"city":"Hadley","state_name":"Pennsylvania","lat":41.44315,"lng":-80.21668,"zip":"16130","miles_from_dt":18.69},{"city":"Union City","state_name":"Pennsylvania","lat":41.89084,"lng":-79.84709,"zip":"16438","miles_from_dt":18.75},{"city":"Spartansburg","state_name":"Pennsylvania","lat":41.79442,"lng":-79.66765,"zip":"16434","miles_from_dt":18.76},{"city":"Clarks Mills","state_name":"Pennsylvania","lat":41.40432,"lng":-80.18766,"zip":"16114","miles_from_dt":19.71},{"city":"Oil City","state_name":"Pennsylvania","lat":41.45596,"lng":-79.64946,"zip":"16301","miles_from_dt":20.13},{"city":"Edinboro","state_name":"Pennsylvania","lat":41.88212,"lng":-80.16392,"zip":"16412","miles_from_dt":20.24},{"city":"Elgin","state_name":"Pennsylvania","lat":41.9001,"lng":-79.74527,"zip":"16413","miles_from_dt":21.52},{"city":"Polk","state_name":"Pennsylvania","lat":41.31995,"lng":-79.9294,"zip":"16342","miles_from_dt":21.61},{"city":"Grand Valley","state_name":"Pennsylvania","lat":41.69481,"lng":-79.54544,"zip":"16420","miles_from_dt":21.82},{"city":"Pleasantville","state_name":"Pennsylvania","lat":41.56288,"lng":-79.54703,"zip":"16341","miles_from_dt":21.86},{"city":"Waterford","state_name":"Pennsylvania","lat":41.9554,"lng":-79.98552,"zip":"16441","miles_from_dt":22.34},{"city":"Hartstown","state_name":"Pennsylvania","lat":41.54908,"lng":-80.37617,"zip":"16131","miles_from_dt":22.37},{"city":"Conneautville","state_name":"Pennsylvania","lat":41.75047,"lng":-80.36273,"zip":"16406","miles_from_dt":22.43},{"city":"Stoneboro","state_name":"Pennsylvania","lat":41.31845,"lng":-80.08122,"zip":"16153","miles_from_dt":22.57},{"city":"Seneca","state_name":"Pennsylvania","lat":41.37845,"lng":-79.6727,"zip":"16346","miles_from_dt":22.96},{"city":"Adamsville","state_name":"Pennsylvania","lat":41.49757,"lng":-80.38591,"zip":"16110","miles_from_dt":24.01},{"city":"Corry","state_name":"Pennsylvania","lat":41.91743,"lng":-79.66374,"zip":"16407","miles_from_dt":24.89},{"city":"Linesville","state_name":"Pennsylvania","lat":41.65887,"lng":-80.44175,"zip":"16424","miles_from_dt":25.07},{"city":"Springboro","state_name":"Pennsylvania","lat":41.81937,"lng":-80.38356,"zip":"16435","miles_from_dt":25.48},{"city":"McKean","state_name":"Pennsylvania","lat":41.98121,"lng":-80.13937,"zip":"16426","miles_from_dt":25.82},{"city":"Fredonia","state_name":"Pennsylvania","lat":41.33336,"lng":-80.26486,"zip":"16124","miles_from_dt":26.04},{"city":"Jackson Center","state_name":"Pennsylvania","lat":41.27101,"lng":-80.11562,"zip":"16133","miles_from_dt":26.23},{"city":"Greenville","state_name":"Pennsylvania","lat":41.40565,"lng":-80.37135,"zip":"16125","miles_from_dt":26.51},{"city":"Cranesville","state_name":"Pennsylvania","lat":41.92012,"lng":-80.30482,"zip":"16410","miles_from_dt":26.72},{"city":"Kennerdell","state_name":"Pennsylvania","lat":41.26136,"lng":-79.81066,"zip":"16374","miles_from_dt":26.73},{"city":"Albion","state_name":"Pennsylvania","lat":41.87645,"lng":-80.36107,"zip":"16475","miles_from_dt":26.76},{"city":"West Hickory","state_name":"Pennsylvania","lat":41.56586,"lng":-79.44796,"zip":"16370","miles_from_dt":26.86},{"city":"Cranberry","state_name":"Pennsylvania","lat":41.3216,"lng":-79.62942,"zip":"16319","miles_from_dt":27.42},{"city":"Jamestown","state_name":"Pennsylvania","lat":41.50315,"lng":-80.46571,"zip":"16134","miles_from_dt":27.74},{"city":"Spring Creek","state_name":"Pennsylvania","lat":41.85563,"lng":-79.49889,"zip":"16436","miles_from_dt":28.33},{"city":"Garland","state_name":"Pennsylvania","lat":41.82606,"lng":-79.47311,"zip":"16416","miles_from_dt":28.45},{"city":"Albion","state_name":"Pennsylvania","lat":41.88044,"lng":-80.40395,"zip":"16401","miles_from_dt":28.68},{"city":"Wattsburg","state_name":"Pennsylvania","lat":42.04094,"lng":-79.82631,"zip":"16442","miles_from_dt":29.02},{"city":"East Hickory","state_name":"Pennsylvania","lat":41.56835,"lng":-79.40084,"zip":"16321","miles_from_dt":29.24},{"city":"Venus","state_name":"Pennsylvania","lat":41.36379,"lng":-79.51517,"zip":"16364","miles_from_dt":29.55},{"city":"Girard","state_name":"Pennsylvania","lat":41.97107,"lng":-80.31039,"zip":"16417","miles_from_dt":29.6},{"city":"Erie","state_name":"Pennsylvania","lat":42.05861,"lng":-80.04419,"zip":"16509","miles_from_dt":29.75},{"city":"Endeavor","state_name":"Pennsylvania","lat":41.60567,"lng":-79.38428,"zip":"16322","miles_from_dt":29.81}],"targetCityZipCode":"16327","targetCityState":"Pennsylvania"},"__N_SSG":true}