{"pageProps":{"stateName":"Pennsylvania","cityName":"lake-lynn","nearbyCities":[{"city":"Gans","state_name":"Pennsylvania","lat":39.73333,"lng":-79.86667,"zip":"15439","miles_from_dt":1.49},{"city":"Point Marion","state_name":"Pennsylvania","lat":39.75201,"lng":-79.90145,"zip":"15474","miles_from_dt":3.37},{"city":"Smithfield","state_name":"Pennsylvania","lat":39.78601,"lng":-79.80099,"zip":"15478","miles_from_dt":3.78},{"city":"New Geneva","state_name":"Pennsylvania","lat":39.78931,"lng":-79.90526,"zip":"15467","miles_from_dt":4.85},{"city":"Martin","state_name":"Pennsylvania","lat":39.80712,"lng":-79.90756,"zip":"15460","miles_from_dt":5.85},{"city":"Dilliner","state_name":"Pennsylvania","lat":39.75088,"lng":-79.96293,"zip":"15327","miles_from_dt":6.59},{"city":"Masontown","state_name":"Pennsylvania","lat":39.83978,"lng":-79.89843,"zip":"15461","miles_from_dt":7.54},{"city":"Bobtown","state_name":"Pennsylvania","lat":39.75741,"lng":-79.98319,"zip":"15315","miles_from_dt":7.72},{"city":"Fairchance","state_name":"Pennsylvania","lat":39.81844,"lng":-79.72543,"zip":"15436","miles_from_dt":8.15},{"city":"Morgantown","state_name":"West Virginia","lat":39.6511,"lng":-79.94306,"zip":"26505","miles_from_dt":8.24},{"city":"Greensboro","state_name":"Pennsylvania","lat":39.81654,"lng":-79.96206,"zip":"15338","miles_from_dt":8.36},{"city":"Garards Fort","state_name":"Pennsylvania","lat":39.81292,"lng":-79.9673,"zip":"15334","miles_from_dt":8.43},{"city":"Leckrone","state_name":"Pennsylvania","lat":39.86386,"lng":-79.87286,"zip":"15454","miles_from_dt":8.71},{"city":"Morgantown","state_name":"West Virginia","lat":39.64677,"lng":-79.9701,"zip":"26506","miles_from_dt":9.46},{"city":"Morgantown","state_name":"West Virginia","lat":39.61424,"lng":-79.91584,"zip":"26507","miles_from_dt":9.58},{"city":"Dellslow","state_name":"West Virginia","lat":39.60688,"lng":-79.89066,"zip":"26531","miles_from_dt":9.58},{"city":"Morgantown","state_name":"West Virginia","lat":39.63037,"lng":-79.95785,"zip":"26504","miles_from_dt":9.84},{"city":"Ronco","state_name":"Pennsylvania","lat":39.86888,"lng":-79.92228,"zip":"15476","miles_from_dt":9.9},{"city":"Morgantown","state_name":"West Virginia","lat":39.63444,"lng":-79.97,"zip":"26502","miles_from_dt":10.06},{"city":"Osage","state_name":"West Virginia","lat":39.66375,"lng":-80.00219,"zip":"26543","miles_from_dt":10.12},{"city":"McClellandtown","state_name":"Pennsylvania","lat":39.88715,"lng":-79.85099,"zip":"15458","miles_from_dt":10.16},{"city":"Morgantown","state_name":"West Virginia","lat":39.59941,"lng":-79.89724,"zip":"26508","miles_from_dt":10.18},{"city":"Brownfield","state_name":"Pennsylvania","lat":39.85903,"lng":-79.72286,"zip":"15416","miles_from_dt":10.3},{"city":"Gibbon Glade","state_name":"Pennsylvania","lat":39.73775,"lng":-79.64347,"zip":"15440","miles_from_dt":10.47},{"city":"Granville","state_name":"West Virginia","lat":39.64748,"lng":-79.99733,"zip":"26534","miles_from_dt":10.54},{"city":"Nemacolin","state_name":"Pennsylvania","lat":39.87827,"lng":-79.93068,"zip":"15351","miles_from_dt":10.68},{"city":"Uledi","state_name":"Pennsylvania","lat":39.89242,"lng":-79.77842,"zip":"15484","miles_from_dt":11},{"city":"Pursglove","state_name":"West Virginia","lat":39.66099,"lng":-80.03115,"zip":"26546","miles_from_dt":11.56},{"city":"Masontown","state_name":"West Virginia","lat":39.573,"lng":-79.79041,"zip":"26542","miles_from_dt":11.83},{"city":"Uniontown","state_name":"Pennsylvania","lat":39.89914,"lng":-79.74965,"zip":"15401","miles_from_dt":11.98},{"city":"Adah","state_name":"Pennsylvania","lat":39.91246,"lng":-79.90352,"zip":"15410","miles_from_dt":12.36},{"city":"Carmichaels","state_name":"Pennsylvania","lat":39.87386,"lng":-79.99768,"zip":"15320","miles_from_dt":12.47},{"city":"Cassville","state_name":"West Virginia","lat":39.66712,"lng":-80.05637,"zip":"26527","miles_from_dt":12.58},{"city":"Hibbs","state_name":"Pennsylvania","lat":39.91924,"lng":-79.88448,"zip":"15443","miles_from_dt":12.58},{"city":"Mount Morris","state_name":"Pennsylvania","lat":39.75885,"lng":-80.07795,"zip":"15349","miles_from_dt":12.73},{"city":"Maidsville","state_name":"West Virginia","lat":39.68179,"lng":-80.07458,"zip":"26541","miles_from_dt":13.13},{"city":"Morgantown","state_name":"West Virginia","lat":39.62872,"lng":-80.04025,"zip":"26501","miles_from_dt":13.15},{"city":"Bruceton Mills","state_name":"West Virginia","lat":39.65465,"lng":-79.6184,"zip":"26525","miles_from_dt":13.2},{"city":"Farmington","state_name":"Pennsylvania","lat":39.79202,"lng":-79.59846,"zip":"15437","miles_from_dt":13.35},{"city":"Hopwood","state_name":"Pennsylvania","lat":39.87343,"lng":-79.65766,"zip":"15445","miles_from_dt":13.37},{"city":"Bretz","state_name":"West Virginia","lat":39.54075,"lng":-79.80716,"zip":"26524","miles_from_dt":13.87},{"city":"Oliver","state_name":"Pennsylvania","lat":39.91933,"lng":-79.71679,"zip":"15472","miles_from_dt":13.99},{"city":"Fairbank","state_name":"Pennsylvania","lat":39.94314,"lng":-79.84731,"zip":"15435","miles_from_dt":14.01},{"city":"New Salem","state_name":"Pennsylvania","lat":39.94872,"lng":-79.83761,"zip":"15468","miles_from_dt":14.39},{"city":"Chalk Hill","state_name":"Pennsylvania","lat":39.84527,"lng":-79.59743,"zip":"15421","miles_from_dt":14.81},{"city":"Isabella","state_name":"Pennsylvania","lat":39.9445,"lng":-79.93257,"zip":"15447","miles_from_dt":14.93},{"city":"Republic","state_name":"Pennsylvania","lat":39.95812,"lng":-79.88057,"zip":"15475","miles_from_dt":15.19},{"city":"Cardale","state_name":"Pennsylvania","lat":39.95981,"lng":-79.86537,"zip":"15420","miles_from_dt":15.21},{"city":"Rices Landing","state_name":"Pennsylvania","lat":39.93721,"lng":-79.98153,"zip":"15357","miles_from_dt":15.54},{"city":"Merrittstown","state_name":"Pennsylvania","lat":39.9629,"lng":-79.89916,"zip":"15463","miles_from_dt":15.68},{"city":"Reedsville","state_name":"West Virginia","lat":39.5133,"lng":-79.80757,"zip":"26547","miles_from_dt":15.75},{"city":"Crucible","state_name":"Pennsylvania","lat":39.94893,"lng":-79.96331,"zip":"15325","miles_from_dt":15.82},{"city":"Keisterville","state_name":"Pennsylvania","lat":39.97267,"lng":-79.78055,"zip":"15449","miles_from_dt":16.35},{"city":"Brier Hill","state_name":"Pennsylvania","lat":39.97774,"lng":-79.82886,"zip":"15415","miles_from_dt":16.4},{"city":"Lemont Furnace","state_name":"Pennsylvania","lat":39.92919,"lng":-79.6532,"zip":"15456","miles_from_dt":16.4},{"city":"Chestnut Ridge","state_name":"Pennsylvania","lat":39.9781,"lng":-79.80927,"zip":"15422","miles_from_dt":16.5},{"city":"Arthurdale","state_name":"West Virginia","lat":39.50105,"lng":-79.82393,"zip":"26520","miles_from_dt":16.52},{"city":"Jefferson","state_name":"Pennsylvania","lat":39.92289,"lng":-80.05068,"zip":"15344","miles_from_dt":16.86},{"city":"Waltersburg","state_name":"Pennsylvania","lat":39.97749,"lng":-79.75974,"zip":"15488","miles_from_dt":16.92},{"city":"Allison","state_name":"Pennsylvania","lat":39.98493,"lng":-79.87141,"zip":"15413","miles_from_dt":16.97},{"city":"Albright","state_name":"West Virginia","lat":39.55179,"lng":-79.63212,"zip":"26519","miles_from_dt":17.09},{"city":"West Leisenring","state_name":"Pennsylvania","lat":39.96323,"lng":-79.69531,"zip":"15489","miles_from_dt":17.21},{"city":"Mount Braddock","state_name":"Pennsylvania","lat":39.93883,"lng":-79.64126,"zip":"15465","miles_from_dt":17.31},{"city":"East Millsboro","state_name":"Pennsylvania","lat":39.97413,"lng":-79.95799,"zip":"15433","miles_from_dt":17.32},{"city":"Smock","state_name":"Pennsylvania","lat":39.98644,"lng":-79.76962,"zip":"15480","miles_from_dt":17.4},{"city":"Pentress","state_name":"West Virginia","lat":39.71233,"lng":-80.17064,"zip":"26544","miles_from_dt":17.72},{"city":"Ohiopyle","state_name":"Pennsylvania","lat":39.85321,"lng":-79.53078,"zip":"15470","miles_from_dt":18.21},{"city":"Mather","state_name":"Pennsylvania","lat":39.93545,"lng":-80.07536,"zip":"15346","miles_from_dt":18.39},{"city":"Kingwood","state_name":"West Virginia","lat":39.4846,"lng":-79.71189,"zip":"26537","miles_from_dt":18.91},{"city":"Millsboro","state_name":"Pennsylvania","lat":39.98748,"lng":-79.99624,"zip":"15348","miles_from_dt":18.98},{"city":"Grindstone","state_name":"Pennsylvania","lat":40.01542,"lng":-79.84019,"zip":"15442","miles_from_dt":18.99},{"city":"Denbo","state_name":"Pennsylvania","lat":40.00678,"lng":-79.94021,"zip":"15429","miles_from_dt":19.15},{"city":"Hiller","state_name":"Pennsylvania","lat":40.0134,"lng":-79.90836,"zip":"15444","miles_from_dt":19.2},{"city":"Brownsville","state_name":"Pennsylvania","lat":40.01466,"lng":-79.91464,"zip":"15417","miles_from_dt":19.35},{"city":"La Belle","state_name":"Pennsylvania","lat":40.00289,"lng":-79.97616,"zip":"15450","miles_from_dt":19.52},{"city":"Dunbar","state_name":"Pennsylvania","lat":39.94066,"lng":-79.58075,"zip":"15431","miles_from_dt":19.53},{"city":"Clarksville","state_name":"Pennsylvania","lat":39.97655,"lng":-80.0488,"zip":"15322","miles_from_dt":19.73},{"city":"Spraggs","state_name":"Pennsylvania","lat":39.75821,"lng":-80.21301,"zip":"15362","miles_from_dt":19.9},{"city":"Markleysburg","state_name":"Pennsylvania","lat":39.76483,"lng":-79.4648,"zip":"15459","miles_from_dt":20.06},{"city":"Rivesville","state_name":"West Virginia","lat":39.5738,"lng":-80.15339,"zip":"26588","miles_from_dt":20.27},{"city":"Waynesburg","state_name":"Pennsylvania","lat":39.8734,"lng":-80.17991,"zip":"15370","miles_from_dt":20.29},{"city":"Independence","state_name":"West Virginia","lat":39.44755,"lng":-79.88101,"zip":"26374","miles_from_dt":20.31},{"city":"Vestaburg","state_name":"Pennsylvania","lat":40.0145,"lng":-79.9892,"zip":"15368","miles_from_dt":20.52},{"city":"Montana Mines","state_name":"West Virginia","lat":39.52786,"lng":-80.10952,"zip":"26586","miles_from_dt":20.52},{"city":"Blacksville","state_name":"West Virginia","lat":39.71374,"lng":-80.23065,"zip":"26521","miles_from_dt":20.89},{"city":"Vanderbilt","state_name":"Pennsylvania","lat":40.02762,"lng":-79.70981,"zip":"15486","miles_from_dt":21},{"city":"Leisenring","state_name":"Pennsylvania","lat":40.00614,"lng":-79.64609,"zip":"15455","miles_from_dt":21.05},{"city":"Baxter","state_name":"West Virginia","lat":39.54088,"lng":-80.14362,"zip":"26560","miles_from_dt":21.24},{"city":"Fredericktown","state_name":"Pennsylvania","lat":40.02693,"lng":-80.01429,"zip":"15333","miles_from_dt":21.84},{"city":"Grant Town","state_name":"West Virginia","lat":39.55926,"lng":-80.17741,"zip":"26574","miles_from_dt":21.9},{"city":"Fairview","state_name":"West Virginia","lat":39.64284,"lng":-80.23444,"zip":"26570","miles_from_dt":22.07},{"city":"California","state_name":"Pennsylvania","lat":40.05861,"lng":-79.89408,"zip":"15419","miles_from_dt":22.16},{"city":"Star Junction","state_name":"Pennsylvania","lat":40.06073,"lng":-79.76645,"zip":"15482","miles_from_dt":22.46},{"city":"Brave","state_name":"Pennsylvania","lat":39.76514,"lng":-80.26185,"zip":"15316","miles_from_dt":22.53},{"city":"Dickerson Run","state_name":"Pennsylvania","lat":40.04025,"lng":-79.65534,"zip":"15430","miles_from_dt":22.91},{"city":"Fayette City","state_name":"Pennsylvania","lat":40.07485,"lng":-79.84431,"zip":"15438","miles_from_dt":23.09},{"city":"Friendsville","state_name":"Maryland","lat":39.64862,"lng":-79.42221,"zip":"21531","miles_from_dt":23.15},{"city":"Perryopolis","state_name":"Pennsylvania","lat":40.07256,"lng":-79.77352,"zip":"15473","miles_from_dt":23.2},{"city":"Newburg","state_name":"West Virginia","lat":39.4032,"lng":-79.82389,"zip":"26410","miles_from_dt":23.26},{"city":"Newell","state_name":"Pennsylvania","lat":40.07562,"lng":-79.89199,"zip":"15466","miles_from_dt":23.31},{"city":"Richeyville","state_name":"Pennsylvania","lat":40.055,"lng":-80.00309,"zip":"15358","miles_from_dt":23.38},{"city":"Roscoe","state_name":"Pennsylvania","lat":40.07856,"lng":-79.86243,"zip":"15477","miles_from_dt":23.38},{"city":"Elco","state_name":"Pennsylvania","lat":40.08013,"lng":-79.88037,"zip":"15434","miles_from_dt":23.55},{"city":"Barrackville","state_name":"West Virginia","lat":39.52141,"lng":-80.18015,"zip":"26559","miles_from_dt":23.6},{"city":"Daisytown","state_name":"Pennsylvania","lat":40.06742,"lng":-79.97065,"zip":"15427","miles_from_dt":23.62},{"city":"Stockdale","state_name":"Pennsylvania","lat":40.08352,"lng":-79.85036,"zip":"15483","miles_from_dt":23.69},{"city":"Fairmont","state_name":"West Virginia","lat":39.46475,"lng":-80.11461,"zip":"26554","miles_from_dt":24},{"city":"Marianna","state_name":"Pennsylvania","lat":40.02173,"lng":-80.10743,"zip":"15345","miles_from_dt":24.07},{"city":"Coal Center","state_name":"Pennsylvania","lat":40.08804,"lng":-79.92538,"zip":"15423","miles_from_dt":24.42},{"city":"Beallsville","state_name":"Pennsylvania","lat":40.06318,"lng":-80.02937,"zip":"15313","miles_from_dt":24.45},{"city":"Allenport","state_name":"Pennsylvania","lat":40.09496,"lng":-79.85218,"zip":"15412","miles_from_dt":24.49},{"city":"Fairmont","state_name":"West Virginia","lat":39.47026,"lng":-80.15026,"zip":"26555","miles_from_dt":24.92},{"city":"Mill Run","state_name":"Pennsylvania","lat":39.92463,"lng":-79.43695,"zip":"15464","miles_from_dt":24.93},{"city":"Terra Alta","state_name":"West Virginia","lat":39.45042,"lng":-79.56035,"zip":"26764","miles_from_dt":24.95},{"city":"Connellsville","state_name":"Pennsylvania","lat":40.02702,"lng":-79.55411,"zip":"15425","miles_from_dt":24.95},{"city":"Dawson","state_name":"Pennsylvania","lat":40.0811,"lng":-79.68184,"zip":"15428","miles_from_dt":24.98},{"city":"Rogersville","state_name":"Pennsylvania","lat":39.87667,"lng":-80.27555,"zip":"15359","miles_from_dt":25.01},{"city":"Dunlevy","state_name":"Pennsylvania","lat":40.11301,"lng":-79.85913,"zip":"15432","miles_from_dt":25.74},{"city":"Wana","state_name":"West Virginia","lat":39.67428,"lng":-80.31674,"zip":"26590","miles_from_dt":25.81},{"city":"Tunnelton","state_name":"West Virginia","lat":39.36861,"lng":-79.7626,"zip":"26444","miles_from_dt":25.97},{"city":"Colfax","state_name":"West Virginia","lat":39.43521,"lng":-80.12954,"zip":"26566","miles_from_dt":26.1},{"city":"Addison","state_name":"Pennsylvania","lat":39.74724,"lng":-79.34344,"zip":"15411","miles_from_dt":26.45},{"city":"Wickhaven","state_name":"Pennsylvania","lat":40.11974,"lng":-79.76306,"zip":"15492","miles_from_dt":26.5},{"city":"Confluence","state_name":"Pennsylvania","lat":39.829,"lng":-79.35377,"zip":"15424","miles_from_dt":26.6},{"city":"Kingmont","state_name":"West Virginia","lat":39.44888,"lng":-80.179,"zip":"26578","miles_from_dt":27.04},{"city":"Farmington","state_name":"West Virginia","lat":39.51945,"lng":-80.26013,"zip":"26571","miles_from_dt":27.09},{"city":"Ellsworth","state_name":"Pennsylvania","lat":40.10754,"lng":-80.02214,"zip":"15331","miles_from_dt":27.13},{"city":"Scenery Hill","state_name":"Pennsylvania","lat":40.08846,"lng":-80.08144,"zip":"15360","miles_from_dt":27.24},{"city":"Ursina","state_name":"Pennsylvania","lat":39.81517,"lng":-79.33362,"zip":"15485","miles_from_dt":27.45},{"city":"Pricedale","state_name":"Pennsylvania","lat":40.13922,"lng":-79.85605,"zip":"15072","miles_from_dt":27.54},{"city":"Sycamore","state_name":"Pennsylvania","lat":39.94557,"lng":-80.2849,"zip":"15364","miles_from_dt":27.58},{"city":"Charleroi","state_name":"Pennsylvania","lat":40.13329,"lng":-79.93661,"zip":"15022","miles_from_dt":27.6},{"city":"Cokeburg","state_name":"Pennsylvania","lat":40.10074,"lng":-80.0654,"zip":"15324","miles_from_dt":27.61},{"city":"Holbrook","state_name":"Pennsylvania","lat":39.82381,"lng":-80.34728,"zip":"15341","miles_from_dt":27.61},{"city":"Everson","state_name":"Pennsylvania","lat":40.08968,"lng":-79.58527,"zip":"15631","miles_from_dt":27.65},{"city":"Jacobs Creek","state_name":"Pennsylvania","lat":40.13572,"lng":-79.73394,"zip":"15448","miles_from_dt":27.87},{"city":"Amity","state_name":"Pennsylvania","lat":40.04608,"lng":-80.18592,"zip":"15311","miles_from_dt":27.99},{"city":"Idamay","state_name":"West Virginia","lat":39.49307,"lng":-80.25644,"zip":"26576","miles_from_dt":28},{"city":"McHenry","state_name":"Maryland","lat":39.55727,"lng":-79.36732,"zip":"21541","miles_from_dt":28.19},{"city":"Scottdale","state_name":"Pennsylvania","lat":40.10926,"lng":-79.60492,"zip":"15683","miles_from_dt":28.36},{"city":"Monessen","state_name":"Pennsylvania","lat":40.15184,"lng":-79.88277,"zip":"15062","miles_from_dt":28.49},{"city":"Thornton","state_name":"West Virginia","lat":39.32947,"lng":-79.90625,"zip":"26440","miles_from_dt":28.55},{"city":"Grafton","state_name":"West Virginia","lat":39.34847,"lng":-80.02866,"zip":"26354","miles_from_dt":28.84},{"city":"Rachel","state_name":"West Virginia","lat":39.51606,"lng":-80.29751,"zip":"26587","miles_from_dt":28.89},{"city":"Belle Vernon","state_name":"Pennsylvania","lat":40.15871,"lng":-79.81188,"zip":"15012","miles_from_dt":28.91},{"city":"Smithton","state_name":"Pennsylvania","lat":40.15224,"lng":-79.71329,"zip":"15479","miles_from_dt":29.22},{"city":"Carolina","state_name":"West Virginia","lat":39.48085,"lng":-80.27369,"zip":"26563","miles_from_dt":29.25},{"city":"Accident","state_name":"Maryland","lat":39.63661,"lng":-79.30786,"zip":"21520","miles_from_dt":29.25},{"city":"Normalville","state_name":"Pennsylvania","lat":40.01366,"lng":-79.41861,"zip":"15469","miles_from_dt":29.29},{"city":"Nineveh","state_name":"Pennsylvania","lat":39.96223,"lng":-80.31107,"zip":"15353","miles_from_dt":29.36},{"city":"Bentleyville","state_name":"Pennsylvania","lat":40.14555,"lng":-80.01775,"zip":"15314","miles_from_dt":29.52},{"city":"Van Voorhis","state_name":"Pennsylvania","lat":40.1598,"lng":-79.974,"zip":"15366","miles_from_dt":29.81},{"city":"New Freeport","state_name":"Pennsylvania","lat":39.75418,"lng":-80.40253,"zip":"15352","miles_from_dt":29.97}],"targetCityZipCode":"15451","targetCityState":"Pennsylvania"},"__N_SSG":true}