{"pageProps":{"stateName":"Pennsylvania","cityName":"loyalhanna","nearbyCities":[{"city":"Bradenville","state_name":"Pennsylvania","lat":40.32336,"lng":-79.33882,"zip":"15620","miles_from_dt":1.13},{"city":"Youngstown","state_name":"Pennsylvania","lat":40.2798,"lng":-79.36587,"zip":"15696","miles_from_dt":2.92},{"city":"New Derry","state_name":"Pennsylvania","lat":40.36038,"lng":-79.32146,"zip":"15671","miles_from_dt":3.35},{"city":"Derry","state_name":"Pennsylvania","lat":40.35064,"lng":-79.30667,"zip":"15627","miles_from_dt":3.45},{"city":"Latrobe","state_name":"Pennsylvania","lat":40.27527,"lng":-79.39213,"zip":"15650","miles_from_dt":3.64},{"city":"Hostetter","state_name":"Pennsylvania","lat":40.26466,"lng":-79.4017,"zip":"15638","miles_from_dt":4.52},{"city":"Whitney","state_name":"Pennsylvania","lat":40.24939,"lng":-79.40592,"zip":"15693","miles_from_dt":5.56},{"city":"Luxor","state_name":"Pennsylvania","lat":40.33892,"lng":-79.47972,"zip":"15662","miles_from_dt":6.43},{"city":"Crabtree","state_name":"Pennsylvania","lat":40.36638,"lng":-79.47124,"zip":"15624","miles_from_dt":6.62},{"city":"New Alexandria","state_name":"Pennsylvania","lat":40.40783,"lng":-79.4321,"zip":"15670","miles_from_dt":7.04},{"city":"Bovard","state_name":"Pennsylvania","lat":40.32051,"lng":-79.49719,"zip":"15619","miles_from_dt":7.24},{"city":"Pleasant Unity","state_name":"Pennsylvania","lat":40.24303,"lng":-79.45913,"zip":"15676","miles_from_dt":7.55},{"city":"Hannastown","state_name":"Pennsylvania","lat":40.34891,"lng":-79.49877,"zip":"15635","miles_from_dt":7.56},{"city":"Greensburg","state_name":"Pennsylvania","lat":40.34828,"lng":-79.5188,"zip":"15605","miles_from_dt":8.58},{"city":"Ligonier","state_name":"Pennsylvania","lat":40.25467,"lng":-79.22217,"zip":"15658","miles_from_dt":8.64},{"city":"Forbes Road","state_name":"Pennsylvania","lat":40.35941,"lng":-79.51699,"zip":"15633","miles_from_dt":8.68},{"city":"Torrance","state_name":"Pennsylvania","lat":40.40008,"lng":-79.21846,"zip":"15779","miles_from_dt":9.22},{"city":"Greensburg","state_name":"Pennsylvania","lat":40.31397,"lng":-79.53643,"zip":"15601","miles_from_dt":9.33},{"city":"Greensburg","state_name":"Pennsylvania","lat":40.30169,"lng":-79.53809,"zip":"15606","miles_from_dt":9.51},{"city":"United","state_name":"Pennsylvania","lat":40.2253,"lng":-79.49164,"zip":"15689","miles_from_dt":9.63},{"city":"Calumet","state_name":"Pennsylvania","lat":40.2112,"lng":-79.48581,"zip":"15621","miles_from_dt":10.13},{"city":"Bolivar","state_name":"Pennsylvania","lat":40.35518,"lng":-79.16447,"zip":"15923","miles_from_dt":10.58},{"city":"Norvelt","state_name":"Pennsylvania","lat":40.20672,"lng":-79.49636,"zip":"15674","miles_from_dt":10.73},{"city":"Blairsville","state_name":"Pennsylvania","lat":40.45354,"lng":-79.23896,"zip":"15717","miles_from_dt":11.1},{"city":"Armbrust","state_name":"Pennsylvania","lat":40.23502,"lng":-79.55093,"zip":"15616","miles_from_dt":11.73},{"city":"Slickville","state_name":"Pennsylvania","lat":40.4629,"lng":-79.50629,"zip":"15684","miles_from_dt":12.41},{"city":"Laughlintown","state_name":"Pennsylvania","lat":40.19739,"lng":-79.18141,"zip":"15655","miles_from_dt":12.77},{"city":"Delmont","state_name":"Pennsylvania","lat":40.40868,"lng":-79.57592,"zip":"15626","miles_from_dt":12.87},{"city":"Youngwood","state_name":"Pennsylvania","lat":40.24054,"lng":-79.5803,"zip":"15697","miles_from_dt":12.92},{"city":"Grapeville","state_name":"Pennsylvania","lat":40.32533,"lng":-79.60596,"zip":"15634","miles_from_dt":12.99},{"city":"Acme","state_name":"Pennsylvania","lat":40.13699,"lng":-79.41613,"zip":"15610","miles_from_dt":13.1},{"city":"Saltsburg","state_name":"Pennsylvania","lat":40.5023,"lng":-79.43873,"zip":"15681","miles_from_dt":13.12},{"city":"Robinson","state_name":"Pennsylvania","lat":40.4055,"lng":-79.13442,"zip":"15949","miles_from_dt":13.23},{"city":"Stahlstown","state_name":"Pennsylvania","lat":40.13149,"lng":-79.31977,"zip":"15687","miles_from_dt":13.31},{"city":"Jeannette","state_name":"Pennsylvania","lat":40.34681,"lng":-79.61278,"zip":"15644","miles_from_dt":13.45},{"city":"Clarksburg","state_name":"Pennsylvania","lat":40.51751,"lng":-79.33954,"zip":"15725","miles_from_dt":13.54},{"city":"Black Lick","state_name":"Pennsylvania","lat":40.47025,"lng":-79.19031,"zip":"15716","miles_from_dt":13.6},{"city":"Rector","state_name":"Pennsylvania","lat":40.15048,"lng":-79.23113,"zip":"15677","miles_from_dt":13.65},{"city":"Mount Pleasant","state_name":"Pennsylvania","lat":40.15858,"lng":-79.51398,"zip":"15666","miles_from_dt":13.9},{"city":"Claridge","state_name":"Pennsylvania","lat":40.3689,"lng":-79.62263,"zip":"15623","miles_from_dt":14.24},{"city":"Josephine","state_name":"Pennsylvania","lat":40.48377,"lng":-79.18256,"zip":"15750","miles_from_dt":14.57},{"city":"Hunker","state_name":"Pennsylvania","lat":40.20927,"lng":-79.59379,"zip":"15639","miles_from_dt":14.6},{"city":"Penn","state_name":"Pennsylvania","lat":40.33363,"lng":-79.63867,"zip":"15675","miles_from_dt":14.73},{"city":"New Florence","state_name":"Pennsylvania","lat":40.36295,"lng":-79.0816,"zip":"15944","miles_from_dt":14.97},{"city":"New Stanton","state_name":"Pennsylvania","lat":40.24428,"lng":-79.63069,"zip":"15672","miles_from_dt":15.27},{"city":"Export","state_name":"Pennsylvania","lat":40.43803,"lng":-79.60668,"zip":"15632","miles_from_dt":15.28},{"city":"Southwest","state_name":"Pennsylvania","lat":40.14955,"lng":-79.54155,"zip":"15685","miles_from_dt":15.28},{"city":"Donegal","state_name":"Pennsylvania","lat":40.10009,"lng":-79.37008,"zip":"15628","miles_from_dt":15.31},{"city":"Adamsburg","state_name":"Pennsylvania","lat":40.30656,"lng":-79.65266,"zip":"15611","miles_from_dt":15.49},{"city":"Salina","state_name":"Pennsylvania","lat":40.52104,"lng":-79.49638,"zip":"15680","miles_from_dt":15.51},{"city":"Kent","state_name":"Pennsylvania","lat":40.5408,"lng":-79.28177,"zip":"15752","miles_from_dt":15.66},{"city":"Jones Mills","state_name":"Pennsylvania","lat":40.09517,"lng":-79.34448,"zip":"15646","miles_from_dt":15.67},{"city":"Tarrs","state_name":"Pennsylvania","lat":40.1734,"lng":-79.58602,"zip":"15688","miles_from_dt":15.74},{"city":"Coral","state_name":"Pennsylvania","lat":40.50383,"lng":-79.1767,"zip":"15731","miles_from_dt":15.85},{"city":"Harrison City","state_name":"Pennsylvania","lat":40.36459,"lng":-79.65619,"zip":"15636","miles_from_dt":15.91},{"city":"Manor","state_name":"Pennsylvania","lat":40.33925,"lng":-79.66338,"zip":"15665","miles_from_dt":16.06},{"city":"Arona","state_name":"Pennsylvania","lat":40.26856,"lng":-79.65805,"zip":"15617","miles_from_dt":16.17},{"city":"Mammoth","state_name":"Pennsylvania","lat":40.32378,"lng":-79.67173,"zip":"15664","miles_from_dt":16.46},{"city":"Westmoreland City","state_name":"Pennsylvania","lat":40.33086,"lng":-79.67861,"zip":"15692","miles_from_dt":16.83},{"city":"Clune","state_name":"Pennsylvania","lat":40.56498,"lng":-79.31496,"zip":"15727","miles_from_dt":16.94},{"city":"Wendel","state_name":"Pennsylvania","lat":40.29668,"lng":-79.68411,"zip":"15691","miles_from_dt":17.2},{"city":"Avonmore","state_name":"Pennsylvania","lat":40.56229,"lng":-79.44628,"zip":"15618","miles_from_dt":17.2},{"city":"Darragh","state_name":"Pennsylvania","lat":40.27048,"lng":-79.67925,"zip":"15625","miles_from_dt":17.23},{"city":"McIntyre","state_name":"Pennsylvania","lat":40.57134,"lng":-79.30096,"zip":"15756","miles_from_dt":17.49},{"city":"Madison","state_name":"Pennsylvania","lat":40.25233,"lng":-79.67958,"zip":"15663","miles_from_dt":17.55},{"city":"Boswell","state_name":"Pennsylvania","lat":40.18537,"lng":-79.0794,"zip":"15531","miles_from_dt":17.58},{"city":"Aultman","state_name":"Pennsylvania","lat":40.5698,"lng":-79.26184,"zip":"15713","miles_from_dt":17.87},{"city":"Alverton","state_name":"Pennsylvania","lat":40.13793,"lng":-79.59938,"zip":"15612","miles_from_dt":17.93},{"city":"Melcroft","state_name":"Pennsylvania","lat":40.06136,"lng":-79.38113,"zip":"15462","miles_from_dt":18.01},{"city":"Ruffs Dale","state_name":"Pennsylvania","lat":40.18126,"lng":-79.64982,"zip":"15679","miles_from_dt":18.13},{"city":"White","state_name":"Pennsylvania","lat":40.06782,"lng":-79.45327,"zip":"15490","miles_from_dt":18.21},{"city":"Yukon","state_name":"Pennsylvania","lat":40.2167,"lng":-79.68894,"zip":"15698","miles_from_dt":18.84},{"city":"Jennerstown","state_name":"Pennsylvania","lat":40.1629,"lng":-79.07019,"zip":"15547","miles_from_dt":18.85},{"city":"Herminie","state_name":"Pennsylvania","lat":40.26125,"lng":-79.71203,"zip":"15637","miles_from_dt":19.06},{"city":"Larimer","state_name":"Pennsylvania","lat":40.34262,"lng":-79.72009,"zip":"15647","miles_from_dt":19.06},{"city":"Irwin","state_name":"Pennsylvania","lat":40.32045,"lng":-79.72119,"zip":"15642","miles_from_dt":19.07},{"city":"Gray","state_name":"Pennsylvania","lat":40.13254,"lng":-79.09656,"zip":"15544","miles_from_dt":19.1},{"city":"Murrysville","state_name":"Pennsylvania","lat":40.46352,"lng":-79.67168,"zip":"15668","miles_from_dt":19.12},{"city":"Armagh","state_name":"Pennsylvania","lat":40.46705,"lng":-79.05006,"zip":"15920","miles_from_dt":19.18},{"city":"Apollo","state_name":"Pennsylvania","lat":40.55355,"lng":-79.56577,"zip":"15613","miles_from_dt":19.31},{"city":"West Lebanon","state_name":"Pennsylvania","lat":40.60297,"lng":-79.34495,"zip":"15783","miles_from_dt":19.41},{"city":"Rillton","state_name":"Pennsylvania","lat":40.28447,"lng":-79.72579,"zip":"15678","miles_from_dt":19.49},{"city":"Scottdale","state_name":"Pennsylvania","lat":40.10926,"lng":-79.60492,"zip":"15683","miles_from_dt":19.57},{"city":"Lucernemines","state_name":"Pennsylvania","lat":40.55667,"lng":-79.15152,"zip":"15754","miles_from_dt":19.58},{"city":"Wyano","state_name":"Pennsylvania","lat":40.19707,"lng":-79.69284,"zip":"15695","miles_from_dt":19.59},{"city":"Trafford","state_name":"Pennsylvania","lat":40.38497,"lng":-79.72539,"zip":"15085","miles_from_dt":19.77},{"city":"Champion","state_name":"Pennsylvania","lat":40.0356,"lng":-79.31724,"zip":"15622","miles_from_dt":19.88},{"city":"Ardara","state_name":"Pennsylvania","lat":40.36133,"lng":-79.73397,"zip":"15615","miles_from_dt":19.93},{"city":"Everson","state_name":"Pennsylvania","lat":40.08968,"lng":-79.58527,"zip":"15631","miles_from_dt":19.97},{"city":"Homer City","state_name":"Pennsylvania","lat":40.52489,"lng":-79.087,"zip":"15748","miles_from_dt":20.09},{"city":"Indian Head","state_name":"Pennsylvania","lat":40.03172,"lng":-79.39433,"zip":"15446","miles_from_dt":20.1},{"city":"Seward","state_name":"Pennsylvania","lat":40.41837,"lng":-79.00051,"zip":"15954","miles_from_dt":20.11},{"city":"Johnstown","state_name":"Pennsylvania","lat":40.29423,"lng":-78.98035,"zip":"15905","miles_from_dt":20.15},{"city":"Hidden Valley","state_name":"Pennsylvania","lat":40.03641,"lng":-79.25176,"zip":"15502","miles_from_dt":20.52},{"city":"Spring Church","state_name":"Pennsylvania","lat":40.61802,"lng":-79.43635,"zip":"15686","miles_from_dt":20.82},{"city":"Hutchinson","state_name":"Pennsylvania","lat":40.22315,"lng":-79.73243,"zip":"15640","miles_from_dt":20.83},{"city":"Jenners","state_name":"Pennsylvania","lat":40.13717,"lng":-79.04758,"zip":"15546","miles_from_dt":20.87},{"city":"West Newton","state_name":"Pennsylvania","lat":40.22063,"lng":-79.73719,"zip":"15089","miles_from_dt":21.12},{"city":"Sipesville","state_name":"Pennsylvania","lat":40.09379,"lng":-79.0907,"zip":"15561","miles_from_dt":21.23},{"city":"Jerome","state_name":"Pennsylvania","lat":40.21463,"lng":-78.98105,"zip":"15937","miles_from_dt":21.36},{"city":"Quecreek","state_name":"Pennsylvania","lat":40.09758,"lng":-79.08132,"zip":"15555","miles_from_dt":21.38},{"city":"North Apollo","state_name":"Pennsylvania","lat":40.59383,"lng":-79.55634,"zip":"15673","miles_from_dt":21.42},{"city":"Normalville","state_name":"Pennsylvania","lat":40.01366,"lng":-79.41861,"zip":"15469","miles_from_dt":21.49},{"city":"Brush Valley","state_name":"Pennsylvania","lat":40.53896,"lng":-79.06625,"zip":"15720","miles_from_dt":21.55},{"city":"Dilltown","state_name":"Pennsylvania","lat":40.47683,"lng":-79.0042,"zip":"15929","miles_from_dt":21.6},{"city":"Acosta","state_name":"Pennsylvania","lat":40.10626,"lng":-79.06017,"zip":"15520","miles_from_dt":21.75},{"city":"East Vandergrift","state_name":"Pennsylvania","lat":40.59731,"lng":-79.56304,"zip":"15629","miles_from_dt":21.81},{"city":"Smithton","state_name":"Pennsylvania","lat":40.15224,"lng":-79.71329,"zip":"15479","miles_from_dt":22.04},{"city":"Monroeville","state_name":"Pennsylvania","lat":40.4264,"lng":-79.76005,"zip":"15146","miles_from_dt":22.3},{"city":"Hollsopple","state_name":"Pennsylvania","lat":40.20112,"lng":-78.96755,"zip":"15935","miles_from_dt":22.36},{"city":"Lowber","state_name":"Pennsylvania","lat":40.24669,"lng":-79.77293,"zip":"15660","miles_from_dt":22.42},{"city":"Connellsville","state_name":"Pennsylvania","lat":40.02702,"lng":-79.55411,"zip":"15425","miles_from_dt":22.79},{"city":"Johnstown","state_name":"Pennsylvania","lat":40.37806,"lng":-78.93356,"zip":"15906","miles_from_dt":22.85},{"city":"Pitcairn","state_name":"Pennsylvania","lat":40.4073,"lng":-79.7783,"zip":"15140","miles_from_dt":22.85},{"city":"Pittsburgh","state_name":"Pennsylvania","lat":40.48437,"lng":-79.73753,"zip":"15239","miles_from_dt":22.85},{"city":"Indiana","state_name":"Pennsylvania","lat":40.61588,"lng":-79.15983,"zip":"15705","miles_from_dt":22.86},{"city":"Greenock","state_name":"Pennsylvania","lat":40.3123,"lng":-79.79513,"zip":"15047","miles_from_dt":22.99},{"city":"Somerset","state_name":"Pennsylvania","lat":40.03582,"lng":-79.13024,"zip":"15501","miles_from_dt":23.19},{"city":"Shelocta","state_name":"Pennsylvania","lat":40.65729,"lng":-79.32508,"zip":"15774","miles_from_dt":23.21},{"city":"Coulters","state_name":"Pennsylvania","lat":40.30194,"lng":-79.79891,"zip":"15028","miles_from_dt":23.22},{"city":"Johnstown","state_name":"Pennsylvania","lat":40.33,"lng":-78.92001,"zip":"15907","miles_from_dt":23.25},{"city":"Sutersville","state_name":"Pennsylvania","lat":40.24802,"lng":-79.79041,"zip":"15083","miles_from_dt":23.3},{"city":"Mckeesport","state_name":"Pennsylvania","lat":40.33477,"lng":-79.80132,"zip":"15131","miles_from_dt":23.32},{"city":"Buena Vista","state_name":"Pennsylvania","lat":40.26924,"lng":-79.79805,"zip":"15018","miles_from_dt":23.42},{"city":"Wilmerding","state_name":"Pennsylvania","lat":40.39351,"lng":-79.79525,"zip":"15148","miles_from_dt":23.5},{"city":"Johnstown","state_name":"Pennsylvania","lat":40.32845,"lng":-78.9146,"zip":"15901","miles_from_dt":23.53},{"city":"Jacobs Creek","state_name":"Pennsylvania","lat":40.13572,"lng":-79.73394,"zip":"15448","miles_from_dt":23.58},{"city":"Tire Hill","state_name":"Pennsylvania","lat":40.26919,"lng":-78.91523,"zip":"15959","miles_from_dt":23.78},{"city":"Dawson","state_name":"Pennsylvania","lat":40.0811,"lng":-79.68184,"zip":"15428","miles_from_dt":23.79},{"city":"Mckeesport","state_name":"Pennsylvania","lat":40.29959,"lng":-79.81153,"zip":"15135","miles_from_dt":23.9},{"city":"Indiana","state_name":"Pennsylvania","lat":40.62935,"lng":-79.15056,"zip":"15701","miles_from_dt":23.91},{"city":"East McKeesport","state_name":"Pennsylvania","lat":40.38488,"lng":-79.80726,"zip":"15035","miles_from_dt":24},{"city":"North Versailles","state_name":"Pennsylvania","lat":40.37762,"lng":-79.80902,"zip":"15137","miles_from_dt":24.01},{"city":"Davidsville","state_name":"Pennsylvania","lat":40.23943,"lng":-78.91591,"zip":"15928","miles_from_dt":24.15},{"city":"Vintondale","state_name":"Pennsylvania","lat":40.46187,"lng":-78.9382,"zip":"15961","miles_from_dt":24.26},{"city":"Vandergrift","state_name":"Pennsylvania","lat":40.6455,"lng":-79.54243,"zip":"15690","miles_from_dt":24.31},{"city":"Hyde Park","state_name":"Pennsylvania","lat":40.63151,"lng":-79.58909,"zip":"15641","miles_from_dt":24.53},{"city":"New Kensington","state_name":"Pennsylvania","lat":40.56241,"lng":-79.7124,"zip":"15068","miles_from_dt":24.91},{"city":"Dickerson Run","state_name":"Pennsylvania","lat":40.04025,"lng":-79.65534,"zip":"15430","miles_from_dt":24.94},{"city":"Turtle Creek","state_name":"Pennsylvania","lat":40.41451,"lng":-79.82352,"zip":"15145","miles_from_dt":25.28},{"city":"Johnstown","state_name":"Pennsylvania","lat":40.32,"lng":-78.87911,"zip":"15902","miles_from_dt":25.4},{"city":"Wickhaven","state_name":"Pennsylvania","lat":40.11974,"lng":-79.76306,"zip":"15492","miles_from_dt":25.47},{"city":"Mckeesport","state_name":"Pennsylvania","lat":40.33982,"lng":-79.84299,"zip":"15132","miles_from_dt":25.53},{"city":"East Pittsburgh","state_name":"Pennsylvania","lat":40.40453,"lng":-79.83734,"zip":"15112","miles_from_dt":25.83},{"city":"Leechburg","state_name":"Pennsylvania","lat":40.64114,"lng":-79.61981,"zip":"15656","miles_from_dt":25.93},{"city":"Seanor","state_name":"Pennsylvania","lat":40.21113,"lng":-78.89049,"zip":"15953","miles_from_dt":25.97},{"city":"Elderton","state_name":"Pennsylvania","lat":40.69945,"lng":-79.36946,"zip":"15736","miles_from_dt":26.05},{"city":"Parkhill","state_name":"Pennsylvania","lat":40.35909,"lng":-78.86867,"zip":"15945","miles_from_dt":26.07},{"city":"Duquesne","state_name":"Pennsylvania","lat":40.37321,"lng":-79.85024,"zip":"15110","miles_from_dt":26.12},{"city":"Pittsburgh","state_name":"Pennsylvania","lat":40.45968,"lng":-79.82194,"zip":"15235","miles_from_dt":26.16},{"city":"Elizabeth","state_name":"Pennsylvania","lat":40.25649,"lng":-79.85017,"zip":"15037","miles_from_dt":26.29},{"city":"Belle Vernon","state_name":"Pennsylvania","lat":40.15871,"lng":-79.81188,"zip":"15012","miles_from_dt":26.41},{"city":"Johnstown","state_name":"Pennsylvania","lat":40.30833,"lng":-78.85929,"zip":"15915","miles_from_dt":26.47},{"city":"Mckeesport","state_name":"Pennsylvania","lat":40.3257,"lng":-79.86127,"zip":"15133","miles_from_dt":26.47},{"city":"Johnstown","state_name":"Pennsylvania","lat":40.40783,"lng":-78.87047,"zip":"15909","miles_from_dt":26.51},{"city":"Leisenring","state_name":"Pennsylvania","lat":40.00614,"lng":-79.64609,"zip":"15455","miles_from_dt":26.53},{"city":"Mckeesport","state_name":"Pennsylvania","lat":40.34719,"lng":-79.86423,"zip":"15134","miles_from_dt":26.68},{"city":"Ernest","state_name":"Pennsylvania","lat":40.67875,"lng":-79.16454,"zip":"15739","miles_from_dt":26.69},{"city":"New Kensington","state_name":"Pennsylvania","lat":40.56968,"lng":-79.74932,"zip":"15069","miles_from_dt":26.71},{"city":"Kantner","state_name":"Pennsylvania","lat":40.10445,"lng":-78.93981,"zip":"15548","miles_from_dt":26.82},{"city":"Hooversville","state_name":"Pennsylvania","lat":40.16221,"lng":-78.89584,"zip":"15936","miles_from_dt":26.91},{"city":"Penn Run","state_name":"Pennsylvania","lat":40.59661,"lng":-78.99574,"zip":"15765","miles_from_dt":26.98},{"city":"Braddock","state_name":"Pennsylvania","lat":40.40379,"lng":-79.86249,"zip":"15104","miles_from_dt":27.11},{"city":"Springdale","state_name":"Pennsylvania","lat":40.54759,"lng":-79.78317,"zip":"15144","miles_from_dt":27.2},{"city":"Johnstown","state_name":"Pennsylvania","lat":40.3056,"lng":-78.84382,"zip":"15904","miles_from_dt":27.29},{"city":"Stoystown","state_name":"Pennsylvania","lat":40.0962,"lng":-78.93618,"zip":"15563","miles_from_dt":27.3},{"city":"Webster","state_name":"Pennsylvania","lat":40.19504,"lng":-79.84948,"zip":"15087","miles_from_dt":27.31},{"city":"Listie","state_name":"Pennsylvania","lat":40.02929,"lng":-79.01269,"zip":"15549","miles_from_dt":27.31},{"city":"Vanderbilt","state_name":"Pennsylvania","lat":40.02762,"lng":-79.70981,"zip":"15486","miles_from_dt":27.48},{"city":"Verona","state_name":"Pennsylvania","lat":40.49704,"lng":-79.82858,"zip":"15147","miles_from_dt":27.51},{"city":"Friedens","state_name":"Pennsylvania","lat":40.04905,"lng":-78.98076,"zip":"15541","miles_from_dt":27.52},{"city":"Ford City","state_name":"Pennsylvania","lat":40.71139,"lng":-79.48608,"zip":"16226","miles_from_dt":27.68},{"city":"Mill Run","state_name":"Pennsylvania","lat":39.92463,"lng":-79.43695,"zip":"15464","miles_from_dt":27.71},{"city":"Glassport","state_name":"Pennsylvania","lat":40.32613,"lng":-79.88614,"zip":"15045","miles_from_dt":27.78},{"city":"Pittsburgh","state_name":"Pennsylvania","lat":40.43457,"lng":-79.86631,"zip":"15221","miles_from_dt":27.82},{"city":"Perryopolis","state_name":"Pennsylvania","lat":40.07256,"lng":-79.77352,"zip":"15473","miles_from_dt":27.83},{"city":"Star Junction","state_name":"Pennsylvania","lat":40.06073,"lng":-79.76645,"zip":"15482","miles_from_dt":28.06},{"city":"Dravosburg","state_name":"Pennsylvania","lat":40.35083,"lng":-79.89067,"zip":"15034","miles_from_dt":28.09},{"city":"Brackenridge","state_name":"Pennsylvania","lat":40.60859,"lng":-79.74149,"zip":"15014","miles_from_dt":28.2},{"city":"Chambersville","state_name":"Pennsylvania","lat":40.70066,"lng":-79.1582,"zip":"15723","miles_from_dt":28.21},{"city":"Rockwood","state_name":"Pennsylvania","lat":39.92757,"lng":-79.20945,"zip":"15557","miles_from_dt":28.35},{"city":"Harwick","state_name":"Pennsylvania","lat":40.55545,"lng":-79.80366,"zip":"15049","miles_from_dt":28.4},{"city":"Donora","state_name":"Pennsylvania","lat":40.18011,"lng":-79.86501,"zip":"15033","miles_from_dt":28.43},{"city":"West Elizabeth","state_name":"Pennsylvania","lat":40.27159,"lng":-79.89607,"zip":"15088","miles_from_dt":28.53},{"city":"Oakmont","state_name":"Pennsylvania","lat":40.52192,"lng":-79.83479,"zip":"15139","miles_from_dt":28.59},{"city":"Strongstown","state_name":"Pennsylvania","lat":40.53953,"lng":-78.89744,"zip":"15957","miles_from_dt":28.64},{"city":"Creighton","state_name":"Pennsylvania","lat":40.58492,"lng":-79.78074,"zip":"15030","miles_from_dt":28.65},{"city":"Dunbar","state_name":"Pennsylvania","lat":39.94066,"lng":-79.58075,"zip":"15431","miles_from_dt":28.78},{"city":"Pittsburgh","state_name":"Pennsylvania","lat":40.42366,"lng":-79.88924,"zip":"15218","miles_from_dt":28.79},{"city":"Belsano","state_name":"Pennsylvania","lat":40.51853,"lng":-78.87794,"zip":"15922","miles_from_dt":28.82},{"city":"Schenley","state_name":"Pennsylvania","lat":40.68301,"lng":-79.63696,"zip":"15682","miles_from_dt":28.87},{"city":"West Mifflin","state_name":"Pennsylvania","lat":40.35976,"lng":-79.90628,"zip":"15122","miles_from_dt":28.96},{"city":"Creekside","state_name":"Pennsylvania","lat":40.72829,"lng":-79.21336,"zip":"15732","miles_from_dt":29.08},{"city":"Pricedale","state_name":"Pennsylvania","lat":40.13922,"lng":-79.85605,"zip":"15072","miles_from_dt":29.1},{"city":"Homestead","state_name":"Pennsylvania","lat":40.39597,"lng":-79.90689,"zip":"15120","miles_from_dt":29.31},{"city":"Natrona Heights","state_name":"Pennsylvania","lat":40.64192,"lng":-79.72766,"zip":"15065","miles_from_dt":29.37},{"city":"Twin Rocks","state_name":"Pennsylvania","lat":40.49848,"lng":-78.85184,"zip":"15960","miles_from_dt":29.44},{"city":"Mineral Point","state_name":"Pennsylvania","lat":40.40584,"lng":-78.81215,"zip":"15942","miles_from_dt":29.49},{"city":"Nanty Glo","state_name":"Pennsylvania","lat":40.47437,"lng":-78.83513,"zip":"15943","miles_from_dt":29.62},{"city":"Clairton","state_name":"Pennsylvania","lat":40.29887,"lng":-79.9213,"zip":"15025","miles_from_dt":29.69},{"city":"Pittsburgh","state_name":"Pennsylvania","lat":40.45387,"lng":-79.89883,"zip":"15208","miles_from_dt":29.85},{"city":"Somerset","state_name":"Pennsylvania","lat":39.96435,"lng":-79.04009,"zip":"15510","miles_from_dt":29.93},{"city":"Elton","state_name":"Pennsylvania","lat":40.28107,"lng":-78.79589,"zip":"15934","miles_from_dt":29.94}],"targetCityZipCode":"15661","targetCityState":"Pennsylvania"},"__N_SSG":true}