{"pageProps":{"stateName":"Georgia","cityName":"baconton","nearbyCities":[{"city":"Sale City","state_name":"Georgia","lat":31.25671,"lng":-84.0431,"zip":"31784","miles_from_dt":8.58},{"city":"Putney","state_name":"Georgia","lat":31.46532,"lng":-83.98368,"zip":"31782","miles_from_dt":10.36},{"city":"Albany","state_name":"Georgia","lat":31.51169,"lng":-84.05333,"zip":"31705","miles_from_dt":10.72},{"city":"Doerun","state_name":"Georgia","lat":31.33709,"lng":-83.90646,"zip":"31744","miles_from_dt":12.45},{"city":"Albany","state_name":"Georgia","lat":31.551,"lng":-84.05634,"zip":"31704","miles_from_dt":13.26},{"city":"Albany","state_name":"Georgia","lat":31.57376,"lng":-84.15508,"zip":"31701","miles_from_dt":14.57},{"city":"Albany","state_name":"Georgia","lat":31.57707,"lng":-84.15307,"zip":"31703","miles_from_dt":14.78},{"city":"Camilla","state_name":"Georgia","lat":31.20749,"lng":-84.28438,"zip":"31730","miles_from_dt":14.8},{"city":"Albany","state_name":"Georgia","lat":31.5087,"lng":-84.30331,"zip":"31721","miles_from_dt":14.91},{"city":"Albany","state_name":"Georgia","lat":31.57908,"lng":-84.15624,"zip":"31706","miles_from_dt":14.95},{"city":"Albany","state_name":"Georgia","lat":31.59339,"lng":-84.14105,"zip":"31708","miles_from_dt":15.81},{"city":"Hartsfield","state_name":"Georgia","lat":31.17558,"lng":-83.96224,"zip":"31756","miles_from_dt":15.86},{"city":"Albany","state_name":"Georgia","lat":31.58736,"lng":-84.20689,"zip":"31707","miles_from_dt":16.26},{"city":"Cotton","state_name":"Georgia","lat":31.12337,"lng":-84.15268,"zip":"31739","miles_from_dt":16.81},{"city":"Albany","state_name":"Georgia","lat":31.59825,"lng":-84.19996,"zip":"31702","miles_from_dt":16.84},{"city":"Newton","state_name":"Georgia","lat":31.31944,"lng":-84.41071,"zip":"39870","miles_from_dt":17.8},{"city":"Sylvester","state_name":"Georgia","lat":31.53383,"lng":-83.87833,"zip":"31791","miles_from_dt":18.15},{"city":"Funston","state_name":"Georgia","lat":31.20044,"lng":-83.87287,"zip":"31753","miles_from_dt":18.25},{"city":"Pelham","state_name":"Georgia","lat":31.10032,"lng":-84.19117,"zip":"31779","miles_from_dt":18.8},{"city":"Meigs","state_name":"Georgia","lat":31.09514,"lng":-84.0346,"zip":"31765","miles_from_dt":19.19},{"city":"Moultrie","state_name":"Georgia","lat":31.19329,"lng":-83.84047,"zip":"31768","miles_from_dt":20.07},{"city":"Poulan","state_name":"Georgia","lat":31.56062,"lng":-83.79316,"zip":"31781","miles_from_dt":23.27},{"city":"Moultrie","state_name":"Georgia","lat":31.15565,"lng":-83.7939,"zip":"31776","miles_from_dt":23.84},{"city":"Sumner","state_name":"Georgia","lat":31.47858,"lng":-83.73257,"zip":"31789","miles_from_dt":23.88},{"city":"Leary","state_name":"Georgia","lat":31.45694,"lng":-84.51615,"zip":"39862","miles_from_dt":24.56},{"city":"Leesburg","state_name":"Georgia","lat":31.73889,"lng":-84.14711,"zip":"31763","miles_from_dt":25.82},{"city":"Oakfield","state_name":"Georgia","lat":31.72213,"lng":-83.96504,"zip":"31772","miles_from_dt":26.13},{"city":"Ochlocknee","state_name":"Georgia","lat":30.97795,"lng":-84.04624,"zip":"31773","miles_from_dt":26.98},{"city":"Ty Ty","state_name":"Georgia","lat":31.47611,"lng":-83.67633,"zip":"31795","miles_from_dt":26.99},{"city":"Sasser","state_name":"Georgia","lat":31.72189,"lng":-84.34304,"zip":"39885","miles_from_dt":28.04},{"city":"Coolidge","state_name":"Georgia","lat":31.01133,"lng":-83.87502,"zip":"31738","miles_from_dt":28.2},{"city":"Norman Park","state_name":"Georgia","lat":31.24332,"lng":-83.64775,"zip":"31771","miles_from_dt":28.85},{"city":"Cairo","state_name":"Georgia","lat":30.94911,"lng":-84.21674,"zip":"39827","miles_from_dt":29.29}],"targetCityZipCode":"31716","targetCityState":"Georgia"},"__N_SSG":true}