{"pageProps":{"stateName":"Georgia","cityName":"elberton","nearbyCities":[{"city":"Dewy Rose","state_name":"Georgia","lat":34.20307,"lng":-82.94522,"zip":"30634","miles_from_dt":10.72},{"city":"Lowndesville","state_name":"South Carolina","lat":34.21167,"lng":-82.64535,"zip":"29659","miles_from_dt":11.65},{"city":"Carlton","state_name":"Georgia","lat":33.98264,"lng":-82.96265,"zip":"30627","miles_from_dt":12.45},{"city":"Calhoun Falls","state_name":"South Carolina","lat":34.09253,"lng":-82.55821,"zip":"29628","miles_from_dt":13.97},{"city":"Iva","state_name":"South Carolina","lat":34.267,"lng":-82.64032,"zip":"29655","miles_from_dt":14.57},{"city":"Bowman","state_name":"Georgia","lat":34.18097,"lng":-83.03885,"zip":"30624","miles_from_dt":14.62},{"city":"Tignall","state_name":"Georgia","lat":33.90835,"lng":-82.69486,"zip":"30668","miles_from_dt":14.77},{"city":"Mount Carmel","state_name":"South Carolina","lat":33.99797,"lng":-82.52749,"zip":"29840","miles_from_dt":17.32},{"city":"Comer","state_name":"Georgia","lat":34.07779,"lng":-83.11625,"zip":"30629","miles_from_dt":18.14},{"city":"Hartwell","state_name":"Georgia","lat":34.36464,"lng":-82.91143,"zip":"30643","miles_from_dt":19.07},{"city":"Starr","state_name":"South Carolina","lat":34.3791,"lng":-82.72722,"zip":"29684","miles_from_dt":19.47},{"city":"Lexington","state_name":"Georgia","lat":33.87577,"lng":-83.03319,"zip":"30648","miles_from_dt":20.57},{"city":"Abbeville","state_name":"South Carolina","lat":34.1813,"lng":-82.42804,"zip":"29620","miles_from_dt":22.06},{"city":"Royston","state_name":"Georgia","lat":34.26383,"lng":-83.14624,"zip":"30662","miles_from_dt":22.63},{"city":"Canon","state_name":"Georgia","lat":34.33833,"lng":-83.08661,"zip":"30520","miles_from_dt":22.99},{"city":"Bowersville","state_name":"Georgia","lat":34.37535,"lng":-83.03748,"zip":"30516","miles_from_dt":23.1},{"city":"Franklin Springs","state_name":"Georgia","lat":34.28283,"lng":-83.15232,"zip":"30639","miles_from_dt":23.59},{"city":"Rayle","state_name":"Georgia","lat":33.78237,"lng":-82.94369,"zip":"30660","miles_from_dt":23.59},{"city":"Colbert","state_name":"Georgia","lat":34.03115,"lng":-83.21364,"zip":"30628","miles_from_dt":24.16},{"city":"Crawford","state_name":"Georgia","lat":33.89894,"lng":-83.14366,"zip":"30630","miles_from_dt":24.18},{"city":"Anderson","state_name":"South Carolina","lat":34.46004,"lng":-82.76057,"zip":"29626","miles_from_dt":24.69},{"city":"Anderson","state_name":"South Carolina","lat":34.43778,"lng":-82.62553,"zip":"29624","miles_from_dt":25.15},{"city":"Danielsville","state_name":"Georgia","lat":34.17896,"lng":-83.24612,"zip":"30633","miles_from_dt":26.01},{"city":"Due West","state_name":"South Carolina","lat":34.31402,"lng":-82.4205,"zip":"29639","miles_from_dt":26.2},{"city":"Washington","state_name":"Georgia","lat":33.72716,"lng":-82.71594,"zip":"30673","miles_from_dt":26.4},{"city":"Winterville","state_name":"Georgia","lat":33.94703,"lng":-83.25775,"zip":"30683","miles_from_dt":28.32},{"city":"Anderson","state_name":"South Carolina","lat":34.49972,"lng":-82.66071,"zip":"29622","miles_from_dt":28.47},{"city":"Ila","state_name":"Georgia","lat":34.17269,"lng":-83.29241,"zip":"30647","miles_from_dt":28.54},{"city":"Lavonia","state_name":"Georgia","lat":34.44473,"lng":-83.08771,"zip":"30553","miles_from_dt":28.66},{"city":"Maxeys","state_name":"Georgia","lat":33.77287,"lng":-83.10717,"zip":"30671","miles_from_dt":28.77},{"city":"Anderson","state_name":"South Carolina","lat":34.51984,"lng":-82.71706,"zip":"29623","miles_from_dt":29.1},{"city":"Hull","state_name":"Georgia","lat":34.08011,"lng":-83.31254,"zip":"30646","miles_from_dt":29.35},{"city":"Fair Play","state_name":"South Carolina","lat":34.50506,"lng":-82.97441,"zip":"29643","miles_from_dt":29.4},{"city":"Anderson","state_name":"South Carolina","lat":34.50598,"lng":-82.60328,"zip":"29621","miles_from_dt":29.97}],"targetCityZipCode":"30635","targetCityState":"Georgia"},"__N_SSG":true}