{"pageProps":{"stateName":"Georgia","cityName":"evans","nearbyCities":[{"city":"Augusta","state_name":"Georgia","lat":33.52193,"lng":-82.08596,"zip":"30907","miles_from_dt":5.03},{"city":"Clarks Hill","state_name":"South Carolina","lat":33.64242,"lng":-82.11667,"zip":"29821","miles_from_dt":6.59},{"city":"Augusta","state_name":"Georgia","lat":33.51674,"lng":-82.05777,"zip":"30917","miles_from_dt":6.66},{"city":"Grovetown","state_name":"Georgia","lat":33.47037,"lng":-82.2193,"zip":"30813","miles_from_dt":6.67},{"city":"Augusta","state_name":"Georgia","lat":33.47068,"lng":-82.08376,"zip":"30909","miles_from_dt":7.43},{"city":"Augusta","state_name":"Georgia","lat":33.47081,"lng":-82.06735,"zip":"30919","miles_from_dt":8.04},{"city":"Appling","state_name":"Georgia","lat":33.60215,"lng":-82.31832,"zip":"30802","miles_from_dt":9.49},{"city":"Augusta","state_name":"Georgia","lat":33.4087,"lng":-82.15073,"zip":"30905","miles_from_dt":10.13},{"city":"Augusta","state_name":"Georgia","lat":33.47864,"lng":-82.01315,"zip":"30904","miles_from_dt":10.16},{"city":"Augusta","state_name":"Georgia","lat":33.46703,"lng":-82.01743,"zip":"30914","miles_from_dt":10.4},{"city":"North Augusta","state_name":"South Carolina","lat":33.60667,"lng":-81.97776,"zip":"29860","miles_from_dt":11.29},{"city":"Augusta","state_name":"Georgia","lat":33.47021,"lng":-81.98789,"zip":"30912","miles_from_dt":11.71},{"city":"Augusta","state_name":"Georgia","lat":33.45618,"lng":-81.99184,"zip":"30999","miles_from_dt":12.04},{"city":"North Augusta","state_name":"South Carolina","lat":33.51754,"lng":-81.95859,"zip":"29861","miles_from_dt":12.11},{"city":"Harlem","state_name":"Georgia","lat":33.43604,"lng":-82.31879,"zip":"30814","miles_from_dt":12.16},{"city":"Modoc","state_name":"South Carolina","lat":33.73452,"lng":-82.1667,"zip":"29838","miles_from_dt":12.36},{"city":"Augusta","state_name":"Georgia","lat":33.41973,"lng":-82.01913,"zip":"30916","miles_from_dt":12.52},{"city":"Augusta","state_name":"Georgia","lat":33.47273,"lng":-81.96775,"zip":"30903","miles_from_dt":12.65},{"city":"North Augusta","state_name":"South Carolina","lat":33.52508,"lng":-81.93954,"zip":"29841","miles_from_dt":13.1},{"city":"Augusta","state_name":"Georgia","lat":33.43811,"lng":-81.95327,"zip":"30901","miles_from_dt":14.58},{"city":"Gracewood","state_name":"Georgia","lat":33.36731,"lng":-82.0291,"zip":"30812","miles_from_dt":15.1},{"city":"Clearwater","state_name":"South Carolina","lat":33.49771,"lng":-81.89357,"zip":"29822","miles_from_dt":16.08},{"city":"Parksville","state_name":"South Carolina","lat":33.78528,"lng":-82.2142,"zip":"29844","miles_from_dt":16.12},{"city":"Bath","state_name":"South Carolina","lat":33.50105,"lng":-81.87164,"zip":"29816","miles_from_dt":17.26},{"city":"Graniteville","state_name":"South Carolina","lat":33.57715,"lng":-81.85537,"zip":"29829","miles_from_dt":17.85},{"city":"Augusta","state_name":"Georgia","lat":33.34842,"lng":-81.97239,"zip":"30906","miles_from_dt":18.03},{"city":"Dearing","state_name":"Georgia","lat":33.38234,"lng":-82.40237,"zip":"30808","miles_from_dt":18.23},{"city":"Plum Branch","state_name":"South Carolina","lat":33.8231,"lng":-82.20788,"zip":"29845","miles_from_dt":18.64},{"city":"Langley","state_name":"South Carolina","lat":33.5178,"lng":-81.84216,"zip":"29834","miles_from_dt":18.73},{"city":"Beech Island","state_name":"South Carolina","lat":33.44559,"lng":-81.8645,"zip":"29842","miles_from_dt":18.85},{"city":"Blythe","state_name":"Georgia","lat":33.28012,"lng":-82.19936,"zip":"30805","miles_from_dt":19.07},{"city":"Hephzibah","state_name":"Georgia","lat":33.2869,"lng":-82.0829,"zip":"30815","miles_from_dt":19.07},{"city":"Gloverville","state_name":"South Carolina","lat":33.52299,"lng":-81.82891,"zip":"29828","miles_from_dt":19.44},{"city":"Warrenville","state_name":"South Carolina","lat":33.51098,"lng":-81.81597,"zip":"29851","miles_from_dt":20.29},{"city":"Boneville","state_name":"Georgia","lat":33.52663,"lng":-82.5134,"zip":"30806","miles_from_dt":20.29},{"city":"Edgefield","state_name":"South Carolina","lat":33.81647,"lng":-81.99666,"zip":"29824","miles_from_dt":20.41},{"city":"Thomson","state_name":"Georgia","lat":33.51586,"lng":-82.51467,"zip":"30824","miles_from_dt":20.44},{"city":"Trenton","state_name":"South Carolina","lat":33.69941,"lng":-81.84878,"zip":"29847","miles_from_dt":20.69},{"city":"Vaucluse","state_name":"South Carolina","lat":33.60853,"lng":-81.80544,"zip":"29850","miles_from_dt":20.98},{"city":"Lincolnton","state_name":"Georgia","lat":33.7746,"lng":-82.43469,"zip":"30817","miles_from_dt":21.74},{"city":"Matthews","state_name":"Georgia","lat":33.26765,"lng":-82.32646,"zip":"30818","miles_from_dt":21.94},{"city":"Jackson","state_name":"South Carolina","lat":33.33657,"lng":-81.84293,"zip":"29831","miles_from_dt":23.88},{"city":"Mesena","state_name":"Georgia","lat":33.46056,"lng":-82.59162,"zip":"30819","miles_from_dt":25.56},{"city":"Aiken","state_name":"South Carolina","lat":33.56256,"lng":-81.72033,"zip":"29802","miles_from_dt":25.58},{"city":"McCormick","state_name":"South Carolina","lat":33.91779,"lng":-82.29559,"zip":"29835","miles_from_dt":26.12},{"city":"McCormick","state_name":"South Carolina","lat":33.92801,"lng":-82.25064,"zip":"29899","miles_from_dt":26.18},{"city":"Keysville","state_name":"Georgia","lat":33.1639,"lng":-82.17061,"zip":"30816","miles_from_dt":26.97},{"city":"Aiken","state_name":"South Carolina","lat":33.58675,"lng":-81.69701,"zip":"29801","miles_from_dt":27},{"city":"Aiken","state_name":"South Carolina","lat":33.45889,"lng":-81.70076,"zip":"29803","miles_from_dt":27.53},{"city":"Wrens","state_name":"Georgia","lat":33.18934,"lng":-82.36014,"zip":"30833","miles_from_dt":27.66},{"city":"Johnston","state_name":"South Carolina","lat":33.83922,"lng":-81.80656,"zip":"29832","miles_from_dt":28.39},{"city":"Stapleton","state_name":"Georgia","lat":33.222,"lng":-82.45647,"zip":"30823","miles_from_dt":28.53},{"city":"Camak","state_name":"Georgia","lat":33.45517,"lng":-82.64777,"zip":"30807","miles_from_dt":28.79},{"city":"New Ellenton","state_name":"South Carolina","lat":33.41653,"lng":-81.6889,"zip":"29809","miles_from_dt":29.03}],"targetCityZipCode":"30809","targetCityState":"Georgia"},"__N_SSG":true}