{"pageProps":{"stateName":"Georgia","cityName":"garfield","nearbyCities":[{"city":"Portal","state_name":"Georgia","lat":32.55964,"lng":-81.93322,"zip":"30450","miles_from_dt":8.01},{"city":"Millen","state_name":"Georgia","lat":32.81677,"lng":-81.97549,"zip":"30442","miles_from_dt":12.01},{"city":"Twin City","state_name":"Georgia","lat":32.53816,"lng":-82.18563,"zip":"30471","miles_from_dt":12.09},{"city":"Rocky Ford","state_name":"Georgia","lat":32.70111,"lng":-81.80652,"zip":"30455","miles_from_dt":13.17},{"city":"Metter","state_name":"Georgia","lat":32.4169,"lng":-82.07112,"zip":"30439","miles_from_dt":16.12},{"city":"Midville","state_name":"Georgia","lat":32.81467,"lng":-82.23682,"zip":"30441","miles_from_dt":16.96},{"city":"Pulaski","state_name":"Georgia","lat":32.39325,"lng":-81.95622,"zip":"30451","miles_from_dt":17.94},{"city":"Dover","state_name":"Georgia","lat":32.57678,"lng":-81.71579,"zip":"30424","miles_from_dt":18.59},{"city":"Stillmore","state_name":"Georgia","lat":32.43509,"lng":-82.22186,"zip":"30464","miles_from_dt":18.66},{"city":"Swainsboro","state_name":"Georgia","lat":32.604,"lng":-82.34825,"zip":"30401","miles_from_dt":19.18},{"city":"Perkins","state_name":"Georgia","lat":32.91866,"lng":-81.94439,"zip":"30822","miles_from_dt":19.26},{"city":"Statesboro","state_name":"Georgia","lat":32.44755,"lng":-81.78129,"zip":"30459","miles_from_dt":19.73},{"city":"Statesboro","state_name":"Georgia","lat":32.5072,"lng":-81.71941,"zip":"30461","miles_from_dt":20.19},{"city":"Statesboro","state_name":"Georgia","lat":32.42718,"lng":-81.78272,"zip":"30460","miles_from_dt":20.67},{"city":"Statesboro","state_name":"Georgia","lat":32.39732,"lng":-81.82694,"zip":"30458","miles_from_dt":20.69},{"city":"Nunez","state_name":"Georgia","lat":32.48754,"lng":-82.36444,"zip":"30448","miles_from_dt":22.74},{"city":"Register","state_name":"Georgia","lat":32.31706,"lng":-81.89417,"zip":"30452","miles_from_dt":23.98},{"city":"Cobbtown","state_name":"Georgia","lat":32.30363,"lng":-82.12958,"zip":"30420","miles_from_dt":24.48},{"city":"Sylvania","state_name":"Georgia","lat":32.75114,"lng":-81.60468,"zip":"30467","miles_from_dt":25.42},{"city":"Wadley","state_name":"Georgia","lat":32.86279,"lng":-82.3979,"zip":"30477","miles_from_dt":26.38},{"city":"Sardis","state_name":"Georgia","lat":32.98137,"lng":-81.79246,"zip":"30456","miles_from_dt":26.65},{"city":"Norristown","state_name":"Georgia","lat":32.50395,"lng":-82.49446,"zip":"30447","miles_from_dt":29.21},{"city":"Kite","state_name":"Georgia","lat":32.68281,"lng":-82.52634,"zip":"31049","miles_from_dt":29.42}],"targetCityZipCode":"30425","targetCityState":"Georgia"},"__N_SSG":true}