{"pageProps":{"stateName":"Georgia","cityName":"moody-afb","nearbyCities":[{"city":"Valdosta","state_name":"Georgia","lat":30.93334,"lng":-83.23482,"zip":"31605","miles_from_dt":3.41},{"city":"Naylor","state_name":"Georgia","lat":30.93182,"lng":-83.09672,"zip":"31641","miles_from_dt":6.17},{"city":"Ray City","state_name":"Georgia","lat":31.06245,"lng":-83.21846,"zip":"31645","miles_from_dt":6.78},{"city":"Valdosta","state_name":"Georgia","lat":30.88111,"lng":-83.28047,"zip":"31604","miles_from_dt":7.88},{"city":"Valdosta","state_name":"Georgia","lat":30.87206,"lng":-83.28537,"zip":"31603","miles_from_dt":8.54},{"city":"Hahira","state_name":"Georgia","lat":30.9876,"lng":-83.36006,"zip":"31632","miles_from_dt":10.06},{"city":"Valdosta","state_name":"Georgia","lat":30.84749,"lng":-83.29051,"zip":"31698","miles_from_dt":10.07},{"city":"Stockton","state_name":"Georgia","lat":30.94349,"lng":-83.00781,"zip":"31649","miles_from_dt":11.07},{"city":"Valdosta","state_name":"Georgia","lat":30.86734,"lng":-83.34269,"zip":"31602","miles_from_dt":11.25},{"city":"Valdosta","state_name":"Georgia","lat":30.7963,"lng":-83.18647,"zip":"31606","miles_from_dt":11.74},{"city":"Cecil","state_name":"Georgia","lat":31.03923,"lng":-83.39238,"zip":"31627","miles_from_dt":12.88},{"city":"Lakeland","state_name":"Georgia","lat":31.103,"lng":-83.04317,"zip":"31635","miles_from_dt":12.91},{"city":"Lake Park","state_name":"Georgia","lat":30.7337,"lng":-83.1096,"zip":"31636","miles_from_dt":16.79},{"city":"Nashville","state_name":"Georgia","lat":31.21239,"lng":-83.19248,"zip":"31639","miles_from_dt":16.93},{"city":"Valdosta","state_name":"Georgia","lat":30.74772,"lng":-83.33968,"zip":"31601","miles_from_dt":17.44},{"city":"Adel","state_name":"Georgia","lat":31.11861,"lng":-83.43731,"zip":"31620","miles_from_dt":17.91},{"city":"Morven","state_name":"Georgia","lat":30.90627,"lng":-83.51589,"zip":"31638","miles_from_dt":19.66},{"city":"Barney","state_name":"Georgia","lat":30.9918,"lng":-83.52556,"zip":"31625","miles_from_dt":19.85},{"city":"Du Pont","state_name":"Georgia","lat":30.92354,"lng":-82.85667,"zip":"31630","miles_from_dt":20.15},{"city":"Statenville","state_name":"Georgia","lat":30.70834,"lng":-83.00838,"zip":"31648","miles_from_dt":20.89},{"city":"Sparks","state_name":"Georgia","lat":31.21033,"lng":-83.43158,"zip":"31647","miles_from_dt":21.98},{"city":"Quitman","state_name":"Georgia","lat":30.77061,"lng":-83.55859,"zip":"31643","miles_from_dt":25.61},{"city":"Berlin","state_name":"Georgia","lat":31.05492,"lng":-83.61559,"zip":"31722","miles_from_dt":25.84},{"city":"Lenox","state_name":"Georgia","lat":31.293,"lng":-83.44092,"zip":"31637","miles_from_dt":26.88},{"city":"Pearson","state_name":"Georgia","lat":31.25989,"lng":-82.88273,"zip":"31642","miles_from_dt":27.29},{"city":"Pinetta","state_name":"Florida","lat":30.58662,"lng":-83.32242,"zip":"32350","miles_from_dt":27.3},{"city":"Ellenton","state_name":"Georgia","lat":31.1753,"lng":-83.58736,"zip":"31747","miles_from_dt":27.48},{"city":"Homerville","state_name":"Georgia","lat":31.02867,"lng":-82.7321,"zip":"31634","miles_from_dt":27.65},{"city":"Jennings","state_name":"Florida","lat":30.56417,"lng":-83.1519,"zip":"32053","miles_from_dt":27.83},{"city":"Alapaha","state_name":"Georgia","lat":31.37446,"lng":-83.2023,"zip":"31622","miles_from_dt":28.1}],"targetCityZipCode":"31699","targetCityState":"Georgia"},"__N_SSG":true}