{"pageProps":{"stateName":"Georgia","cityName":"mountain-city","nearbyCities":[{"city":"Clayton","state_name":"Georgia","lat":34.91289,"lng":-83.35853,"zip":"30525","miles_from_dt":1.39},{"city":"Rabun Gap","state_name":"Georgia","lat":34.95348,"lng":-83.41218,"zip":"30568","miles_from_dt":2.92},{"city":"Dillard","state_name":"Georgia","lat":34.97855,"lng":-83.32975,"zip":"30537","miles_from_dt":5.04},{"city":"Tiger","state_name":"Georgia","lat":34.82682,"lng":-83.44539,"zip":"30576","miles_from_dt":7.33},{"city":"Scaly Mountain","state_name":"North Carolina","lat":35.01916,"lng":-83.32186,"zip":"28775","miles_from_dt":7.67},{"city":"Wiley","state_name":"Georgia","lat":34.80195,"lng":-83.42405,"zip":"30581","miles_from_dt":8.44},{"city":"Otto","state_name":"North Carolina","lat":35.03796,"lng":-83.43215,"zip":"28763","miles_from_dt":8.66},{"city":"Lakemont","state_name":"Georgia","lat":34.76965,"lng":-83.44575,"zip":"30552","miles_from_dt":10.94},{"city":"Long Creek","state_name":"South Carolina","lat":34.76191,"lng":-83.29858,"zip":"29658","miles_from_dt":11.84},{"city":"Tallulah Falls","state_name":"Georgia","lat":34.74242,"lng":-83.39986,"zip":"30573","miles_from_dt":12.24},{"city":"Mountain Rest","state_name":"South Carolina","lat":34.86393,"lng":-83.15991,"zip":"29664","miles_from_dt":13.17},{"city":"Highlands","state_name":"North Carolina","lat":35.06614,"lng":-83.21053,"zip":"28741","miles_from_dt":14.03},{"city":"Clarkesville","state_name":"Georgia","lat":34.72012,"lng":-83.54166,"zip":"30523","miles_from_dt":16.47},{"city":"Turnerville","state_name":"Georgia","lat":34.68976,"lng":-83.52623,"zip":"30580","miles_from_dt":17.83},{"city":"Franklin","state_name":"North Carolina","lat":35.18074,"lng":-83.38166,"zip":"28744","miles_from_dt":18.02},{"city":"Franklin","state_name":"North Carolina","lat":35.1825,"lng":-83.42599,"zip":"28734","miles_from_dt":18.31},{"city":"Hiawassee","state_name":"Georgia","lat":34.90673,"lng":-83.71016,"zip":"30546","miles_from_dt":18.67},{"city":"Tamassee","state_name":"South Carolina","lat":34.92858,"lng":-83.04541,"zip":"29686","miles_from_dt":19.11},{"city":"Cashiers","state_name":"North Carolina","lat":35.07131,"lng":-83.09458,"zip":"28717","miles_from_dt":19.37},{"city":"Walhalla","state_name":"South Carolina","lat":34.78547,"lng":-83.07669,"zip":"29691","miles_from_dt":19.64},{"city":"Hayesville","state_name":"North Carolina","lat":35.06185,"lng":-83.73041,"zip":"28904","miles_from_dt":22.08},{"city":"Toccoa Falls","state_name":"Georgia","lat":34.59663,"lng":-83.35411,"zip":"30598","miles_from_dt":22.3},{"city":"Sautee Nacoochee","state_name":"Georgia","lat":34.71219,"lng":-83.68322,"zip":"30571","miles_from_dt":22.31},{"city":"Westminster","state_name":"South Carolina","lat":34.65641,"lng":-83.15284,"zip":"29693","miles_from_dt":22.32},{"city":"West Union","state_name":"South Carolina","lat":34.77458,"lng":-83.00771,"zip":"29696","miles_from_dt":23.48},{"city":"Salem","state_name":"South Carolina","lat":34.93326,"lng":-82.96006,"zip":"29676","miles_from_dt":23.96},{"city":"Helen","state_name":"Georgia","lat":34.74208,"lng":-83.75813,"zip":"30545","miles_from_dt":24.64},{"city":"Glenville","state_name":"North Carolina","lat":35.18039,"lng":-83.0838,"zip":"28736","miles_from_dt":24.68},{"city":"Sapphire","state_name":"North Carolina","lat":35.08976,"lng":-82.99791,"zip":"28774","miles_from_dt":24.74},{"city":"Topton","state_name":"North Carolina","lat":35.21417,"lng":-83.63877,"zip":"28781","miles_from_dt":25},{"city":"Mount Airy","state_name":"Georgia","lat":34.5596,"lng":-83.46283,"zip":"30563","miles_from_dt":25.23},{"city":"Toccoa","state_name":"Georgia","lat":34.55549,"lng":-83.32632,"zip":"30577","miles_from_dt":25.28},{"city":"Richland","state_name":"South Carolina","lat":34.70479,"lng":-83.02001,"zip":"29675","miles_from_dt":25.33},{"city":"Demorest","state_name":"Georgia","lat":34.58063,"lng":-83.57652,"zip":"30535","miles_from_dt":25.85},{"city":"Seneca","state_name":"South Carolina","lat":34.75036,"lng":-82.94257,"zip":"29672","miles_from_dt":27.55},{"city":"Cullowhee","state_name":"North Carolina","lat":35.27776,"lng":-83.12195,"zip":"28723","miles_from_dt":28.76},{"city":"Eastanollee","state_name":"Georgia","lat":34.5035,"lng":-83.26888,"zip":"30538","miles_from_dt":29.38},{"city":"Young Harris","state_name":"Georgia","lat":34.9494,"lng":-83.89869,"zip":"30582","miles_from_dt":29.42},{"city":"Seneca","state_name":"South Carolina","lat":34.68597,"lng":-82.94482,"zip":"29679","miles_from_dt":29.6},{"city":"Newry","state_name":"South Carolina","lat":34.72399,"lng":-82.91413,"zip":"29665","miles_from_dt":29.8}],"targetCityZipCode":"30562","targetCityState":"Georgia"},"__N_SSG":true}