{"pageProps":{"stateName":"Georgia","cityName":"rockledge","nearbyCities":[{"city":"Soperton","state_name":"Georgia","lat":32.39852,"lng":-82.56498,"zip":"30457","miles_from_dt":10.27},{"city":"East Dublin","state_name":"Georgia","lat":32.57405,"lng":-82.81959,"zip":"31027","miles_from_dt":10.58},{"city":"Adrian","state_name":"Georgia","lat":32.54802,"lng":-82.59012,"zip":"31002","miles_from_dt":11.3},{"city":"Dublin","state_name":"Georgia","lat":32.49002,"lng":-82.93435,"zip":"31021","miles_from_dt":12.22},{"city":"Dublin","state_name":"Georgia","lat":32.54794,"lng":-82.90164,"zip":"31040","miles_from_dt":12.35},{"city":"Rentz","state_name":"Georgia","lat":32.35428,"lng":-82.95277,"zip":"31075","miles_from_dt":14.04},{"city":"Tarrytown","state_name":"Georgia","lat":32.33018,"lng":-82.51818,"zip":"30470","miles_from_dt":14.67},{"city":"Norristown","state_name":"Georgia","lat":32.50395,"lng":-82.49446,"zip":"30447","miles_from_dt":14.71},{"city":"Glenwood","state_name":"Georgia","lat":32.21706,"lng":-82.71436,"zip":"30428","miles_from_dt":15.31},{"city":"Dexter","state_name":"Georgia","lat":32.42622,"lng":-83.0534,"zip":"31019","miles_from_dt":18.67},{"city":"Wrightsville","state_name":"Georgia","lat":32.71875,"lng":-82.70636,"zip":"31096","miles_from_dt":19.37},{"city":"Cadwell","state_name":"Georgia","lat":32.27636,"lng":-83.00564,"zip":"31009","miles_from_dt":19.42},{"city":"Mount Vernon","state_name":"Georgia","lat":32.16715,"lng":-82.58413,"zip":"30445","miles_from_dt":20.66},{"city":"Kite","state_name":"Georgia","lat":32.68281,"lng":-82.52634,"zip":"31049","miles_from_dt":20.75},{"city":"Ailey","state_name":"Georgia","lat":32.18655,"lng":-82.51767,"zip":"30410","miles_from_dt":21.5},{"city":"Alamo","state_name":"Georgia","lat":32.1254,"lng":-82.79362,"zip":"30411","miles_from_dt":21.86},{"city":"Nunez","state_name":"Georgia","lat":32.48754,"lng":-82.36444,"zip":"30448","miles_from_dt":21.86},{"city":"Dudley","state_name":"Georgia","lat":32.51216,"lng":-83.10954,"zip":"31022","miles_from_dt":22.5},{"city":"Vidalia","state_name":"Georgia","lat":32.22393,"lng":-82.41381,"zip":"30474","miles_from_dt":23.88},{"city":"McRae Helena","state_name":"Georgia","lat":32.12056,"lng":-82.93245,"zip":"31037","miles_from_dt":24.8},{"city":"Vidalia","state_name":"Georgia","lat":32.21108,"lng":-82.40389,"zip":"30475","miles_from_dt":24.88},{"city":"Swainsboro","state_name":"Georgia","lat":32.604,"lng":-82.34825,"zip":"30401","miles_from_dt":25.25},{"city":"Chester","state_name":"Georgia","lat":32.39422,"lng":-83.17717,"zip":"31012","miles_from_dt":26.07},{"city":"Montrose","state_name":"Georgia","lat":32.56301,"lng":-83.16642,"zip":"31065","miles_from_dt":26.66},{"city":"Scotland","state_name":"Georgia","lat":32.04473,"lng":-82.81957,"zip":"31083","miles_from_dt":27.59},{"city":"Harrison","state_name":"Georgia","lat":32.84601,"lng":-82.7062,"zip":"31035","miles_from_dt":28.12},{"city":"Chauncey","state_name":"Georgia","lat":32.13315,"lng":-83.0556,"zip":"31011","miles_from_dt":28.23},{"city":"Alston","state_name":"Georgia","lat":32.07973,"lng":-82.48643,"zip":"30412","miles_from_dt":28.67},{"city":"Tennille","state_name":"Georgia","lat":32.85239,"lng":-82.86361,"zip":"31089","miles_from_dt":29.5},{"city":"Stillmore","state_name":"Georgia","lat":32.43509,"lng":-82.22186,"zip":"30464","miles_from_dt":29.94}],"targetCityZipCode":"30454","targetCityState":"Georgia"},"__N_SSG":true}