{"pageProps":{"stateName":"Georgia","cityName":"social-circle","nearbyCities":[{"city":"Rutledge","state_name":"Georgia","lat":33.61572,"lng":-83.60357,"zip":"30663","miles_from_dt":6.17},{"city":"Jersey","state_name":"Georgia","lat":33.71737,"lng":-83.80034,"zip":"30018","miles_from_dt":7.19},{"city":"Monroe","state_name":"Georgia","lat":33.78214,"lng":-83.69072,"zip":"30655","miles_from_dt":8.64},{"city":"Covington","state_name":"Georgia","lat":33.58109,"lng":-83.8191,"zip":"30014","miles_from_dt":8.69},{"city":"Covington","state_name":"Georgia","lat":33.60047,"lng":-83.85378,"zip":"30015","miles_from_dt":9.75},{"city":"Oxford","state_name":"Georgia","lat":33.67651,"lng":-83.87558,"zip":"30054","miles_from_dt":10.28},{"city":"Good Hope","state_name":"Georgia","lat":33.77872,"lng":-83.56456,"zip":"30641","miles_from_dt":11.41},{"city":"Newborn","state_name":"Georgia","lat":33.49496,"lng":-83.65068,"zip":"30056","miles_from_dt":11.5},{"city":"Bostwick","state_name":"Georgia","lat":33.73113,"lng":-83.51592,"zip":"30623","miles_from_dt":11.71},{"city":"Mansfield","state_name":"Georgia","lat":33.49055,"lng":-83.74224,"zip":"30055","miles_from_dt":11.74},{"city":"Porterdale","state_name":"Georgia","lat":33.5733,"lng":-83.89546,"zip":"30070","miles_from_dt":12.73},{"city":"Madison","state_name":"Georgia","lat":33.5907,"lng":-83.46693,"zip":"30650","miles_from_dt":14.12},{"city":"Monroe","state_name":"Georgia","lat":33.86302,"lng":-83.71903,"zip":"30656","miles_from_dt":14.25},{"city":"Conyers","state_name":"Georgia","lat":33.643,"lng":-83.97147,"zip":"30013","miles_from_dt":15.75},{"city":"Loganville","state_name":"Georgia","lat":33.81654,"lng":-83.89538,"zip":"30052","miles_from_dt":15.79},{"city":"High Shoals","state_name":"Georgia","lat":33.82076,"lng":-83.50247,"zip":"30645","miles_from_dt":15.98},{"city":"Bishop","state_name":"Georgia","lat":33.80194,"lng":-83.4791,"zip":"30621","miles_from_dt":16.12},{"city":"Shady Dale","state_name":"Georgia","lat":33.42557,"lng":-83.631,"zip":"31085","miles_from_dt":16.41},{"city":"Covington","state_name":"Georgia","lat":33.51836,"lng":-83.93073,"zip":"30016","miles_from_dt":16.44},{"city":"Farmington","state_name":"Georgia","lat":33.77004,"lng":-83.42241,"zip":"30638","miles_from_dt":17.72},{"city":"Conyers","state_name":"Georgia","lat":33.71739,"lng":-83.99913,"zip":"30012","miles_from_dt":17.8},{"city":"Norcross","state_name":"Georgia","lat":33.68081,"lng":-84.00732,"zip":"30003","miles_from_dt":17.86},{"city":"Bethlehem","state_name":"Georgia","lat":33.92917,"lng":-83.75958,"zip":"30620","miles_from_dt":19.09},{"city":"Watkinsville","state_name":"Georgia","lat":33.7929,"lng":-83.38186,"zip":"30677","miles_from_dt":20.51},{"city":"Bogart","state_name":"Georgia","lat":33.92041,"lng":-83.53076,"zip":"30622","miles_from_dt":20.57},{"city":"Conyers","state_name":"Georgia","lat":33.61243,"lng":-84.0555,"zip":"30094","miles_from_dt":20.8},{"city":"Snellville","state_name":"Georgia","lat":33.79871,"lng":-84.03414,"zip":"30039","miles_from_dt":21.65},{"city":"Statham","state_name":"Georgia","lat":33.95891,"lng":-83.58266,"zip":"30666","miles_from_dt":21.86},{"city":"Grayson","state_name":"Georgia","lat":33.88939,"lng":-83.96348,"zip":"30017","miles_from_dt":22.11},{"city":"Buckhead","state_name":"Georgia","lat":33.52128,"lng":-83.34211,"zip":"30625","miles_from_dt":22.59},{"city":"Lawrenceville","state_name":"Georgia","lat":33.93046,"lng":-83.93019,"zip":"30045","miles_from_dt":23.09},{"city":"Snellville","state_name":"Georgia","lat":33.86118,"lng":-84.01795,"zip":"30078","miles_from_dt":23.15},{"city":"Winder","state_name":"Georgia","lat":33.99725,"lng":-83.69743,"zip":"30680","miles_from_dt":23.46},{"city":"Lithonia","state_name":"Georgia","lat":33.7377,"lng":-84.10779,"zip":"30058","miles_from_dt":24.22},{"city":"Dacula","state_name":"Georgia","lat":33.97642,"lng":-83.88252,"zip":"30019","miles_from_dt":24.43},{"city":"Mcdonough","state_name":"Georgia","lat":33.47206,"lng":-84.06416,"zip":"30252","miles_from_dt":24.64},{"city":"Athens","state_name":"Georgia","lat":33.93873,"lng":-83.43305,"zip":"30606","miles_from_dt":24.72},{"city":"Monticello","state_name":"Georgia","lat":33.29031,"lng":-83.69986,"zip":"31064","miles_from_dt":25.26},{"city":"Stone Mountain","state_name":"Georgia","lat":33.80336,"lng":-84.10343,"zip":"30086","miles_from_dt":25.4},{"city":"Lithonia","state_name":"Georgia","lat":33.67078,"lng":-84.14209,"zip":"30038","miles_from_dt":25.57},{"city":"Redan","state_name":"Georgia","lat":33.74461,"lng":-84.13599,"zip":"30074","miles_from_dt":25.91},{"city":"Lawrenceville","state_name":"Georgia","lat":33.9497,"lng":-83.99389,"zip":"30046","miles_from_dt":26.38},{"city":"Auburn","state_name":"Georgia","lat":34.02281,"lng":-83.8364,"zip":"30011","miles_from_dt":26.43},{"city":"Lawrenceville","state_name":"Georgia","lat":33.95634,"lng":-83.99053,"zip":"30049","miles_from_dt":26.61},{"city":"Athens","state_name":"Georgia","lat":33.93289,"lng":-83.37223,"zip":"30609","miles_from_dt":26.73},{"city":"Athens","state_name":"Georgia","lat":34.00684,"lng":-83.49323,"zip":"30604","miles_from_dt":26.86},{"city":"Stone Mountain","state_name":"Georgia","lat":33.81087,"lng":-84.13135,"zip":"30087","miles_from_dt":27.08},{"city":"Athens","state_name":"Georgia","lat":33.95563,"lng":-83.3931,"zip":"30612","miles_from_dt":27.08},{"city":"Athens","state_name":"Georgia","lat":33.94252,"lng":-83.37256,"zip":"30602","miles_from_dt":27.2},{"city":"Athens","state_name":"Georgia","lat":33.90551,"lng":-83.32405,"zip":"30605","miles_from_dt":27.54},{"city":"Athens","state_name":"Georgia","lat":33.95929,"lng":-83.37689,"zip":"30603","miles_from_dt":27.88},{"city":"Athens","state_name":"Georgia","lat":33.95962,"lng":-83.37699,"zip":"30608","miles_from_dt":27.89},{"city":"Lilburn","state_name":"Georgia","lat":33.87104,"lng":-84.11304,"zip":"30047","miles_from_dt":28.05},{"city":"Lawrenceville","state_name":"Georgia","lat":33.92207,"lng":-84.06924,"zip":"30044","miles_from_dt":28.08},{"city":"Lawrenceville","state_name":"Georgia","lat":33.92354,"lng":-84.07302,"zip":"30042","miles_from_dt":28.32},{"city":"Stone Mountain","state_name":"Georgia","lat":33.75959,"lng":-84.17918,"zip":"30088","miles_from_dt":28.57},{"city":"Eatonton","state_name":"Georgia","lat":33.33,"lng":-83.39219,"zip":"31026","miles_from_dt":28.65},{"city":"Athens","state_name":"Georgia","lat":34.01895,"lng":-83.44774,"zip":"30607","miles_from_dt":28.83},{"city":"Stockbridge","state_name":"Georgia","lat":33.56338,"lng":-84.1961,"zip":"30281","miles_from_dt":29.4},{"city":"Jenkinsburg","state_name":"Georgia","lat":33.33001,"lng":-84.02617,"zip":"30234","miles_from_dt":29.41},{"city":"Decatur","state_name":"Georgia","lat":33.72563,"lng":-84.20541,"zip":"30035","miles_from_dt":29.58},{"city":"Jackson","state_name":"Georgia","lat":33.29492,"lng":-83.97501,"zip":"30233","miles_from_dt":29.61},{"city":"Lilburn","state_name":"Georgia","lat":33.90025,"lng":-84.1255,"zip":"30048","miles_from_dt":29.74},{"city":"Lawrenceville","state_name":"Georgia","lat":34.00353,"lng":-84.00703,"zip":"30043","miles_from_dt":29.75},{"city":"Arnoldsville","state_name":"Georgia","lat":33.85752,"lng":-83.2403,"zip":"30619","miles_from_dt":29.79},{"city":"Eatonton","state_name":"Georgia","lat":33.32344,"lng":-83.36987,"zip":"31024","miles_from_dt":29.81}],"targetCityZipCode":"30025","targetCityState":"Georgia"},"__N_SSG":true}